Id,Time(seconds),Time(text),Latitude,Longitude,FlightMode,Altitude(feet),Altitude(meters),VpsAltitude(feet),VpsAltitude(meters),HSpeed(mph),HSpeed(m/s),GpsSpeed(mph),GpsSpeed(m/s),HomeDistance(feet),HomeDistance(meters),HomeLatitude,HomeLongitude,GpsCount,GpsLevel,BatteryPower(%),BatteryVoltage,BatteryVoltageDeviation,BatteryCell1Voltage,BatteryCell2Voltage,BatteryCell3Voltage,BatteryCell4Voltage,VelocityX,VelocityY,VelocityZ,Pitch,Roll,Yaw,Yaw(360),RcAileron,RcElevator,RcGyro,RcRudder,RcThrottle,NonGpsError,GoHomeStatus,AppTip,AppWarning,AppMessage
1,0.4,0m 0.4s,-23.74614658,-46.57695893,Starting Motors,0.0,0.0,0.3,0.1,0.0,0.0,0.0,0.0,3.1,0.9,-23.74613843,-46.57695647,13,4,53,15.489,0.005,3.87,3.875,3.872,3.872,0,0,0,0.6,2,-150.4,209.6,0,0,0,0,0,,,,Your aircraft is flying in an Altitude Zone (150 m). Please fly with caution.,
2,0.5,0m 0.5s,-23.7461467,-46.57695895,Starting Motors,0.0,0.0,0.3,0.1,0.0,0.0,0.0,0.0,3.1,1.0,-23.74613843,-46.57695647,13,4,53,15.489,0.005,3.87,3.875,3.872,3.872,0,0,0,0.6,2,-150.5,209.5,0,0,0,0,0,,,,,
3,0.6,0m 0.6s,-23.74614686,-46.57695896,Starting Motors,0.0,0.0,0.3,0.1,0.0,0.0,1.1,0.5,3.2,1.0,-23.74613843,-46.57695647,13,4,53,15.489,0.005,3.87,3.875,3.872,3.872,0,0,0,0.6,2,-150.5,209.5,0,0,0,0,0,,,,,
4,0.7,0m 0.7s,-23.74614699,-46.57695894,Starting Motors,0.0,0.0,0.3,0.1,0.0,0.0,0.0,0.0,3.2,1.0,-23.74613843,-46.57695647,13,4,53,15.489,0.005,3.87,3.875,3.872,3.872,0,0,0,0.6,2,-150.5,209.5,0,0,0,0,0,,,,,
5,0.8,0m 0.8s,-23.74614715,-46.57695893,Starting Motors,0.0,0.0,0.3,0.1,0.0,0.0,1.1,0.5,3.3,1.0,-23.74613843,-46.57695647,13,4,53,15.489,0.005,3.87,3.875,3.872,3.872,0,0,0,0.6,2,-150.5,209.5,0,0,0,0,0,,,,,
6,0.9,0m 0.9s,-23.74614729,-46.5769589,Starting Motors,0.0,0.0,0.3,0.1,0.0,0.0,0.0,0.0,3.3,1.0,-23.74613843,-46.57695647,13,4,53,15.489,0.005,3.87,3.875,3.872,3.872,0,0,0,0.6,2,-150.7,209.3,0,0,0,0,0,,,,,
7,1,0m 1s,-23.74614746,-46.57695888,Starting Motors,0.0,0.0,0.3,0.1,0.0,0.0,0.0,0.0,3.4,1.0,-23.74613843,-46.57695647,13,4,53,15.489,0.005,3.87,3.875,3.872,3.872,0,0,0,0.6,2,-150.7,209.3,0,0,0,0,0,,,,,
8,1.1,0m 1.1s,-23.74614761,-46.57695886,Starting Motors,0.0,0.0,0.3,0.1,0.0,0.0,0.0,0.0,3.5,1.1,-23.74613843,-46.57695647,13,4,53,15.489,0.005,3.87,3.875,3.872,3.872,0,0,0,0.6,2,-150.7,209.3,0,0,0,0,0,,,,,
9,1.2,0m 1.2s,-23.74614778,-46.57695887,Starting Motors,0.0,0.0,0.3,0.1,0.0,0.0,0.0,0.0,3.5,1.1,-23.74613843,-46.57695647,13,4,53,15.489,0.005,3.87,3.875,3.872,3.872,0,0,0,0.6,2,-150.7,209.3,0,0,0,0,0,,,,,
10,1.3,0m 1.3s,-23.74614795,-46.57695887,Starting Motors,0.0,0.0,0.3,0.1,0.0,0.0,0.0,0.0,3.6,1.1,-23.74613843,-46.57695647,13,4,53,15.489,0.005,3.87,3.875,3.872,3.872,0,0,0,0.6,2,-150.7,209.3,0,0,0,0,0,,,,,
11,1.4,0m 1.4s,-23.74614813,-46.57695887,Starting Motors,0.0,0.0,0.3,0.1,0.0,0.0,0.0,0.0,3.6,1.1,-23.74613843,-46.57695647,13,4,53,15.489,0.005,3.87,3.875,3.872,3.872,0,0,0,0.6,2,-150.7,209.3,0,0,0,0,0,,,,,
12,1.5,0m 1.5s,-23.74614831,-46.57695884,Auto Takeoff,0.0,0.0,0.3,0.1,0.0,0.0,0.0,0.0,3.7,1.1,-23.74613843,-46.57695647,13,4,53,15.489,0.005,3.87,3.875,3.872,3.872,0,0,0,0.6,2,-150.7,209.3,0,0,0,0,0,,,,,
13,1.6,0m 1.6s,-23.74614849,-46.5769588,Auto Takeoff,0.0,0.0,0.3,0.1,0.0,0.0,0.0,0.0,3.8,1.1,-23.74613843,-46.57695647,13,4,53,15.489,0.005,3.87,3.875,3.872,3.872,0,0,0,0.6,2,-150.8,209.2,0,0,0,0,0,,,,,
14,1.7,0m 1.7s,-23.74614868,-46.57695874,Auto Takeoff,0.0,0.0,0.3,0.1,0.0,0.0,0.0,0.0,3.8,1.2,-23.74613843,-46.57695647,13,4,53,15.489,0.005,3.87,3.875,3.872,3.872,0,0,0,0.6,2,-150.8,209.2,0,0,0,0,0,,,,,
15,1.9,0m 1.9s,-23.74614909,-46.57695862,Auto Takeoff,0.0,0.0,0.3,0.1,0.0,0.0,0.0,0.0,4.0,1.2,-23.74613843,-46.57695647,13,4,53,15.489,0.005,3.87,3.875,3.872,3.872,0,0,0,0.6,2,-150.9,209.1,0,0,0,0,0,,,,,
16,2,0m 2s,-23.74614931,-46.57695859,Auto Takeoff,0.0,0.0,0.3,0.1,0.0,0.0,0.7,0.3,4.0,1.2,-23.74613843,-46.57695647,13,4,53,15.489,0.005,3.87,3.875,3.872,3.872,0,0,0,0.6,2,-150.9,209.1,0,0,0,0,0,,,,,
17,2.1,0m 2.1s,-23.74614954,-46.57695853,Auto Takeoff,0.0,0.0,0.3,0.1,0.0,0.0,0.0,0.0,4.1,1.3,-23.74613843,-46.57695647,13,4,53,15.489,0.005,3.87,3.875,3.872,3.872,0,0,0,0.6,1.9,-150.9,209.1,0,0,0,0,0,,,,,
18,2.2,0m 2.2s,-23.74614976,-46.57695848,Auto Takeoff,0.0,0.0,0.3,0.1,0.0,0.0,1.1,0.5,4.2,1.3,-23.74613843,-46.57695647,13,4,53,15.489,0.005,3.87,3.875,3.872,3.872,0,0,0,0.7,1.9,-150.9,209.1,0,0,0,0,0,,,,,
19,2.3,0m 2.3s,-23.74614998,-46.57695842,Auto Takeoff,0.0,0.0,0.3,0.1,0.0,0.0,0.0,0.0,4.3,1.3,-23.74613843,-46.57695647,13,4,53,15.489,0.005,3.87,3.875,3.872,3.872,0,0,0,0.7,1.8,-150.9,209.1,0,0,0,0,0,,,,,
20,2.4,0m 2.4s,-23.74615019,-46.57695836,Auto Takeoff,0.0,0.0,0.3,0.1,0.0,0.0,1.1,0.5,4.3,1.3,-23.74613843,-46.57695647,13,4,53,15.482,0.005,3.868,3.873,3.871,3.87,0,0,0,0.6,0.9,-150.8,209.2,0,0,0,0,0,,,,,
21,2.5,0m 2.5s,-23.74615036,-46.57695831,Auto Takeoff,0.0,0.0,0.3,0.1,0.0,0.0,0.0,0.0,4.4,1.3,-23.74613843,-46.57695647,13,4,53,15.482,0.005,3.868,3.873,3.871,3.87,0,0,-0.1,0.6,-1.4,-151.1,208.9,0,0,0,0,0,,,,,
22,2.6,0m 2.6s,-23.74615052,-46.57695825,Auto Takeoff,0.0,0.0,0.3,0.1,0.0,0.0,0.0,0.0,4.4,1.4,-23.74613843,-46.57695647,13,4,53,15.482,0.005,3.868,3.873,3.871,3.87,0,0,-0.2,0.5,-3,-151.2,208.8,0,0,0,0,0,,,,,
23,2.7,0m 2.7s,-23.74615068,-46.57695811,Auto Takeoff,0.0,0.0,0.7,0.2,0.0,0.0,0.0,0.0,4.5,1.4,-23.74613843,-46.57695647,13,4,53,15.482,0.005,3.868,3.873,3.871,3.87,0,0.1,-0.4,0,-1.9,-151.3,208.7,0,0,0,0,0,,,,,
24,2.8,0m 2.8s,-23.74615087,-46.5769579,Auto Takeoff,0.3,0.1,0.7,0.2,0.2,0.1,0.0,0.0,4.6,1.4,-23.74613843,-46.57695647,13,4,53,15.482,0.005,3.868,3.873,3.871,3.87,0,0.1,-0.5,-0.1,-0.1,-151.3,208.7,0,0,0,0,0,,,,,
25,2.9,0m 2.9s,-23.74615106,-46.57695765,Auto Takeoff,0.3,0.1,1.0,0.3,0.2,0.1,0.0,0.0,4.6,1.4,-23.74613843,-46.57695647,13,4,53,15.482,0.005,3.868,3.873,3.871,3.87,0,0.1,-0.5,-0.3,1.1,-151.3,208.7,0,0,0,0,0,,,,,
26,3,0m 3s,-23.74615124,-46.57695738,Auto Takeoff,0.7,0.2,1.0,0.3,0.2,0.1,0.0,0.0,4.7,1.4,-23.74613843,-46.57695647,13,4,53,15.482,0.005,3.868,3.873,3.871,3.87,0,0.1,-0.5,-0.2,3.1,-151.2,208.8,0,0,0,0,0,,,,,
27,3.1,0m 3.1s,-23.74615134,-46.57695713,Auto Takeoff,0.7,0.2,1.3,0.4,0.2,0.1,1.1,0.5,4.7,1.4,-23.74613843,-46.57695647,13,4,53,15.482,0.005,3.868,3.873,3.871,3.87,0,0.1,-0.5,0.2,4,-151.1,208.9,0,0,0,0,0,,,,,
28,3.2,0m 3.2s,-23.74615137,-46.57695692,Auto Takeoff,1.0,0.3,1.3,0.4,0.0,0.0,0.0,0.0,4.7,1.4,-23.74613843,-46.57695647,13,4,53,15.482,0.005,3.868,3.873,3.871,3.87,0,0,-0.5,0.5,2.8,-151.3,208.7,0,0,0,0,0,,,,,
29,3.3,0m 3.3s,-23.74615125,-46.57695681,Auto Takeoff,1.0,0.3,1.6,0.5,0.0,0.0,0.0,0.0,4.7,1.4,-23.74613843,-46.57695647,13,4,53,15.482,0.005,3.868,3.873,3.871,3.87,0,0,-0.4,0.3,1.2,-151.2,208.8,0,0,0,0,0,,,,,
30,3.4,0m 3.4s,-23.74615112,-46.57695673,Auto Takeoff,1.3,0.4,1.6,0.5,0.2,0.1,0.0,0.0,0.6,0.2,-23.74615042,-46.5769583,13,4,53,15.361,0.013,3.841,3.846,3.841,3.833,0,0.1,-0.4,-0.9,1.6,-151.1,208.9,0,0,0,0,0,,,Home Point recorded. Return-to-Home Altitude:80M,,Home Point Updated
31,3.5,0m 3.5s,-23.74615085,-46.57695672,Auto Takeoff,1.3,0.4,2.0,0.6,0.2,0.1,0.0,0.0,0.5,0.2,-23.74615042,-46.5769583,13,4,53,15.361,0.013,3.841,3.846,3.841,3.833,0.1,0.1,-0.4,-2,1.6,-151.1,208.9,0,0,0,0,0,,,,,
32,3.6,0m 3.6s,-23.74615061,-46.57695669,Auto Takeoff,1.3,0.4,2.0,0.6,0.3,0.1,0.0,0.0,0.6,0.2,-23.74615042,-46.5769583,13,4,53,15.361,0.013,3.841,3.846,3.841,3.833,0.1,0.1,-0.3,-3.4,1.5,-151.2,208.8,0,0,0,0,0,,,,,
33,3.7,0m 3.7s,-23.74615033,-46.57695674,Auto Takeoff,1.6,0.5,2.0,0.6,0.2,0.1,0.0,0.0,0.4,0.1,-23.74615042,-46.5769583,13,4,53,15.361,0.013,3.841,3.846,3.841,3.833,0,0.1,-0.3,-2.9,1.5,-151.2,208.8,0,0,0,0,0,,,,,
34,3.8,0m 3.8s,-23.74615013,-46.57695679,Auto Takeoff,1.6,0.5,2.3,0.7,0.3,0.1,1.1,0.5,0.6,0.2,-23.74615042,-46.5769583,13,4,53,15.361,0.013,3.841,3.846,3.841,3.833,0.1,0.1,-0.4,-3,1.4,-151,209,0,0,0,0,0,,,,,
35,3.9,0m 3.9s,-23.74614987,-46.57695687,Auto Takeoff,2.0,0.6,2.3,0.7,0.2,0.1,0.0,0.0,0.6,0.2,-23.74615042,-46.5769583,13,4,53,15.361,0.013,3.841,3.846,3.841,3.833,0,0.1,-0.4,-4.2,2.5,-150.9,209.1,0,0,0,0,0,,,,,
36,4,0m 4s,-23.74614968,-46.5769569,Auto Takeoff,2.0,0.6,2.6,0.8,0.2,0.1,0.0,0.0,0.5,0.2,-23.74615042,-46.5769583,13,4,53,15.361,0.013,3.841,3.846,3.841,3.833,0,0.1,-0.4,-4,3.3,-151,209,0,0,0,0,0,,,,,
37,4.1,0m 4.1s,-23.74614952,-46.57695701,Auto Takeoff,2.3,0.7,2.6,0.8,0.0,0.0,0.0,0.0,0.5,0.2,-23.74615042,-46.5769583,13,4,53,15.361,0.013,3.841,3.846,3.841,3.833,0,0,-0.4,-3.5,2.9,-151,209,0,0,0,0,0,,,,,
38,4.2,0m 4.2s,-23.74614947,-46.57695713,Auto Takeoff,2.3,0.7,3.0,0.9,0.0,0.0,0.0,0.0,0.5,0.2,-23.74615042,-46.5769583,13,4,53,15.361,0.013,3.841,3.846,3.841,3.833,0,0,-0.4,-3.6,1.9,-151,209,1024,1024,1024,1024,1116,,,,,
39,4.3,0m 4.3s,-23.74614945,-46.57695729,Auto Takeoff,2.6,0.8,3.0,0.9,0.2,0.1,0.0,0.0,0.4,0.1,-23.74615042,-46.5769583,13,4,53,15.361,0.013,3.841,3.846,3.841,3.833,0,0.1,-0.5,-3.4,2.3,-151.1,208.9,1024,1024,1024,1024,1296,,,,,
40,4.4,0m 4.4s,-23.74614944,-46.57695743,Auto Takeoff,2.6,0.8,3.3,1.0,0.0,0.0,0.0,0.0,0.4,0.1,-23.74615042,-46.5769583,13,4,53,15.209,0.014,3.796,3.81,3.806,3.797,0,0,-0.5,-2.8,3,-151,209,1024,1024,1024,1024,1398,,,,,
41,4.5,0m 4.5s,-23.74614946,-46.57695763,Auto Takeoff,3.0,0.9,3.3,1.0,0.0,0.0,0.0,0.0,0.4,0.1,-23.74615042,-46.5769583,13,4,53,15.209,0.014,3.796,3.81,3.806,3.797,0,0,-0.5,-2.7,3.3,-150.9,209.1,1024,1024,1024,1024,1473,,,,,
42,4.6,0m 4.6s,-23.74614947,-46.57695784,Auto Takeoff,3.0,0.9,3.6,1.1,0.2,0.1,0.0,0.0,0.3,0.1,-23.74615042,-46.5769583,13,4,53,15.209,0.014,3.796,3.81,3.806,3.797,0.1,0,-0.5,-3.3,2.4,-151,209,1024,1024,1024,1024,1532,,,,,
43,4.7,0m 4.7s,-23.7461495,-46.5769581,P-GPS,3.3,1.0,3.6,1.1,0.0,0.0,0.0,0.0,0.3,0.1,-23.74615042,-46.5769583,13,4,53,15.209,0.014,3.796,3.81,3.806,3.797,0,0,-0.7,-3.9,0.7,-151,209,1024,1024,1024,1024,1556,,,,"Braking now. Return sticks to midpoints, then continue flying.",
44,4.8,0m 4.8s,-23.74614955,-46.57695832,P-GPS,3.6,1.1,3.9,1.2,0.0,0.0,0.0,0.0,0.0,0.0,-23.74615042,-46.5769583,13,4,53,15.209,0.014,3.796,3.81,3.806,3.797,0,0,-0.8,-3.3,0.6,-150.9,209.1,1024,1024,1024,1024,1556,,,,,
45,4.9,0m 4.9s,-23.74614968,-46.57695851,P-GPS,3.9,1.2,4.3,1.3,0.0,0.0,0.0,0.0,0.0,0.0,-23.74615042,-46.5769583,13,4,53,15.209,0.014,3.796,3.81,3.806,3.797,0,0,-1.2,-2.8,-0.1,-150.6,209.4,1024,1024,1024,1024,1561,,,,,
46,5,0m 5s,-23.74614981,-46.57695862,P-GPS,4.3,1.3,4.6,1.4,0.0,0.0,0.0,0.0,0.0,0.0,-23.74615042,-46.5769583,13,4,53,15.209,0.014,3.796,3.81,3.806,3.797,0,0,-1.5,-3.8,-0.2,-150.6,209.4,1024,1024,1024,1024,1589,,,,,
47,5.1,0m 5.1s,-23.74615007,-46.57695867,P-GPS,4.9,1.5,5.2,1.6,0.0,0.0,0.0,0.0,0.0,0.0,-23.74615042,-46.5769583,13,4,53,15.209,0.014,3.796,3.81,3.806,3.797,0,0,-1.9,-3.3,1.1,-151,209,1024,1024,1024,1024,1603,,,,,
48,5.2,0m 5.2s,-23.74615041,-46.5769587,P-GPS,5.6,1.7,5.9,1.8,0.2,0.1,1.1,0.5,0.3,0.1,-23.74615042,-46.5769583,13,4,53,15.209,0.014,3.796,3.81,3.806,3.797,-0.1,0,-2.3,-2.1,4.4,-151.3,208.7,1024,1024,1024,1024,1628,,,,,
49,5.3,0m 5.3s,-23.74615076,-46.57695879,P-GPS,6.6,2.0,6.6,2.0,0.0,0.0,1.1,0.5,0.0,0.0,-23.74615042,-46.5769583,13,4,53,15.209,0.014,3.796,3.81,3.806,3.797,0,0,-2.6,-2,3.9,-151.5,208.5,1024,1024,1024,1024,1662,,,,,
50,5.4,0m 5.4s,-23.74615101,-46.57695896,P-GPS,7.2,2.2,7.5,2.3,0.0,0.0,1.1,0.5,0.4,0.1,-23.74615042,-46.5769583,13,4,53,15.209,0.014,3.796,3.81,3.806,3.797,0,0,-3,-2.1,3.7,-151.6,208.4,1024,1024,1024,1024,1684,,,,,
51,5.5,0m 5.5s,-23.74615127,-46.57695917,P-GPS,8.5,2.6,8.5,2.6,0.0,0.0,1.1,0.5,0.4,0.1,-23.74615042,-46.5769583,13,4,53,15.209,0.014,3.796,3.81,3.806,3.797,0,0,-3.5,-3.4,1.1,-151.7,208.3,1024,1024,1024,1024,1684,,,,,
52,5.6,0m 5.6s,-23.74615158,-46.57695938,P-GPS,9.8,3.0,9.5,2.9,0.4,0.2,1.1,0.5,0.6,0.2,-23.74615042,-46.5769583,13,4,53,15.209,0.014,3.796,3.81,3.806,3.797,-0.2,0,-4,-3.6,0.4,-151.6,208.4,1024,1024,1024,1024,1684,,,,,
53,5.7,0m 5.7s,-23.74615207,-46.57695958,P-GPS,11.2,3.4,11.2,3.4,0.7,0.3,1.1,0.5,0.7,0.2,-23.74615042,-46.5769583,13,4,53,15.209,0.014,3.796,3.81,3.806,3.797,-0.3,0,-4.4,1.3,2.2,-151.2,208.8,1024,1024,1024,1024,1684,,,,,
54,5.8,0m 5.8s,-23.74615256,-46.57695976,P-GPS,12.8,3.9,12.5,3.8,0.4,0.2,1.5,0.7,1.0,0.3,-23.74615042,-46.5769583,13,4,53,15.209,0.014,3.796,3.81,3.806,3.797,-0.2,0,-4.8,4.6,4.8,-150.9,209.1,1024,1024,1024,1024,1684,,,,,
55,5.9,0m 5.9s,-23.74615293,-46.57695995,P-GPS,14.4,4.4,14.1,4.3,0.0,0.0,1.1,0.5,1.1,0.3,-23.74615042,-46.5769583,13,4,53,15.209,0.014,3.796,3.81,3.806,3.797,0,0,-5,3.6,5.1,-150.9,209.1,1024,1024,1024,1024,1684,,,,,
56,6,0m 6s,-23.74615315,-46.57696016,P-GPS,16.1,4.9,15.7,4.8,0.0,0.0,0.0,0.0,1.2,0.4,-23.74615042,-46.5769583,13,4,53,15.209,0.014,3.796,3.81,3.806,3.797,0,0,-5.1,1.9,5,-151,209,1024,1024,1024,1024,1684,,,,,
57,6.1,0m 6.1s,-23.74615321,-46.57696041,P-GPS,17.7,5.4,17.4,5.3,0.2,0.1,0.0,0.0,1.2,0.4,-23.74615042,-46.5769583,13,4,53,15.209,0.014,3.796,3.81,3.806,3.797,0.1,0,-5.1,-1.2,4.4,-151.4,208.6,1024,1024,1024,1024,1684,,,,,
58,6.2,0m 6.2s,-23.74615318,-46.57696069,P-GPS,19.4,5.9,18.7,5.7,0.2,0.1,0.0,0.0,1.3,0.4,-23.74615042,-46.5769583,13,4,53,15.209,0.014,3.796,3.81,3.806,3.797,0,-0.1,-5,-4.1,2.8,-151.5,208.5,1024,1024,1024,1024,1684,,,,,
59,6.3,0m 6.3s,-23.74615315,-46.57696103,P-GPS,21.0,6.4,20.3,6.2,0.2,0.1,1.1,0.5,1.3,0.4,-23.74615042,-46.5769583,13,4,53,15.209,0.014,3.796,3.81,3.806,3.797,0,-0.1,-5,-4.1,1.6,-151.2,208.8,1024,1024,1024,1024,1684,,,,,
60,6.4,0m 6.4s,-23.74615321,-46.57696139,P-GPS,22.6,6.9,22.0,6.7,0.2,0.1,0.0,0.0,1.5,0.4,-23.74615042,-46.5769583,13,4,53,15.044,0.018,3.749,3.767,3.766,3.762,0,-0.1,-4.9,-2.2,-0.3,-151.3,208.7,1024,1024,1024,1024,1684,,,,,
61,6.5,0m 6.5s,-23.74615334,-46.57696174,P-GPS,24.3,7.4,23.6,7.2,0.2,0.1,1.1,0.5,1.5,0.5,-23.74615042,-46.5769583,13,4,53,15.044,0.018,3.749,3.767,3.766,3.762,0,-0.1,-4.9,-0.3,-0.8,-151.4,208.6,1024,1024,1024,1024,1684,,,,,
62,6.6,0m 6.6s,-23.74615356,-46.57696203,P-GPS,25.9,7.9,25.3,7.7,0.0,0.0,1.1,0.5,1.7,0.5,-23.74615042,-46.5769583,13,4,53,15.044,0.018,3.749,3.767,3.766,3.762,0,0,-5,0.9,0.4,-151.5,208.5,1024,1024,1024,1024,1684,,,,,
63,6.7,0m 6.7s,-23.74615379,-46.57696225,P-GPS,27.6,8.4,26.9,8.2,0.0,0.0,0.0,0.0,1.8,0.6,-23.74615042,-46.5769583,13,4,53,15.044,0.018,3.749,3.767,3.766,3.762,0,0,-4.9,0.1,1.9,-151.5,208.5,1024,1024,1024,1024,1684,,,,,
64,6.8,0m 6.8s,-23.74615401,-46.57696243,P-GPS,29.2,8.9,28.5,8.7,0.0,0.0,1.1,0.5,1.9,0.6,-23.74615042,-46.5769583,13,4,53,15.044,0.018,3.749,3.767,3.766,3.762,0,0,-4.9,-0.1,2.2,-151.5,208.5,1024,1024,1024,1024,1684,,,,,
65,6.9,0m 6.9s,-23.74615422,-46.57696262,P-GPS,30.8,9.4,30.2,9.2,0.0,0.0,1.1,0.5,2.0,0.6,-23.74615042,-46.5769583,13,4,53,15.044,0.018,3.749,3.767,3.766,3.762,0,0,-4.9,0,2.1,-151.3,208.7,1024,1024,1024,1024,1684,,,,,
66,7,0m 7s,-23.74615441,-46.5769628,P-GPS,32.5,9.9,31.8,9.7,0.0,0.0,0.0,0.0,2.1,0.6,-23.74615042,-46.5769583,13,4,53,15.044,0.018,3.749,3.767,3.766,3.762,0,0,-4.9,0.6,2.5,-151,209,1024,1024,1024,1024,1684,,,,,
67,7.1,0m 7.1s,-23.74615454,-46.57696299,P-GPS,34.1,10.4,33.5,10.2,0.0,0.0,1.1,0.5,2.2,0.7,-23.74615042,-46.5769583,13,4,53,15.044,0.018,3.749,3.767,3.766,3.762,0,0,-4.9,0,1.9,-151.1,208.9,1024,1024,1024,1024,1684,,,,,
68,7.2,0m 7.2s,-23.74615462,-46.5769632,P-GPS,35.8,10.9,34.8,10.6,0.0,0.0,0.0,0.0,2.2,0.7,-23.74615042,-46.5769583,13,4,53,15.044,0.018,3.749,3.767,3.766,3.762,0,0,-4.9,-1.3,2.2,-151.2,208.8,1024,1024,1024,1024,1684,,,,,
69,7.3,0m 7.3s,-23.74615471,-46.57696346,P-GPS,37.4,11.4,36.4,11.1,0.2,0.1,0.0,0.0,2.3,0.7,-23.74615042,-46.5769583,13,4,53,15.044,0.018,3.749,3.767,3.766,3.762,0,-0.1,-5,-2.5,2.2,-151.3,208.7,1024,1024,1024,1024,1684,,,,,
70,7.4,0m 7.4s,-23.74615482,-46.57696382,P-GPS,39.0,11.9,38.1,11.6,0.4,0.2,1.1,0.5,2.5,0.7,-23.74615042,-46.5769583,13,4,53,14.983,0.021,3.736,3.757,3.752,3.738,0,-0.2,-5,-1.5,0.7,-151.3,208.7,1024,1024,1024,1024,1684,,,,,
71,7.5,0m 7.5s,-23.74615495,-46.57696426,P-GPS,40.7,12.4,39.7,12.1,0.4,0.2,1.1,0.5,2.6,0.8,-23.74615042,-46.5769583,13,4,53,14.983,0.021,3.736,3.757,3.752,3.738,0,-0.2,-5,0.4,0,-151.3,208.7,1024,1024,1024,1024,1684,,,,,
72,7.6,0m 7.6s,-23.74615509,-46.57696473,P-GPS,42.3,12.9,41.3,12.6,0.4,0.2,1.1,0.5,2.8,0.8,-23.74615042,-46.5769583,13,4,53,14.983,0.021,3.736,3.757,3.752,3.738,0,-0.2,-5,1.2,-1.1,-151.6,208.4,1024,1024,1024,1024,1684,,,,,
73,7.7,0m 7.7s,-23.74615523,-46.57696519,P-GPS,44.0,13.4,43.0,13.1,0.2,0.1,0.0,0.0,2.9,0.9,-23.74615042,-46.5769583,13,4,53,14.983,0.021,3.736,3.757,3.752,3.738,0,-0.1,-5,1.8,-3.5,-151.8,208.2,1024,1024,1024,1024,1684,,,,,
74,7.8,0m 7.8s,-23.74615536,-46.57696554,P-GPS,45.6,13.9,44.6,13.6,0.0,0.0,0.0,0.0,3.0,0.9,-23.74615042,-46.5769583,13,4,53,14.983,0.021,3.736,3.757,3.752,3.738,0,0,-5,1.4,-3.8,-151.5,208.5,1024,1024,1024,1024,1684,,,,,
75,7.9,0m 7.9s,-23.74615545,-46.57696575,P-GPS,47.2,14.4,46.3,14.1,0.0,0.0,0.0,0.0,3.1,0.9,-23.74615042,-46.5769583,13,4,53,14.983,0.021,3.736,3.757,3.752,3.738,0,0,-5,0.8,0,-151.3,208.7,1024,1024,1024,1024,1684,,,,,
76,8,0m 8s,-23.74615546,-46.57696587,P-GPS,48.9,14.9,47.9,14.6,0.2,0.1,0.0,0.0,3.1,1.0,-23.74615042,-46.5769583,13,4,53,14.983,0.021,3.736,3.757,3.752,3.738,0.1,0,-5,0.3,3.1,-151.2,208.8,1024,1024,1024,1024,1684,,,,,
77,8.1,0m 8.1s,-23.74615534,-46.57696603,P-GPS,50.5,15.4,49.5,15.1,0.4,0.2,0.0,0.0,3.1,1.0,-23.74615042,-46.5769583,13,4,53,14.983,0.021,3.736,3.757,3.752,3.738,0.2,0,-4.9,-1.3,1.1,-151,209,1024,1024,1024,1024,1684,,,,,
78,8.2,0m 8.2s,-23.74615513,-46.57696621,P-GPS,52.2,15.9,51.2,15.6,0.4,0.2,0.0,0.0,3.2,1.0,-23.74615042,-46.5769583,13,4,53,14.983,0.021,3.736,3.757,3.752,3.738,0.2,0,-4.9,-4,-1.4,-151,209,1024,1024,1024,1024,1684,,,,,
79,8.3,0m 8.3s,-23.74615488,-46.57696641,P-GPS,53.8,16.4,52.8,16.1,0.4,0.2,1.1,0.5,3.1,1.0,-23.74615042,-46.5769583,13,4,53,14.983,0.021,3.736,3.757,3.752,3.738,0.2,0,-4.8,-5.7,-1.8,-151,209,1024,1024,1024,1024,1684,,,,,
80,8.4,0m 8.4s,-23.74615471,-46.57696667,P-GPS,55.4,16.9,54.5,16.6,0.2,0.1,0.0,0.0,3.2,1.0,-23.74615042,-46.5769583,13,4,53,15.021,0.018,3.746,3.764,3.761,3.75,0.1,0,-4.9,-3.7,-2.5,-151,209,1024,1024,1024,1024,1684,,,,,
81,8.5,0m 8.5s,-23.74615452,-46.57696693,P-GPS,57.1,17.4,,,0.2,0.1,1.1,0.5,3.2,1.0,-23.74615042,-46.5769583,13,4,53,15.021,0.018,3.746,3.764,3.761,3.75,0.1,0,-4.9,-2.6,-2.2,-151.1,208.9,1024,1024,1024,1024,1684,,,,,
82,8.6,0m 8.6s,-23.74615436,-46.57696713,P-GPS,58.4,17.8,,,0.4,0.2,0.0,0.0,3.3,1.0,-23.74615042,-46.5769583,13,4,53,15.021,0.018,3.746,3.764,3.761,3.75,0.2,0,-4.9,-3.8,-1.6,-151.1,208.9,1024,1024,1024,1024,1684,,,,,
83,8.7,0m 8.7s,-23.74615416,-46.57696732,P-GPS,60.4,18.4,,,0.2,0.1,0.0,0.0,3.3,1.0,-23.74615042,-46.5769583,13,4,53,15.021,0.018,3.746,3.764,3.761,3.75,0.1,0,-5,-4.6,-1.5,-150.9,209.1,1024,1024,1024,1024,1684,,,,,
84,8.8,0m 8.8s,-23.746154,-46.57696749,P-GPS,62.0,18.9,,,0.2,0.1,0.0,0.0,3.3,1.0,-23.74615042,-46.5769583,13,4,53,15.021,0.018,3.746,3.764,3.761,3.75,0.1,0,-5,-4.8,-1.9,-151,209,1024,1024,1024,1024,1684,,,,,
85,8.9,0m 8.9s,-23.74615381,-46.57696768,P-GPS,63.6,19.4,,,0.2,0.1,0.0,0.0,3.4,1.0,-23.74615042,-46.5769583,13,4,53,15.021,0.018,3.746,3.764,3.761,3.75,0.1,0,-5,-5.8,-3,-150.8,209.2,1024,1024,1024,1024,1684,,,,,
86,9,0m 9s,-23.74615368,-46.57696785,P-GPS,65.3,19.9,,,0.2,0.1,0.0,0.0,3.4,1.0,-23.74615042,-46.5769583,13,4,53,15.021,0.018,3.746,3.764,3.761,3.75,0.1,0,-5,-6.4,-3,-150.8,209.2,1024,1024,1024,1024,1684,,,,,
87,9.1,0m 9.1s,-23.74615362,-46.57696805,P-GPS,66.9,20.4,,,0.0,0.0,0.0,0.0,3.5,1.1,-23.74615042,-46.5769583,13,4,53,15.021,0.018,3.746,3.764,3.761,3.75,0,0,-4.9,-5,-3.2,-150.8,209.2,1024,1024,1024,1024,1684,,,,,
88,9.2,0m 9.2s,-23.74615364,-46.57696823,P-GPS,68.6,20.9,,,0.0,0.0,0.0,0.0,3.5,1.1,-23.74615042,-46.5769583,13,4,53,15.021,0.018,3.746,3.764,3.761,3.75,0,0,-4.8,-3.7,-2.6,-151,209,1024,1024,1024,1024,1684,,,,,
89,9.3,0m 9.3s,-23.74615368,-46.57696839,P-GPS,69.9,21.3,,,0.0,0.0,0.0,0.0,3.6,1.1,-23.74615042,-46.5769583,13,4,53,15.021,0.018,3.746,3.764,3.761,3.75,0,0,-4.8,-2.6,-2.8,-151.2,208.8,1024,1024,1024,1024,1684,,,,,
90,9.4,0m 9.4s,-23.74615376,-46.5769685,P-GPS,71.5,21.8,,,0.0,0.0,0.0,0.0,3.6,1.1,-23.74615042,-46.5769583,13,4,53,15.021,0.018,3.746,3.764,3.761,3.75,0,0,-4.9,-1.5,-2.1,-151.2,208.8,1024,1024,1024,1024,1684,,,,,
91,9.5,0m 9.5s,-23.74615383,-46.57696856,P-GPS,73.2,22.3,,,0.0,0.0,0.0,0.0,3.6,1.1,-23.74615042,-46.5769583,13,4,53,15.021,0.018,3.746,3.764,3.761,3.75,0,0,-4.9,-1.6,-1.2,-151.2,208.8,1024,1024,1024,1024,1684,,,,,
92,9.6,0m 9.6s,-23.74615385,-46.57696861,P-GPS,74.8,22.8,,,0.0,0.0,0.0,0.0,3.7,1.1,-23.74615042,-46.5769583,13,4,53,15.021,0.018,3.746,3.764,3.761,3.75,0,0,-4.9,-3.4,-1.4,-151.1,208.9,1024,1024,1024,1024,1684,,,,,
93,9.7,0m 9.7s,-23.74615381,-46.57696866,P-GPS,76.4,23.3,,,0.2,0.1,1.1,0.5,3.7,1.1,-23.74615042,-46.5769583,13,4,53,15.021,0.018,3.746,3.764,3.761,3.75,0.1,0,-5,-3.9,-1.9,-151.1,208.9,1024,1024,1024,1024,1684,,,,,
94,9.8,0m 9.8s,-23.74615376,-46.57696872,P-GPS,78.1,23.8,,,0.2,0.1,0.0,0.0,3.7,1.1,-23.74615042,-46.5769583,13,4,53,15.021,0.018,3.746,3.764,3.761,3.75,0.1,0,-5.1,-3.8,-1.6,-151,209,1024,1024,1024,1024,1684,,,,,
95,9.9,0m 9.9s,-23.74615362,-46.57696879,P-GPS,80.1,24.4,,,0.2,0.1,0.0,0.0,3.7,1.1,-23.74615042,-46.5769583,13,4,53,15.021,0.018,3.746,3.764,3.761,3.75,0.1,0,-5.2,-4,-2,-151.1,208.9,1024,1024,1024,1024,1684,,,,,
96,10,0m 10s,-23.74615345,-46.57696886,P-GPS,81.7,24.9,,,0.4,0.2,0.0,0.0,3.7,1.1,-23.74615042,-46.5769583,13,4,53,15.021,0.018,3.746,3.764,3.761,3.75,0.2,0,-5.2,-5.5,-3.6,-151,209,1024,1024,1024,1024,1684,,,,,
97,10.1,0m 10.1s,-23.7461532,-46.57696892,P-GPS,83.3,25.4,,,0.4,0.2,1.1,0.5,3.7,1.1,-23.74615042,-46.5769583,13,4,53,15.021,0.018,3.746,3.764,3.761,3.75,0.2,0,-5.3,-7.3,-3.7,-150.9,209.1,1024,1024,1024,1024,1684,,,,,
98,10.2,0m 10.2s,-23.74615301,-46.57696895,P-GPS,85.3,26.0,,,0.4,0.2,0.0,0.0,3.7,1.1,-23.74615042,-46.5769583,13,4,53,15.021,0.018,3.746,3.764,3.761,3.75,0.2,0,-5.1,-7.9,-3.1,-150.9,209.1,1024,1024,1024,1024,1684,,,,,
99,10.3,0m 10.3s,-23.7461528,-46.57696902,P-GPS,86.9,26.5,,,0.4,0.2,0.0,0.0,3.7,1.1,-23.74615042,-46.5769583,13,4,53,15.021,0.018,3.746,3.764,3.761,3.75,0.2,0,-5.1,-8.2,-3.5,-150.9,209.1,1024,1024,1024,1024,1684,,,,,
100,10.4,0m 10.4s,-23.74615264,-46.57696908,P-GPS,88.6,27.0,,,0.2,0.1,0.0,0.0,3.7,1.1,-23.74615042,-46.5769583,13,4,53,14.991,0.018,3.739,3.757,3.753,3.742,0.1,0,-4.9,-8.7,-4.4,-150.9,209.1,1024,1024,1024,1024,1684,,,,,
101,10.5,0m 10.5s,-23.74615254,-46.57696915,P-GPS,90.2,27.5,,,0.2,0.1,0.0,0.0,3.7,1.1,-23.74615042,-46.5769583,13,4,53,14.991,0.018,3.739,3.757,3.753,3.742,0,0.1,-4.9,-8,-4.1,-150.8,209.2,1024,1024,1024,1024,1684,,,,,
102,10.6,0m 10.6s,-23.74615254,-46.57696916,P-GPS,91.9,28.0,,,0.2,0.1,0.0,0.0,3.7,1.1,-23.74615042,-46.5769583,13,4,53,14.991,0.018,3.739,3.757,3.753,3.742,0,0.1,-4.9,-7.1,-3,-151,209,1024,1024,1024,1024,1684,,,,,
103,10.7,0m 10.7s,-23.74615257,-46.57696915,P-GPS,93.5,28.5,,,0.2,0.1,0.0,0.0,3.7,1.1,-23.74615042,-46.5769583,13,4,53,14.991,0.018,3.739,3.757,3.753,3.742,0,0.1,-4.9,-6.8,-1.8,-151.1,208.9,1024,1024,1024,1024,1684,,,,,
104,10.8,0m 10.8s,-23.74615264,-46.57696908,P-GPS,95.1,29.0,,,0.2,0.1,0.0,0.0,3.7,1.1,-23.74615042,-46.5769583,13,4,53,14.991,0.018,3.739,3.757,3.753,3.742,0,0.1,-4.7,-7.9,-0.6,-151.1,208.9,1024,1024,1024,1024,1684,,,,,
105,10.9,0m 10.9s,-23.74615274,-46.57696906,P-GPS,96.5,29.4,,,0.0,0.0,0.0,0.0,3.7,1.1,-23.74615042,-46.5769583,13,4,53,14.991,0.018,3.739,3.757,3.753,3.742,0,0,-4.6,-7.4,-0.9,-151.1,208.9,1024,1024,1024,1024,1684,,,,,
106,11,0m 11s,-23.7461529,-46.57696909,P-GPS,98.1,29.9,,,0.0,0.0,0.0,0.0,3.7,1.1,-23.74615042,-46.5769583,13,4,53,14.991,0.018,3.739,3.757,3.753,3.742,0,0,-4.7,-6.4,-1,-151.2,208.8,1024,1024,1024,1024,1684,,,,,
107,11.1,0m 11.1s,-23.74615302,-46.57696913,P-GPS,99.4,30.3,,,0.0,0.0,1.1,0.5,3.8,1.1,-23.74615042,-46.5769583,13,4,53,14.991,0.018,3.739,3.757,3.753,3.742,0,0,-4.7,-6.8,-3,-151.1,208.9,1024,1024,1024,1024,1684,,,,,
108,11.2,0m 11.2s,-23.74615317,-46.57696915,P-GPS,101.0,30.8,,,0.2,0.1,0.0,0.0,3.8,1.1,-23.74615042,-46.5769583,13,4,53,14.991,0.018,3.739,3.757,3.753,3.742,-0.1,0,-4.6,-6.8,-2.4,-151,209,1024,1024,1024,1024,1684,,,,,
109,11.3,0m 11.3s,-23.74615334,-46.57696915,P-GPS,102.4,31.2,,,0.2,0.1,0.0,0.0,3.8,1.2,-23.74615042,-46.5769583,13,4,53,14.991,0.018,3.739,3.757,3.753,3.742,-0.1,0,-4.7,-5,-0.5,-151.1,208.9,1024,1024,1024,1024,1684,,,,,
110,11.4,0m 11.4s,-23.74615352,-46.57696915,P-GPS,104.0,31.7,,,0.2,0.1,0.0,0.0,3.8,1.2,-23.74615042,-46.5769583,13,4,52,14.986,0.02,3.74,3.757,3.752,3.737,-0.1,0,-4.7,-4.1,-0.2,-151.2,208.8,1024,1024,1024,1024,1684,,,,,
111,11.5,0m 11.5s,-23.7461536,-46.57696913,P-GPS,105.6,32.2,,,0.0,0.0,0.0,0.0,3.8,1.2,-23.74615042,-46.5769583,13,4,52,14.986,0.02,3.74,3.757,3.752,3.737,0,0,-4.8,-5,0.1,-151.2,208.8,1024,1024,1024,1024,1684,,,,,
112,11.6,0m 11.6s,-23.74615364,-46.57696913,P-GPS,107.3,32.7,,,0.0,0.0,0.0,0.0,3.8,1.2,-23.74615042,-46.5769583,13,4,52,14.986,0.02,3.74,3.757,3.752,3.737,0,0,-4.8,-5.8,-0.5,-151,209,1024,1024,1024,1024,1678,,,,,
113,11.7,0m 11.7s,-23.74615359,-46.57696916,P-GPS,108.9,33.2,,,0.0,0.0,0.0,0.0,3.8,1.2,-23.74615042,-46.5769583,13,4,52,14.986,0.02,3.74,3.757,3.752,3.737,0,0,-4.9,-6.9,-1.9,-151,209,1024,1024,1024,1024,1571,,,,,
114,11.8,0m 11.8s,-23.74615357,-46.57696923,P-GPS,110.2,33.6,,,0.0,0.0,0.0,0.0,3.8,1.2,-23.74615042,-46.5769583,13,4,52,14.986,0.02,3.74,3.757,3.752,3.737,0,0,-4.8,-7.3,-2.3,-150.9,209.1,1024,1024,1024,1024,1593,,,,,
115,11.9,0m 11.9s,-23.74615349,-46.57696931,P-GPS,111.9,34.1,,,0.0,0.0,1.1,0.5,3.9,1.2,-23.74615042,-46.5769583,13,4,52,14.986,0.02,3.74,3.757,3.752,3.737,0,0,-4.3,-9.1,-3.6,-150.9,209.1,1024,1024,1024,1024,1676,,,,,
116,12,0m 12s,-23.74615347,-46.57696941,P-GPS,112.9,34.4,,,0.0,0.0,0.0,0.0,3.9,1.2,-23.74615042,-46.5769583,13,4,52,14.986,0.02,3.74,3.757,3.752,3.737,0,0,-3.8,-9.5,-4.5,-150.7,209.3,1024,1024,1024,1024,1684,,,,,
117,12.1,0m 12.1s,-23.74615348,-46.5769695,P-GPS,114.2,34.8,,,0.2,0.1,1.1,0.5,3.9,1.2,-23.74615042,-46.5769583,13,4,52,14.986,0.02,3.74,3.757,3.752,3.737,0,-0.1,-4,-7.4,-1.7,-150.6,209.4,1024,1024,1024,1024,1684,,,,,
118,12.2,0m 12.2s,-23.74615356,-46.57696969,P-GPS,115.8,35.3,,,0.4,0.2,0.0,0.0,4.0,1.2,-23.74615042,-46.5769583,13,4,52,14.986,0.02,3.74,3.757,3.752,3.737,0,-0.2,-4.4,-4.1,-1.3,-150.7,209.3,1024,1024,1024,1024,1684,,,,,
119,12.3,0m 12.3s,-23.74615356,-46.57696998,P-GPS,117.1,35.7,,,0.4,0.2,0.0,0.0,4.1,1.2,-23.74615042,-46.5769583,13,4,52,14.986,0.02,3.74,3.757,3.752,3.737,0,-0.2,-4.6,-3.4,-4,-150.8,209.2,1024,1024,1024,1024,1665,,,,,
120,12.4,0m 12.4s,-23.74615353,-46.57697033,P-GPS,118.8,36.2,,,0.4,0.2,1.1,0.5,4.2,1.3,-23.74615042,-46.5769583,13,4,52,15.038,0.038,3.762,3.774,3.766,3.736,0,-0.2,-4.7,-4.4,-6.6,-150.9,209.1,1024,1024,1024,1024,1609,,,,,
121,12.5,0m 12.5s,-23.74615348,-46.57697063,P-GPS,120.4,36.7,,,0.2,0.1,1.5,0.7,4.3,1.3,-23.74615042,-46.5769583,13,4,52,15.038,0.038,3.762,3.774,3.766,3.736,0,-0.1,-4.8,-5.6,-9,-150.8,209.2,1024,1024,1024,1024,1543,,,,,
122,12.6,0m 12.6s,-23.74615344,-46.57697086,P-GPS,121.7,37.1,,,0.2,0.1,0.0,0.0,4.3,1.3,-23.74615042,-46.5769583,13,4,52,15.038,0.038,3.762,3.774,3.766,3.736,0,-0.1,-4.4,-8.1,-10.7,-150.5,209.5,1024,1024,1024,1024,1520,,,,,
123,12.7,0m 12.7s,-23.74615344,-46.57697102,P-GPS,123.0,37.5,,,0.0,0.0,1.1,0.5,4.4,1.3,-23.74615042,-46.5769583,13,4,52,15.038,0.038,3.762,3.774,3.766,3.736,0,0,-3.9,-9.8,-9.4,-150.4,209.6,1024,1024,1024,1024,1593,,,,,
124,12.8,0m 12.8s,-23.7461535,-46.57697114,P-GPS,124.0,37.8,,,0.0,0.0,0.0,0.0,4.4,1.3,-23.74615042,-46.5769583,13,4,52,15.038,0.038,3.762,3.774,3.766,3.736,0,0,-3.2,-9.2,-8.1,-150.6,209.4,1024,1024,1024,1024,1684,,,,,
125,12.9,0m 12.9s,-23.74615356,-46.57697124,P-GPS,125.0,38.1,,,0.0,0.0,0.0,0.0,4.5,1.4,-23.74615042,-46.5769583,13,4,52,15.038,0.038,3.762,3.774,3.766,3.736,0,0,-2.9,-6.8,-7.1,-150.9,209.1,1024,1024,1024,1024,1684,,,,,
126,13,0m 13s,-23.74615368,-46.57697128,P-GPS,126.0,38.4,,,0.0,0.0,0.0,0.0,4.5,1.4,-23.74615042,-46.5769583,13,4,52,15.038,0.038,3.762,3.774,3.766,3.736,0,0,-3.2,-2.8,-5,-151.5,208.5,1024,1024,1024,1024,1684,,,,,
127,13.1,0m 13.1s,-23.74615377,-46.57697123,P-GPS,127.0,38.7,,,0.2,0.1,1.1,0.5,4.5,1.4,-23.74615042,-46.5769583,13,4,52,15.038,0.038,3.762,3.774,3.766,3.736,0,0.1,-3.8,-2.4,-2.9,-151.6,208.4,1024,1024,1024,1024,1663,,,,,
128,13.2,0m 13.2s,-23.74615374,-46.57697116,P-GPS,128.3,39.1,,,0.3,0.1,0.0,0.0,4.5,1.4,-23.74615042,-46.5769583,13,4,52,15.038,0.038,3.762,3.774,3.766,3.736,0.1,0.1,-4.1,-5.9,-2.2,-151.4,208.6,1024,1024,1024,1024,1569,,,,,
129,13.3,0m 13.3s,-23.74615362,-46.57697111,P-GPS,129.9,39.6,,,0.2,0.1,1.1,0.5,4.4,1.4,-23.74615042,-46.5769583,13,4,52,15.038,0.038,3.762,3.774,3.766,3.736,0.1,0,-4.4,-10.3,-3.5,-151,209,1024,1024,1024,1024,1558,,,,,
130,13.4,0m 13.4s,-23.7461535,-46.57697113,P-GPS,131.2,40.0,,,0.2,0.1,0.0,0.0,4.4,1.3,-23.74615042,-46.5769583,13,4,52,15.038,0.038,3.762,3.774,3.766,3.736,0.1,0,-4.1,-13.9,-7.5,-150.3,209.7,1024,1024,1024,1024,1582,,,,,
131,13.5,0m 13.5s,-23.74615339,-46.57697125,P-GPS,132.5,40.4,,,0.0,0.0,1.1,0.5,4.5,1.4,-23.74615042,-46.5769583,13,4,52,15.038,0.038,3.762,3.774,3.766,3.736,0,0,-3.5,-15.3,-9.1,-149.9,210.1,1024,1024,1024,1024,1627,,,,,
132,13.6,0m 13.6s,-23.74615336,-46.57697145,P-GPS,133.5,40.7,,,0.0,0.0,0.0,0.0,4.5,1.4,-23.74615042,-46.5769583,13,4,52,15.038,0.038,3.762,3.774,3.766,3.736,0,0,-3.2,-12.2,-7.5,-150,210,1024,1024,1024,1024,1654,,,,,
133,13.7,0m 13.7s,-23.74615341,-46.57697172,P-GPS,134.5,41.0,,,0.3,0.1,0.0,0.0,4.6,1.4,-23.74615042,-46.5769583,13,4,52,15.038,0.038,3.762,3.774,3.766,3.736,-0.1,-0.1,-3.2,-6.3,-6.2,-150.6,209.4,1024,1024,1024,1024,1664,,,,,
134,13.8,0m 13.8s,-23.74615352,-46.576972,P-GPS,135.5,41.3,,,0.2,0.1,0.0,0.0,4.7,1.4,-23.74615042,-46.5769583,13,4,52,15.038,0.038,3.762,3.774,3.766,3.736,0,-0.1,-3.5,-2.6,-5.7,-151.1,208.9,1024,1024,1024,1024,1662,,,,,
135,13.9,0m 13.9s,-23.74615355,-46.57697227,P-GPS,136.8,41.7,,,0.0,0.0,0.0,0.0,4.8,1.5,-23.74615042,-46.5769583,13,4,52,15.038,0.038,3.762,3.774,3.766,3.736,0,0,-3.9,-4.1,-6.1,-151.1,208.9,1024,1024,1024,1024,1604,,,,,
136,14,0m 14s,-23.74615357,-46.57697249,P-GPS,138.1,42.1,,,0.0,0.0,0.0,0.0,4.9,1.5,-23.74615042,-46.5769583,13,4,52,15.038,0.038,3.762,3.774,3.766,3.736,0,0,-4.1,-7.4,-7.6,-150.8,209.2,1024,1024,1024,1024,1240,,,,,
137,14.1,0m 14.1s,-23.74615356,-46.5769727,P-GPS,139.8,42.6,,,0.0,0.0,0.0,0.0,4.9,1.5,-23.74615042,-46.5769583,13,4,52,15.038,0.038,3.762,3.774,3.766,3.736,0,0,-4.1,-9.5,-9.3,-150.2,209.8,1024,1024,1024,1024,1024,,,,,
138,14.2,0m 14.2s,-23.74615353,-46.57697287,P-GPS,140.7,42.9,,,0.0,0.0,0.0,0.0,5.0,1.5,-23.74615042,-46.5769583,13,4,52,15.038,0.038,3.762,3.774,3.766,3.736,0,0,-3.6,-11.5,-11,-149.9,210.1,1024,1024,1024,1024,1024,,,,,
139,14.4,0m 14.4s,-23.74615363,-46.57697327,P-GPS,142.7,43.5,,,0.0,0.0,0.0,0.0,5.1,1.6,-23.74615042,-46.5769583,13,4,52,14.849,0.013,3.706,3.717,3.719,3.707,0,0,-2.3,-9.7,-10,-150.2,209.8,1024,1024,1024,1024,1024,,,,,
140,14.6,0m 14.6s,-23.74615378,-46.57697377,P-GPS,143.7,43.8,,,0.2,0.1,0.0,0.0,5.3,1.6,-23.74615042,-46.5769583,13,4,52,14.849,0.013,3.706,3.717,3.719,3.707,0,-0.1,-1,-7.7,-10.2,-150.5,209.5,1024,1024,1024,1024,1024,,,,,
141,14.7,0m 14.7s,-23.74615383,-46.57697403,P-GPS,143.7,43.8,,,0.2,0.1,0.0,0.0,5.4,1.6,-23.74615042,-46.5769583,13,4,52,14.849,0.013,3.706,3.717,3.719,3.707,0,-0.1,-0.6,-6.2,-9.4,-150.7,209.3,1024,1024,1024,1024,1024,,,,,
142,14.8,0m 14.8s,-23.74615387,-46.57697425,P-GPS,143.7,43.8,,,0.0,0.0,0.0,0.0,5.5,1.7,-23.74615042,-46.5769583,13,4,52,14.849,0.013,3.706,3.717,3.719,3.707,0,0,-0.4,-5.8,-8.9,-150.9,209.1,1024,1024,1024,1024,1024,,,,,
143,14.9,0m 14.9s,-23.74615384,-46.57697449,P-GPS,143.7,43.8,,,0.0,0.0,0.0,0.0,5.6,1.7,-23.74615042,-46.5769583,13,4,52,14.849,0.013,3.706,3.717,3.719,3.707,0,0,-0.2,-6.1,-8.6,-150.9,209.1,1024,1024,1024,1024,1024,,,,,
144,15,0m 15s,-23.74615379,-46.5769747,P-GPS,144.0,43.9,,,0.0,0.0,0.0,0.0,5.6,1.7,-23.74615042,-46.5769583,13,4,52,14.849,0.013,3.706,3.717,3.719,3.707,0,0,-0.2,-6.3,-8.4,-151,209,1024,1024,1024,1024,1024,,,,,
145,15.1,0m 15.1s,-23.74615371,-46.57697491,P-GPS,144.0,43.9,,,0.0,0.0,0.0,0.0,5.7,1.7,-23.74615042,-46.5769583,13,4,52,14.849,0.013,3.706,3.717,3.719,3.707,0,0,0,-6.7,-8.2,-150.9,209.1,1024,1024,1024,1024,1024,,,,,
146,15.2,0m 15.2s,-23.74615365,-46.57697509,P-GPS,143.7,43.8,,,0.0,0.0,0.0,0.0,5.7,1.7,-23.74615042,-46.5769583,13,4,52,14.849,0.013,3.706,3.717,3.719,3.707,0,0,0,-7.5,-7.9,-150.9,209.1,1024,1024,1024,1024,1024,,,,,
147,15.3,0m 15.3s,-23.74615355,-46.57697527,P-GPS,143.7,43.8,,,0.2,0.1,0.0,0.0,5.8,1.8,-23.74615042,-46.5769583,13,4,52,14.849,0.013,3.706,3.717,3.719,3.707,0,0.1,0,-8.5,-7.6,-150.8,209.2,1024,1024,1024,1024,1024,,,,,
148,15.4,0m 15.4s,-23.74615348,-46.57697544,P-GPS,143.7,43.8,,,0.2,0.1,0.0,0.0,5.8,1.8,-23.74615042,-46.5769583,13,4,52,15.12,0.01,3.775,3.785,3.782,3.778,0,0.1,0,-8.9,-7.7,-150.8,209.2,1024,1024,1024,1024,1024,,,,,
149,15.5,0m 15.5s,-23.74615341,-46.57697564,P-GPS,143.7,43.8,,,0.2,0.1,0.0,0.0,5.9,1.8,-23.74615042,-46.5769583,13,4,52,15.12,0.01,3.775,3.785,3.782,3.778,0,0.1,0,-8.9,-7.9,-150.9,209.1,1024,1024,1024,1024,1024,,,,,
150,15.6,0m 15.6s,-23.74615338,-46.57697583,P-GPS,143.4,43.7,,,0.2,0.1,0.0,0.0,6.0,1.8,-23.74615042,-46.5769583,13,4,52,15.12,0.01,3.775,3.785,3.782,3.778,0,0.1,0.1,-9.4,-7.8,-150.9,209.1,1024,1024,1024,1024,1024,,,,,
151,15.7,0m 15.7s,-23.74615337,-46.57697603,P-GPS,143.4,43.7,,,0.2,0.1,0.0,0.0,6.0,1.8,-23.74615042,-46.5769583,13,4,52,15.12,0.01,3.775,3.785,3.782,3.778,0,0.1,0.1,-10.1,-7.2,-150.8,209.2,1024,1024,1024,1024,1024,,,,,
152,15.8,0m 15.8s,-23.74615344,-46.57697624,P-GPS,143.4,43.7,,,0.3,0.1,0.0,0.0,6.1,1.9,-23.74615042,-46.5769583,13,4,52,15.12,0.01,3.775,3.785,3.782,3.778,-0.1,0.1,0,-9.7,-6.3,-150.9,209.1,1024,1024,1024,1024,1024,,,,,
153,15.9,0m 15.9s,-23.74615352,-46.5769765,P-GPS,143.4,43.7,,,0.2,0.1,1.1,0.5,6.2,1.9,-23.74615042,-46.5769583,13,4,52,15.12,0.01,3.775,3.785,3.782,3.778,-0.1,0,-0.1,-9.1,-6,-150.9,209.1,1024,1024,1024,1024,1024,,,,,
154,16,0m 16s,-23.74615366,-46.5769768,P-GPS,143.4,43.7,,,0.2,0.1,1.1,0.5,6.3,1.9,-23.74615042,-46.5769583,13,4,52,15.12,0.01,3.775,3.785,3.782,3.778,-0.1,0,-0.1,-7.3,-6.3,-151.1,208.9,1024,1024,1024,1024,1024,,,,,
155,16.1,0m 16.1s,-23.74615379,-46.57697714,P-GPS,143.4,43.7,,,0.2,0.1,1.1,0.5,6.4,2.0,-23.74615042,-46.5769583,13,4,52,15.12,0.01,3.775,3.785,3.782,3.778,-0.1,0,0,-6.6,-6.8,-151.1,208.9,1024,1024,1024,1024,1024,,,,,
156,16.3,0m 16.3s,-23.74615411,-46.57697773,P-GPS,142.7,43.5,,,0.4,0.2,1.0,0.4,6.6,2.0,-23.74615042,-46.5769583,13,4,52,15.12,0.01,3.775,3.785,3.782,3.778,-0.2,0,0,-6.9,-6.5,-151,209,1024,1024,1024,1024,1024,,,,,
157,16.4,0m 16.4s,-23.74615428,-46.57697795,P-GPS,142.7,43.5,,,0.4,0.2,1.0,0.4,6.7,2.0,-23.74615042,-46.5769583,13,4,52,15.078,0.014,3.763,3.777,3.773,3.765,-0.2,0,0,-6.8,-6.5,-151,209,1024,1024,1024,1024,1024,,,,,
158,16.5,0m 16.5s,-23.74615442,-46.57697817,P-GPS,142.4,43.4,,,0.4,0.2,0.0,0.0,6.8,2.1,-23.74615042,-46.5769583,13,4,52,15.078,0.014,3.763,3.777,3.773,3.765,-0.2,0,0,-6.1,-5.9,-151.2,208.8,1024,1024,1024,1024,1024,,,,,
159,16.6,0m 16.6s,-23.74615455,-46.57697834,P-GPS,142.4,43.4,,,0.4,0.2,1.1,0.5,6.9,2.1,-23.74615042,-46.5769583,13,4,52,15.078,0.014,3.763,3.777,3.773,3.765,-0.2,0,0,-5.8,-5.3,-151.2,208.8,1024,1024,1024,1024,1024,,,,,
160,16.7,0m 16.7s,-23.74615461,-46.57697851,P-GPS,142.1,43.3,,,0.2,0.1,0.0,0.0,6.9,2.1,-23.74615042,-46.5769583,13,4,52,15.078,0.014,3.763,3.777,3.773,3.765,-0.1,0,0,-7,-5.5,-151.1,208.9,1024,1024,1024,1024,1024,,,,,
161,16.8,0m 16.8s,-23.74615471,-46.57697866,P-GPS,142.1,43.3,,,0.2,0.1,0.0,0.0,7.0,2.1,-23.74615042,-46.5769583,13,4,52,15.078,0.014,3.763,3.777,3.773,3.765,-0.1,0,-0.1,-7.2,-5.9,-151.1,208.9,1024,1024,1024,1024,1024,,,,,
162,16.9,0m 16.9s,-23.74615478,-46.57697881,P-GPS,142.1,43.3,,,0.2,0.1,1.1,0.5,7.0,2.1,-23.74615042,-46.5769583,13,4,52,15.078,0.014,3.763,3.777,3.773,3.765,-0.1,0,-0.1,-7.3,-6.1,-151,209,1024,1024,1024,1024,1024,,,,,
163,17,0m 17s,-23.7461549,-46.57697895,P-GPS,142.1,43.3,,,0.2,0.1,0.0,0.0,7.1,2.2,-23.74615042,-46.5769583,13,4,52,15.078,0.014,3.763,3.777,3.773,3.765,-0.1,0,-0.2,-7.4,-5.6,-151,209,1024,1024,1024,1024,1024,,,,,
164,17.1,0m 17.1s,-23.74615496,-46.57697913,P-GPS,142.1,43.3,,,0.2,0.1,0.0,0.0,7.2,2.2,-23.74615042,-46.5769583,13,4,52,15.078,0.014,3.763,3.777,3.773,3.765,-0.1,0,-0.2,-7.1,-5.6,-150.9,209.1,1024,1024,1024,1024,1024,,,,,
165,17.2,0m 17.2s,-23.746155,-46.57697931,P-GPS,142.1,43.3,,,0.2,0.1,0.0,0.0,7.2,2.2,-23.74615042,-46.5769583,13,4,52,15.078,0.014,3.763,3.777,3.773,3.765,-0.1,0,-0.2,-6.8,-6.1,-150.9,209.1,1024,1024,1024,1024,1024,,,,,
166,17.3,0m 17.3s,-23.74615502,-46.57697952,P-GPS,142.1,43.3,,,0.2,0.1,0.0,0.0,7.3,2.2,-23.74615042,-46.5769583,13,4,52,15.078,0.014,3.763,3.777,3.773,3.765,-0.1,0,-0.4,-6.5,-6.5,-150.8,209.2,1024,1024,1024,1024,1024,,,,,
167,17.4,0m 17.4s,-23.7461551,-46.5769797,P-GPS,142.4,43.4,,,0.2,0.1,1.1,0.5,7.4,2.2,-23.74615042,-46.5769583,13,4,52,15.078,0.014,3.763,3.777,3.773,3.765,-0.1,0,-0.4,-6.3,-6.8,-150.8,209.2,1024,1024,1024,1024,1024,,,,,
168,17.5,0m 17.5s,-23.74615515,-46.5769799,P-GPS,142.4,43.4,,,0.2,0.1,0.0,0.0,7.4,2.3,-23.74615042,-46.5769583,13,4,52,15.078,0.014,3.763,3.777,3.773,3.765,-0.1,0,-0.2,-6.2,-7,-150.7,209.3,1024,1024,1024,1024,1024,,,,,
169,17.6,0m 17.6s,-23.74615521,-46.57698005,P-GPS,142.4,43.4,,,0.2,0.1,1.1,0.5,7.5,2.3,-23.74615042,-46.5769583,13,4,52,15.078,0.014,3.763,3.777,3.773,3.765,-0.1,0,-0.3,-6.3,-7.1,-150.7,209.3,1024,1024,1024,1024,1024,,,,,
170,17.8,0m 17.8s,-23.74615533,-46.57698039,P-GPS,142.7,43.5,,,0.2,0.1,0.0,0.0,7.6,2.3,-23.74615042,-46.5769583,13,4,52,15.078,0.014,3.763,3.777,3.773,3.765,-0.1,0,-0.4,-6.4,-7,-150.7,209.3,1024,1024,1024,1024,1024,,,,,
171,17.9,0m 17.9s,-23.74615537,-46.57698056,P-GPS,142.7,43.5,,,0.2,0.1,0.0,0.0,7.6,2.3,-23.74615042,-46.5769583,13,4,52,15.078,0.014,3.763,3.777,3.773,3.765,-0.1,0,-0.4,-6.1,-7.2,-150.7,209.3,1024,1024,1024,1083,1024,,,,,
172,18,0m 18s,-23.74615543,-46.57698065,P-GPS,142.7,43.5,,,0.2,0.1,0.0,0.0,7.7,2.3,-23.74615042,-46.5769583,13,4,52,15.078,0.014,3.763,3.777,3.773,3.765,-0.1,0,-0.2,-5.4,-7.4,-150.8,209.2,1024,1024,1024,1262,1024,,,,,
173,18.1,0m 18.1s,-23.74615545,-46.57698073,P-GPS,142.7,43.5,,,0.3,0.1,0.0,0.0,7.7,2.4,-23.74615042,-46.5769583,13,4,52,15.078,0.014,3.763,3.777,3.773,3.765,-0.1,0.1,-0.1,-5.5,-7,-150.8,209.2,1024,1024,1024,1395,1024,,,,,
174,18.2,0m 18.2s,-23.74615549,-46.57698076,P-GPS,142.7,43.5,,,0.3,0.1,0.0,0.0,7.7,2.4,-23.74615042,-46.5769583,13,4,52,15.078,0.014,3.763,3.777,3.773,3.765,-0.1,0.1,-0.1,-5.9,-6.8,-150.2,209.8,1024,1024,1024,1395,1024,,,,,
175,18.3,0m 18.3s,-23.74615549,-46.57698081,P-GPS,142.7,43.5,,,0.3,0.1,0.0,0.0,7.7,2.4,-23.74615042,-46.5769583,13,4,52,15.078,0.014,3.763,3.777,3.773,3.765,-0.1,0.1,-0.1,-5.4,-7,-148.4,211.6,1024,1024,1024,1451,1024,,,,,
176,18.4,0m 18.4s,-23.7461555,-46.57698083,P-GPS,142.7,43.5,,,0.2,0.1,0.0,0.0,7.7,2.4,-23.74615042,-46.5769583,13,4,52,15.087,0.014,3.765,3.779,3.776,3.767,0,0.1,-0.2,-5.7,-7.4,-145.4,214.6,1024,1024,1024,1453,1024,,,,,
177,18.5,0m 18.5s,-23.74615547,-46.57698086,P-GPS,142.7,43.5,,,0.2,0.1,0.0,0.0,7.8,2.4,-23.74615042,-46.5769583,13,4,52,15.087,0.014,3.765,3.779,3.776,3.767,0,0.1,-0.3,-5.9,-7.7,-142.2,217.8,1024,1024,1024,1454,1024,,,,,
178,18.6,0m 18.6s,-23.74615545,-46.57698086,P-GPS,143.0,43.6,,,0.2,0.1,0.0,0.0,7.8,2.4,-23.74615042,-46.5769583,13,4,52,15.087,0.014,3.765,3.779,3.776,3.767,0,0.1,-0.3,-6.6,-7.6,-138.8,221.2,1024,1024,1024,1391,1024,,,,,
179,18.7,0m 18.7s,-23.74615536,-46.57698092,P-GPS,143.0,43.6,,,0.2,0.1,0.0,0.0,7.8,2.4,-23.74615042,-46.5769583,13,4,52,15.087,0.014,3.765,3.779,3.776,3.767,0,0.1,-0.3,-6.4,-8,-135.4,224.6,1024,1024,1024,1313,1024,,,,,
180,18.8,0m 18.8s,-23.7461553,-46.57698099,P-GPS,143.4,43.7,,,0.2,0.1,0.0,0.0,7.8,2.4,-23.74615042,-46.5769583,13,4,52,15.087,0.014,3.765,3.779,3.776,3.767,0,0,-0.3,-5.7,-8.7,-133,227,1024,1024,1024,1280,1024,,,,,
181,18.9,0m 18.9s,-23.7461552,-46.57698111,P-GPS,143.4,43.7,,,0.0,0.0,0.0,0.0,7.8,2.4,-23.74615042,-46.5769583,13,4,52,15.087,0.014,3.765,3.779,3.776,3.767,0,0,-0.2,-4.8,-9.5,-131.9,228.1,1024,1024,1024,1131,1025,,,,,
182,19,0m 19s,-23.74615511,-46.57698119,P-GPS,143.4,43.7,,,0.0,0.0,0.0,0.0,7.8,2.4,-23.74615042,-46.5769583,13,4,52,15.087,0.014,3.765,3.779,3.776,3.767,0,0,-0.2,-4.3,-10,-131.2,228.8,1024,1024,1024,1024,1024,,,,,
183,19.1,0m 19.1s,-23.74615499,-46.57698126,P-GPS,143.7,43.8,,,0.0,0.0,0.0,0.0,7.8,2.4,-23.74615042,-46.5769583,13,4,52,15.087,0.014,3.765,3.779,3.776,3.767,0,0,-0.2,-4,-10.1,-130.9,229.1,1024,1024,1024,1087,1024,,,,,
184,19.2,0m 19.2s,-23.7461549,-46.57698129,P-GPS,143.7,43.8,,,0.2,0.1,0.0,0.0,7.8,2.4,-23.74615042,-46.5769583,13,4,52,15.087,0.014,3.765,3.779,3.776,3.767,0,0.1,-0.1,-4.4,-9.9,-130.6,229.4,1024,1024,1024,1330,1024,,,,,
185,19.3,0m 19.3s,-23.74615479,-46.57698132,P-GPS,143.7,43.8,,,0.2,0.1,0.0,0.0,7.8,2.4,-23.74615042,-46.5769583,13,4,52,15.087,0.014,3.765,3.779,3.776,3.767,0,0.1,-0.1,-4.2,-10.2,-130.5,229.5,1024,1024,1024,1456,1024,,,,,
186,19.4,0m 19.4s,-23.74615472,-46.57698131,P-GPS,143.7,43.8,,,0.2,0.1,0.0,0.0,7.8,2.4,-23.74615042,-46.5769583,13,4,52,15.106,0.013,3.77,3.783,3.78,3.773,0,0.1,-0.2,-4.1,-10.8,-129.6,230.4,1024,1024,1024,1467,1024,,,,,
187,19.5,0m 19.5s,-23.74615461,-46.57698132,P-GPS,144.0,43.9,,,0.2,0.1,0.0,0.0,7.8,2.4,-23.74615042,-46.5769583,13,4,52,15.106,0.013,3.77,3.783,3.78,3.773,0,0.1,-0.2,-3.9,-11.3,-126.9,233.1,1024,1024,1024,1415,1024,,,,,
188,19.6,0m 19.6s,-23.74615453,-46.57698132,P-GPS,144.0,43.9,,,0.2,0.1,0.0,0.0,7.8,2.4,-23.74615042,-46.5769583,13,4,52,15.106,0.013,3.77,3.783,3.78,3.773,0,0.1,-0.1,-3.9,-11.7,-123.3,236.7,1024,1024,1024,1116,1024,,,,,
189,19.7,0m 19.7s,-23.74615441,-46.57698132,P-GPS,144.0,43.9,,,0.2,0.1,0.0,0.0,7.8,2.4,-23.74615042,-46.5769583,13,4,52,15.106,0.013,3.77,3.783,3.78,3.773,0,0.1,0,-3.4,-11.9,-120.6,239.4,1024,1024,1024,1024,1024,,,,,
190,19.8,0m 19.8s,-23.74615433,-46.5769813,P-GPS,144.0,43.9,,,0.0,0.0,0.0,0.0,7.8,2.4,-23.74615042,-46.5769583,13,4,52,15.106,0.013,3.77,3.783,3.78,3.773,0,0,0,-3,-12,-120,240,1024,1024,1024,1024,1024,,,,,
191,19.9,0m 19.9s,-23.74615424,-46.57698133,P-GPS,144.0,43.9,,,0.0,0.0,0.0,0.0,7.8,2.4,-23.74615042,-46.5769583,13,4,52,15.106,0.013,3.77,3.783,3.78,3.773,0,0,0,-2.1,-11.4,-120.1,239.9,1024,1024,1024,1024,1024,,,,,
192,20,0m 20s,-23.74615418,-46.57698137,P-GPS,144.0,43.9,,,0.0,0.0,0.0,0.0,7.8,2.4,-23.74615042,-46.5769583,13,4,52,15.106,0.013,3.77,3.783,3.78,3.773,0,0,0,-1.8,-11.6,-120,240,1024,1024,1024,1024,1024,,,,,
193,20.1,0m 20.1s,-23.74615408,-46.57698146,P-GPS,144.0,43.9,,,0.0,0.0,0.0,0.0,7.9,2.4,-23.74615042,-46.5769583,13,4,52,15.106,0.013,3.77,3.783,3.78,3.773,0,0,0.1,-1.4,-12.5,-120,240,1024,1024,1024,1185,1057,,,,,
194,20.2,0m 20.2s,-23.74615401,-46.57698152,P-GPS,144.0,43.9,,,0.0,0.0,0.0,0.0,7.9,2.4,-23.74615042,-46.5769583,13,4,52,15.106,0.013,3.77,3.783,3.78,3.773,0,0,0.1,-1.3,-11.9,-119.9,240.1,1024,1024,1024,1422,1069,,,,,
195,20.3,0m 20.3s,-23.74615391,-46.57698158,P-GPS,143.7,43.8,,,0.0,0.0,0.0,0.0,7.9,2.4,-23.74615042,-46.5769583,13,4,52,15.106,0.013,3.77,3.783,3.78,3.773,0,0,0.2,-0.9,-12.4,-120.1,239.9,1024,1024,1024,1539,1026,,,,,
196,20.4,0m 20.4s,-23.74615384,-46.57698161,P-GPS,143.7,43.8,,,0.2,0.1,0.0,0.0,7.9,2.4,-23.74615042,-46.5769583,13,4,52,15.106,0.013,3.77,3.783,3.78,3.773,0,0.1,0.2,-0.6,-13,-118.6,241.4,1024,1024,1024,1553,1024,,,,,
197,20.5,0m 20.5s,-23.74615375,-46.57698159,P-GPS,143.7,43.8,,,0.2,0.1,0.0,0.0,7.9,2.4,-23.74615042,-46.5769583,13,4,52,15.106,0.013,3.77,3.783,3.78,3.773,0,0.1,0.1,-0.4,-12.4,-113.5,246.5,1024,1024,1024,1483,1024,,,,,
198,20.6,0m 20.6s,-23.7461537,-46.57698151,P-GPS,143.7,43.8,,,0.4,0.2,0.0,0.0,7.8,2.4,-23.74615042,-46.5769583,13,4,52,15.106,0.013,3.77,3.783,3.78,3.773,0,0.2,0.2,-1,-12,-106.7,253.3,1024,1066,1024,1024,1024,,,,,
199,20.7,0m 20.7s,-23.74615362,-46.57698142,P-GPS,143.7,43.8,,,0.2,0.1,0.0,0.0,7.8,2.4,-23.74615042,-46.5769583,13,4,52,15.106,0.013,3.77,3.783,3.78,3.773,0,0.1,0.1,-1.3,-11.7,-100.9,259.1,972,1218,1024,1024,1024,,,,,
200,20.8,0m 20.8s,-23.74615358,-46.57698135,P-GPS,143.7,43.8,,,0.3,0.1,0.0,0.0,7.8,2.4,-23.74615042,-46.5769583,13,4,52,15.106,0.013,3.77,3.783,3.78,3.773,-0.1,0.1,0.1,-1.5,-11.2,-100.3,259.7,908,1382,1024,1024,1024,,,,,
201,20.9,0m 20.9s,-23.74615353,-46.57698138,P-GPS,143.4,43.7,,,0.2,0.1,0.0,0.0,7.8,2.4,-23.74615042,-46.5769583,13,4,52,15.106,0.013,3.77,3.783,3.78,3.773,-0.1,0,0.1,-0.5,-9,-100.4,259.6,890,1564,1024,1024,1024,,,,,
202,21,0m 21s,-23.74615349,-46.57698148,P-GPS,143.4,43.7,,,0.0,0.0,1.1,0.5,7.8,2.4,-23.74615042,-46.5769583,13,4,52,15.106,0.013,3.77,3.783,3.78,3.773,0,0,0.2,-0.5,-8,-100.4,259.6,958,1684,1024,1024,1024,,,,,
203,21.1,0m 21.1s,-23.74615336,-46.57698164,P-GPS,143.4,43.7,,,0.0,0.0,0.0,0.0,7.9,2.4,-23.74615042,-46.5769583,13,4,52,15.106,0.013,3.77,3.783,3.78,3.773,0,0,0.2,-4,-8.3,-100,260,905,1684,1024,1024,1024,,,,,
204,21.2,0m 21.2s,-23.74615324,-46.57698184,P-GPS,143.0,43.6,,,0.2,0.1,1.1,0.5,7.9,2.4,-23.74615042,-46.5769583,13,4,52,15.106,0.013,3.77,3.783,3.78,3.773,0,-0.1,0.2,-13.4,-8.4,-99.3,260.7,915,1684,1024,1024,1024,,,,,
205,21.3,0m 21.3s,-23.74615305,-46.57698226,P-GPS,143.0,43.6,,,0.9,0.4,1.1,0.5,8.1,2.5,-23.74615042,-46.5769583,13,4,52,15.106,0.013,3.77,3.783,3.78,3.773,0,-0.4,0.3,-22.8,-8.2,-98.4,261.6,905,1684,1024,1024,1024,,,,,
206,21.4,0m 21.4s,-23.7461529,-46.57698308,P-GPS,143.0,43.6,,,2.0,0.9,1.5,0.7,8.3,2.5,-23.74615042,-46.5769583,13,4,52,15.085,0.014,3.763,3.777,3.775,3.77,0,-0.9,0.2,-27.3,-8.2,-97.8,262.2,908,1684,1024,1024,1024,,,,,
207,21.5,0m 21.5s,-23.74615273,-46.57698451,P-GPS,142.7,43.5,,,3.4,1.5,2.6,1.2,8.8,2.7,-23.74615042,-46.5769583,13,4,52,15.085,0.014,3.763,3.777,3.775,3.77,0,-1.5,0.1,-27.9,-8.2,-97.9,262.1,911,1684,1024,1024,1024,,,,,
208,21.6,0m 21.6s,-23.74615266,-46.57698654,P-GPS,142.7,43.5,,,4.7,2.1,3.8,1.7,9.5,2.9,-23.74615042,-46.5769583,13,4,52,15.085,0.014,3.763,3.777,3.775,3.77,0,-2.1,0,-26.2,-8,-98.2,261.8,917,1684,1024,1024,1024,,,,,
209,21.7,0m 21.7s,-23.74615258,-46.57698919,P-GPS,143.0,43.6,,,5.8,2.6,5.2,2.3,10.3,3.2,-23.74615042,-46.5769583,13,4,52,15.085,0.014,3.763,3.777,3.775,3.77,0,-2.6,0,-24.4,-8,-98.4,261.6,929,1684,1024,1024,1024,,,,,
210,21.8,0m 21.8s,-23.74615257,-46.57699226,P-GPS,143.0,43.6,,,6.7,3.0,6.5,2.9,11.4,3.5,-23.74615042,-46.5769583,13,4,52,15.085,0.014,3.763,3.777,3.775,3.77,-0.1,-3,0,-23.3,-8.4,-98.6,261.4,943,1684,1024,1024,1024,,,,,
211,21.9,0m 21.9s,-23.74615257,-46.57699582,P-GPS,142.7,43.5,,,7.6,3.4,7.5,3.4,12.6,3.8,-23.74615042,-46.5769583,13,4,52,15.085,0.014,3.763,3.777,3.775,3.77,-0.1,-3.4,0,-22.4,-8.6,-98.7,261.3,943,1684,1024,1024,1024,,,,,
212,22,0m 22s,-23.74615263,-46.57699965,P-GPS,142.7,43.5,,,8.5,3.8,8.4,3.8,13.8,4.2,-23.74615042,-46.5769583,13,4,52,15.085,0.014,3.763,3.777,3.775,3.77,-0.1,-3.8,0,-22.1,-8.8,-98.7,261.3,941,1684,1024,1024,1024,,,,,
213,22.1,0m 22.1s,-23.74615273,-46.57700386,P-GPS,142.7,43.5,,,8.5,3.8,9.2,4.1,15.2,4.6,-23.74615042,-46.5769583,13,4,52,15.085,0.014,3.763,3.777,3.775,3.77,-0.1,-4.1,0,-21.9,-9,-98.8,261.2,946,1684,1024,1024,1024,,,,,
214,22.2,0m 22.2s,-23.74615292,-46.57700825,P-GPS,142.7,43.5,,,9.8,4.4,9.8,4.4,16.7,5.1,-23.74615042,-46.5769583,13,4,52,15.085,0.014,3.763,3.777,3.775,3.77,-0.2,-4.4,0.1,-21.7,-9.6,-98.8,261.2,948,1684,1024,1024,1024,,,,,
215,22.3,0m 22.3s,-23.74615317,-46.57701291,P-GPS,142.7,43.5,,,10.5,4.7,10.3,4.6,18.3,5.6,-23.74615042,-46.5769583,13,4,52,15.085,0.014,3.763,3.777,3.775,3.77,-0.2,-4.7,0.1,-21.7,-10,-98.8,261.2,953,1684,1024,1024,1024,,,,,
216,22.4,0m 22.4s,-23.74615348,-46.57701775,P-GPS,142.7,43.5,,,11.0,4.9,10.9,4.9,19.9,6.1,-23.74615042,-46.5769583,13,4,52,15.016,0.016,3.746,3.762,3.758,3.75,-0.3,-4.9,0,-21.5,-10.3,-98.9,261.1,955,1684,1024,1024,1024,,,,,
217,22.5,0m 22.5s,-23.74615386,-46.57702284,P-GPS,142.7,43.5,,,11.7,5.2,11.3,5.0,21.6,6.6,-23.74615042,-46.5769583,13,4,52,15.016,0.016,3.746,3.762,3.758,3.75,-0.3,-5.2,0,-21,-10.7,-98.9,261.1,954,1684,1024,1024,1024,,,,,
218,22.6,0m 22.6s,-23.74615428,-46.57702818,P-GPS,142.7,43.5,,,12.1,5.4,11.9,5.3,23.4,7.1,-23.74615042,-46.5769583,13,4,52,15.016,0.016,3.746,3.762,3.758,3.75,-0.4,-5.4,0,-20.8,-10.5,-98.9,261.1,954,1684,1024,1024,1024,,,,,
219,22.7,0m 22.7s,-23.74615477,-46.57703368,P-GPS,142.4,43.4,,,12.5,5.6,12.4,5.5,25.2,7.7,-23.74615042,-46.5769583,13,4,52,15.016,0.016,3.746,3.762,3.758,3.75,-0.4,-5.6,0,-20.4,-10.6,-98.9,261.1,949,1684,1024,1024,1024,,,,,
220,22.8,0m 22.8s,-23.74615529,-46.57703928,P-GPS,142.4,43.4,,,13.0,5.8,12.7,5.7,27.1,8.3,-23.74615042,-46.5769583,13,4,52,15.016,0.016,3.746,3.762,3.758,3.75,-0.5,-5.8,0,-19.4,-10.3,-99.1,260.9,948,1684,1024,1024,1024,,,,,
221,22.9,0m 22.9s,-23.74615588,-46.577045,P-GPS,142.4,43.4,,,13.5,6.0,13.0,5.8,29.0,8.8,-23.74615042,-46.5769583,13,4,52,15.016,0.016,3.746,3.762,3.758,3.75,-0.5,-6,0,-18.6,-10.1,-99.2,260.8,948,1684,1024,1024,1024,,,,,
222,23,0m 23s,-23.74615651,-46.57705092,P-GPS,142.4,43.4,,,13.9,6.2,13.3,5.9,31.0,9.5,-23.74615042,-46.5769583,13,4,52,15.016,0.016,3.746,3.762,3.758,3.75,-0.6,-6.2,0,-18.1,-10.2,-99.2,260.8,949,1684,1024,1024,1024,,,,,
223,23.1,0m 23.1s,-23.74615717,-46.57705692,P-GPS,142.4,43.4,,,14.2,6.3,13.6,6.1,33.0,10.1,-23.74615042,-46.5769583,13,4,52,15.016,0.016,3.746,3.762,3.758,3.75,-0.6,-6.3,0,-17.7,-10.6,-99.3,260.7,937,1684,1024,1024,1024,,,,,
224,23.2,0m 23.2s,-23.74615782,-46.57706311,P-GPS,142.4,43.4,,,14.4,6.4,14.0,6.2,35.1,10.7,-23.74615042,-46.5769583,13,4,52,15.016,0.016,3.746,3.762,3.758,3.75,-0.7,-6.4,-0.1,-17.7,-11.5,-99.3,260.7,934,1684,1024,1024,1024,,,,,
225,23.3,0m 23.3s,-23.74615851,-46.57706933,P-GPS,142.4,43.4,,,14.6,6.5,14.2,6.4,37.2,11.3,-23.74615042,-46.5769583,13,4,52,15.016,0.016,3.746,3.762,3.758,3.75,-0.7,-6.5,0,-18,-10.6,-99.1,260.9,923,1684,1024,1024,1024,,,,,
226,23.4,0m 23.4s,-23.74615923,-46.57707572,P-GPS,142.4,43.4,,,15.1,6.8,14.5,6.5,39.3,12.0,-23.74615042,-46.5769583,13,4,52,15.016,0.016,3.746,3.762,3.758,3.75,-0.8,-6.7,0,-17.4,-9.1,-99,261,915,1684,1024,1024,1024,,,,,
227,23.5,0m 23.5s,-23.74615995,-46.57708222,P-GPS,142.4,43.4,,,15.3,6.9,14.8,6.6,41.5,12.7,-23.74615042,-46.5769583,13,4,52,15.016,0.016,3.746,3.762,3.758,3.75,-0.8,-6.8,0,-16.5,-9.2,-99.1,260.9,912,1684,1024,1024,1024,,,,,
228,23.6,0m 23.6s,-23.7461607,-46.57708894,P-GPS,142.4,43.4,,,15.8,7.1,15.2,6.8,43.8,13.3,-23.74615042,-46.5769583,13,4,52,15.016,0.016,3.746,3.762,3.758,3.75,-0.8,-7,0,-15.8,-9.7,-99.2,260.8,898,1684,1024,1024,1024,,,,,
229,23.7,0m 23.7s,-23.74616144,-46.57709573,P-GPS,142.4,43.4,,,16.0,7.1,15.5,6.9,46.1,14.0,-23.74615042,-46.5769583,13,4,52,15.016,0.016,3.746,3.762,3.758,3.75,-0.8,-7.1,0,-15.5,-10,-99.2,260.8,898,1684,1024,1024,1024,,,,,
230,23.8,0m 23.8s,-23.7461622,-46.57710268,P-GPS,142.4,43.4,,,16.2,7.3,15.7,7.0,48.4,14.8,-23.74615042,-46.5769583,13,4,52,15.016,0.016,3.746,3.762,3.758,3.75,-0.9,-7.2,0,-14.9,-9.8,-99.3,260.7,900,1684,1024,1024,1024,,,,,
231,23.9,0m 23.9s,-23.74616298,-46.57710971,P-GPS,142.4,43.4,,,16.5,7.4,16.0,7.2,50.8,15.5,-23.74615042,-46.5769583,13,4,52,15.016,0.016,3.746,3.762,3.758,3.75,-0.9,-7.3,-0.1,-14.3,-9.4,-99.2,260.8,897,1684,1024,1024,1024,,,,,
232,24,0m 24s,-23.74616383,-46.57711688,P-GPS,142.4,43.4,,,16.7,7.5,16.3,7.3,53.2,16.2,-23.74615042,-46.5769583,13,4,52,15.016,0.016,3.746,3.762,3.758,3.75,-0.9,-7.4,0,-14,-9.4,-99.3,260.7,889,1684,1024,1024,1024,,,,,
233,24.1,0m 24.1s,-23.74616467,-46.5771241,P-GPS,142.4,43.4,,,16.9,7.6,16.5,7.4,55.6,16.9,-23.74615042,-46.5769583,13,4,52,15.016,0.016,3.746,3.762,3.758,3.75,-1,-7.5,0,-14,-9.7,-99.3,260.7,893,1684,1024,1024,1024,,,,,
234,24.2,0m 24.2s,-23.74616556,-46.57713143,P-GPS,142.4,43.4,,,16.9,7.6,16.7,7.5,58.1,17.7,-23.74615042,-46.5769583,13,4,52,15.016,0.016,3.746,3.762,3.758,3.75,-1,-7.5,-0.1,-13.7,-9.5,-99.3,260.7,893,1684,1024,1024,1024,,,,,
235,24.3,0m 24.3s,-23.74616642,-46.57713888,P-GPS,142.4,43.4,,,17.2,7.7,17.0,7.6,60.6,18.5,-23.74615042,-46.5769583,13,4,52,15.016,0.016,3.746,3.762,3.758,3.75,-1,-7.6,0,-13.3,-9.5,-99.4,260.6,891,1684,1024,1024,1024,,,,,
236,24.4,0m 24.4s,-23.74616734,-46.57714649,P-GPS,142.4,43.4,,,17.4,7.8,17.3,7.7,63.1,19.2,-23.74615042,-46.5769583,13,4,51,15.01,0.019,3.746,3.763,3.757,3.744,-1.1,-7.7,-0.1,-12.8,-9.6,-99.5,260.5,893,1684,1024,1024,1024,,,,,
237,24.5,0m 24.5s,-23.74616823,-46.57715415,P-GPS,142.4,43.4,,,17.4,7.8,17.5,7.8,65.7,20.0,-23.74615042,-46.5769583,13,4,51,15.01,0.019,3.746,3.763,3.757,3.744,-1.1,-7.7,-0.1,-12.4,-9.5,-99.6,260.4,897,1684,1024,1024,1024,,,,,
238,24.6,0m 24.6s,-23.74616919,-46.57716181,P-GPS,142.4,43.4,,,17.6,7.9,17.6,7.9,68.3,20.8,-23.74615042,-46.5769583,13,4,51,15.01,0.019,3.746,3.763,3.757,3.744,-1.1,-7.8,-0.2,-12.2,-9.5,-99.5,260.5,895,1684,1024,1024,1024,,,,,
239,24.7,0m 24.7s,-23.74617012,-46.57716946,P-GPS,142.7,43.5,,,17.6,7.9,17.6,7.9,70.9,21.6,-23.74615042,-46.5769583,13,4,51,15.01,0.019,3.746,3.763,3.757,3.744,-1.2,-7.8,-0.2,-12.3,-9.4,-99.5,260.5,903,1684,1024,1024,1024,,,,,
240,24.8,0m 24.8s,-23.74617109,-46.57717708,P-GPS,142.7,43.5,,,17.9,8.0,17.6,7.9,73.4,22.4,-23.74615042,-46.5769583,13,4,51,15.01,0.019,3.746,3.763,3.757,3.744,-1.2,-7.9,-0.2,-12.1,-9.2,-99.5,260.5,898,1684,1024,1024,1024,,,,,
241,24.9,0m 24.9s,-23.746172,-46.57718469,P-GPS,142.7,43.5,,,17.9,8.0,17.4,7.8,76.0,23.2,-23.74615042,-46.5769583,13,4,51,15.01,0.019,3.746,3.763,3.757,3.744,-1.2,-7.9,-0.2,-11.9,-9.1,-99.5,260.5,898,1684,1024,1024,1024,,,,,
242,25,0m 25s,-23.74617293,-46.57719238,P-GPS,142.7,43.5,,,17.9,8.0,17.6,7.9,78.6,24.0,-23.74615042,-46.5769583,13,4,51,15.01,0.019,3.746,3.763,3.757,3.744,-1.1,-7.9,-0.2,-11.9,-9.2,-99.6,260.4,887,1684,1024,1024,1024,,,,,
243,25.1,0m 25.1s,-23.74617378,-46.57720006,P-GPS,143.0,43.6,,,18.1,8.1,17.6,7.9,81.2,24.7,-23.74615042,-46.5769583,13,4,51,15.01,0.019,3.746,3.763,3.757,3.744,-1.1,-8,-0.2,-11.7,-9.3,-99.7,260.3,887,1684,1024,1024,1024,,,,,
244,25.2,0m 25.2s,-23.74617465,-46.5772078,P-GPS,143.0,43.6,,,18.1,8.1,17.6,7.9,83.8,25.5,-23.74615042,-46.5769583,13,4,51,15.01,0.019,3.746,3.763,3.757,3.744,-1.1,-8,-0.2,-11.5,-9.5,-99.7,260.3,891,1684,1024,1024,1024,,,,,
245,25.3,0m 25.3s,-23.74617542,-46.57721554,P-GPS,143.0,43.6,,,18.1,8.1,17.7,7.9,86.4,26.3,-23.74615042,-46.5769583,13,4,51,15.01,0.019,3.746,3.763,3.757,3.744,-1.1,-8,-0.2,-11.6,-9.6,-99.7,260.3,896,1684,1024,1024,1024,,,,,
246,25.4,0m 25.4s,-23.7461762,-46.57722332,P-GPS,143.4,43.7,,,18.0,8.1,17.7,7.9,89.0,27.1,-23.74615042,-46.5769583,13,4,51,15.01,0.019,3.746,3.763,3.757,3.744,-1,-8,-0.2,-11.9,-9.1,-99.6,260.4,898,1684,1024,1024,1024,,,,,
247,25.5,0m 25.5s,-23.74617686,-46.57723118,P-GPS,143.4,43.7,,,18.0,8.1,17.9,8.0,91.6,27.9,-23.74615042,-46.5769583,13,4,51,15.01,0.019,3.746,3.763,3.757,3.744,-1,-8,-0.2,-11.8,-9.4,-99.7,260.3,898,1684,1024,1024,1024,,,,,
248,25.6,0m 25.6s,-23.74617758,-46.57723916,P-GPS,143.4,43.7,,,18.0,8.1,18.1,8.1,94.3,28.7,-23.74615042,-46.5769583,13,4,51,15.01,0.019,3.746,3.763,3.757,3.744,-1,-8,-0.2,-11.5,-10,-99.7,260.3,911,1684,1024,1024,1024,,,,,
249,25.7,0m 25.7s,-23.74617819,-46.57724716,P-GPS,143.4,43.7,,,18.0,8.1,18.3,8.2,97.0,29.6,-23.74615042,-46.5769583,13,4,51,15.01,0.019,3.746,3.763,3.757,3.744,-1,-8,0,-11.5,-9.9,-99.7,260.3,950,1684,1024,1024,1024,,,,,
250,25.8,0m 25.8s,-23.74617886,-46.57725511,P-GPS,143.4,43.7,,,18.0,8.1,18.2,8.2,99.6,30.4,-23.74615042,-46.5769583,13,4,51,15.01,0.019,3.746,3.763,3.757,3.744,-1,-8,0,-11.1,-10,-99.7,260.3,945,1684,1024,1024,1024,,,,,
251,25.9,0m 25.9s,-23.74617944,-46.57726306,P-GPS,143.4,43.7,,,18.0,8.1,18.2,8.1,102.3,31.2,-23.74615042,-46.5769583,13,4,51,15.01,0.019,3.746,3.763,3.757,3.744,-0.9,-8,0,-10.8,-10.5,-99.8,260.2,956,1684,1024,1024,1024,,,,,
252,26,0m 26s,-23.7461801,-46.57727099,P-GPS,143.4,43.7,,,18.0,8.1,18.1,8.1,105.0,32.0,-23.74615042,-46.5769583,13,4,51,15.01,0.019,3.746,3.763,3.757,3.744,-0.9,-8,0,-11,-10.3,-99.7,260.3,965,1684,1024,1024,1024,,,,,
253,26.1,0m 26.1s,-23.74618067,-46.5772789,P-GPS,143.7,43.8,,,18.0,8.1,18.1,8.1,107.6,32.8,-23.74615042,-46.5769583,13,4,51,15.01,0.019,3.746,3.763,3.757,3.744,-0.9,-8,-0.1,-11.2,-10.4,-99.6,260.4,973,1684,1024,1024,1024,,,,,
254,26.2,0m 26.2s,-23.74618131,-46.5772868,P-GPS,143.7,43.8,,,18.0,8.1,18.0,8.1,110.3,33.6,-23.74615042,-46.5769583,13,4,51,15.01,0.019,3.746,3.763,3.757,3.744,-0.9,-8,0,-11.4,-10.3,-99.6,260.4,976,1684,1024,1133,1024,,,,,
255,26.3,0m 26.3s,-23.74618187,-46.57729467,P-GPS,143.4,43.7,,,18.0,8.1,18.0,8.1,112.9,34.4,-23.74615042,-46.5769583,13,4,51,15.01,0.019,3.746,3.763,3.757,3.744,-0.9,-8,0,-11.4,-10,-99.6,260.4,975,1684,1024,1403,1024,,,,,
256,26.4,0m 26.4s,-23.74618249,-46.57730254,P-GPS,143.4,43.7,,,18.0,8.1,18.0,8.0,115.5,35.2,-23.74615042,-46.5769583,13,4,51,14.967,0.018,3.733,3.751,3.747,3.736,-0.9,-8,0,-11.2,-10,-99.6,260.4,980,1684,1024,1492,1024,,,,,
257,26.5,0m 26.5s,-23.74618303,-46.5773104,P-GPS,143.7,43.8,,,18.0,8.1,18.0,8.0,118.2,36.0,-23.74615042,-46.5769583,13,4,51,14.967,0.018,3.733,3.751,3.747,3.736,-0.9,-8,0,-11.6,-10.3,-98.7,261.3,987,1684,1024,1164,1024,,,,,
258,26.6,0m 26.6s,-23.74618361,-46.57731828,P-GPS,143.7,43.8,,,18.0,8.1,18.0,8.0,120.8,36.8,-23.74615042,-46.5769583,13,4,51,14.967,0.018,3.733,3.751,3.747,3.736,-0.9,-8,0,-12,-10.3,-95.1,264.9,979,1684,1024,1024,1024,,,,,
259,26.7,0m 26.7s,-23.74618409,-46.57732618,P-GPS,143.7,43.8,,,18.0,8.0,18.0,8.0,123.5,37.6,-23.74615042,-46.5769583,13,4,51,14.967,0.018,3.733,3.751,3.747,3.736,-0.8,-8,-0.1,-11.6,-9.9,-92.9,267.1,988,1684,1024,1024,1024,,,,,
260,26.8,0m 26.8s,-23.74618459,-46.5773341,P-GPS,143.7,43.8,,,18.0,8.0,18.0,8.1,126.1,38.4,-23.74615042,-46.5769583,13,4,51,14.967,0.018,3.733,3.751,3.747,3.736,-0.8,-8,0,-10.9,-9.5,-93.1,266.9,991,1684,1024,1024,1024,,,,,
261,26.9,0m 26.9s,-23.74618496,-46.57734203,P-GPS,143.7,43.8,,,18.0,8.0,18.1,8.1,128.7,39.2,-23.74615042,-46.5769583,13,4,51,14.967,0.018,3.733,3.751,3.747,3.736,-0.7,-8,0,-10.6,-9.3,-93.2,266.8,988,1684,1024,1024,1024,,,,,
262,27,0m 27s,-23.74618535,-46.57734995,P-GPS,143.7,43.8,,,18.0,8.0,18.1,8.1,131.4,40.0,-23.74615042,-46.5769583,13,4,51,14.967,0.018,3.733,3.751,3.747,3.736,-0.7,-8,0,-10.7,-9.4,-93.3,266.7,979,1684,1024,1341,1024,,,,,
263,27.1,0m 27.1s,-23.7461856,-46.57735784,P-GPS,143.7,43.8,,,17.9,8.0,18.0,8.1,134.0,40.9,-23.74615042,-46.5769583,13,4,51,14.967,0.018,3.733,3.751,3.747,3.736,-0.6,-8,0,-10.7,-9.7,-93.3,266.7,977,1684,1024,1537,1024,,,,,
264,27.2,0m 27.2s,-23.7461859,-46.57736571,P-GPS,143.7,43.8,,,17.9,8.0,18.0,8.0,136.7,41.7,-23.74615042,-46.5769583,13,4,51,14.967,0.018,3.733,3.751,3.747,3.736,-0.6,-8,0.1,-10.3,-9.3,-93.3,266.7,993,1684,1024,1024,1024,,,,,
265,27.3,0m 27.3s,-23.74618611,-46.57737355,P-GPS,143.7,43.8,,,17.9,8.0,17.9,8.0,139.3,42.4,-23.74615042,-46.5769583,13,4,51,14.967,0.018,3.733,3.751,3.747,3.736,-0.5,-8,0,-10.5,-8.9,-89.6,270.4,986,1684,1024,1024,1024,,,,,
266,27.4,0m 27.4s,-23.74618635,-46.57738139,P-GPS,143.7,43.8,,,17.9,8.0,17.8,8.0,141.9,43.2,-23.74615042,-46.5769583,13,4,51,14.967,0.018,3.733,3.751,3.747,3.736,-0.5,-8,0,-11.6,-8.7,-88.3,271.7,988,1684,1024,1024,1024,,,,,
267,27.5,0m 27.5s,-23.74618645,-46.57738926,P-GPS,143.7,43.8,,,17.9,8.0,17.9,8.0,144.5,44.0,-23.74615042,-46.5769583,13,4,51,14.967,0.018,3.733,3.751,3.747,3.736,-0.4,-8,0,-11,-7.9,-88.3,271.7,994,1684,1024,769,1004,,,,,
268,27.6,0m 27.6s,-23.74618656,-46.5773972,P-GPS,144.0,43.9,,,17.9,8.0,18.0,8.0,147.1,44.8,-23.74615042,-46.5769583,13,4,51,14.967,0.018,3.733,3.751,3.747,3.736,-0.3,-8,0,-10.8,-8,-88.4,271.6,991,1684,1024,459,939,,,,,
269,27.7,0m 27.7s,-23.74618652,-46.57740515,P-GPS,143.7,43.8,,,18.1,8.1,18.1,8.1,149.8,45.7,-23.74615042,-46.5769583,13,4,51,14.967,0.018,3.733,3.751,3.747,3.736,-0.2,-8.1,0.1,-10.9,-8.8,-88.6,271.4,991,1684,1024,364,876,,,,,
270,27.8,0m 27.8s,-23.74618652,-46.57741311,P-GPS,143.7,43.8,,,18.1,8.1,18.1,8.1,152.4,46.5,-23.74615042,-46.5769583,13,4,51,14.967,0.018,3.733,3.751,3.747,3.736,-0.2,-8.1,0.1,-10.4,-8.1,-92.1,267.9,995,1684,1024,364,864,,,,,
271,27.9,0m 27.9s,-23.7461864,-46.57742102,P-GPS,143.7,43.8,,,18.1,8.1,18.1,8.1,155.1,47.3,-23.74615042,-46.5769583,13,4,51,14.967,0.018,3.733,3.751,3.747,3.736,-0.1,-8.1,0.2,-9.2,-7.9,-103.2,256.8,995,1684,1024,370,891,,,,,
