Id,Time(seconds),Time(text),Latitude,Longitude,FlightMode,Altitude(feet),Altitude(meters),VpsAltitude(feet),VpsAltitude(meters),HSpeed(mph),HSpeed(m/s),GpsSpeed(mph),GpsSpeed(m/s),HomeDistance(feet),HomeDistance(meters),HomeLatitude,HomeLongitude,GpsCount,GpsLevel,BatteryPower(%),BatteryVoltage,BatteryVoltageDeviation,BatteryCell1Voltage,BatteryCell2Voltage,BatteryCell3Voltage,BatteryCell4Voltage,VelocityX,VelocityY,VelocityZ,Pitch,Roll,Yaw,Yaw(360),RcAileron,RcElevator,RcGyro,RcRudder,RcThrottle,NonGpsError,GoHomeStatus,AppTip,AppWarning,AppMessage
1,0.9,0m 0.9s,-23.75889169,-46.59827685,Starting Motors,0.0,0.0,0.7,0.2,0.0,0.0,0.0,0.0,0.0,0.0,0,0,9,4,91,16.653,0,Infinity,Infinity,0,0,0,-0.2,-5.1,48.4,48.4,0,0,0,0,0,,,,,
2,1,0m 1s,-23.75889166,-46.59827686,Starting Motors,0.0,0.0,0.7,0.2,0.0,0.0,0.0,0.0,0.0,0.0,0,0,9,4,91,16.653,0,Infinity,Infinity,0,0,0,-0.3,-5.1,48.4,48.4,0,0,0,0,0,,,,,
3,1.1,0m 1.1s,-23.75889164,-46.59827689,Starting Motors,0.0,0.0,0.7,0.2,0.0,0.0,0.0,0.0,0.0,0.0,0,0,9,4,91,16.653,0,Infinity,Infinity,0,0,0,-0.2,-5.1,48.4,48.4,0,0,0,0,0,,,,,
4,1.2,0m 1.2s,-23.75889163,-46.59827694,Starting Motors,0.0,0.0,0.7,0.2,0.0,0.0,0.0,0.0,0.0,0.0,0,0,9,4,91,16.653,0,Infinity,Infinity,0,0,0,-0.3,-5.1,48.4,48.4,0,0,0,0,0,,,,,
5,1.3,0m 1.3s,-23.75889162,-46.59827701,Starting Motors,0.0,0.0,0.7,0.2,0.0,0.0,0.0,0.0,0.0,0.0,0,0,9,4,91,16.653,0,Infinity,Infinity,0,0,0,-0.2,-5.1,48.4,48.4,0,0,0,0,0,,,,,
6,1.4,0m 1.4s,-23.75889158,-46.59827706,Starting Motors,0.0,0.0,0.7,0.2,0.0,0.0,0.0,0.0,0.0,0.0,0,0,9,4,91,16.653,0,Infinity,Infinity,0,0,0,-0.2,-5.1,48.4,48.4,0,0,0,0,0,,,,,
7,1.5,0m 1.5s,-23.75889154,-46.59827712,Auto Takeoff,0.0,0.0,0.7,0.2,0.0,0.0,0.0,0.0,0.0,0.0,0,0,9,4,91,16.653,0,Infinity,Infinity,0,0,0,-0.3,-5.1,48.4,48.4,0,0,0,0,0,,,,,
8,1.6,0m 1.6s,-23.75889156,-46.59827717,Auto Takeoff,0.0,0.0,0.7,0.2,0.0,0.0,0.0,0.0,0.0,0.0,0,0,9,4,91,16.653,0,Infinity,Infinity,0,0,0,-0.3,-5,48.4,48.4,0,0,0,0,0,,,,,
9,1.7,0m 1.7s,-23.75889157,-46.59827722,Auto Takeoff,0.0,0.0,0.7,0.2,0.0,0.0,1.1,0.5,0.0,0.0,0,0,9,4,91,16.653,0,Infinity,Infinity,0,0,0,-0.2,-5,48.4,48.4,0,0,0,0,0,,,,,
10,1.8,0m 1.8s,-23.7588916,-46.59827727,Auto Takeoff,0.0,0.0,0.7,0.2,0.0,0.0,0.0,0.0,0.0,0.0,0,0,9,4,91,16.653,0,Infinity,Infinity,0,0,0,-0.2,-5.1,48.4,48.4,0,0,0,0,0,,,,,
11,1.9,0m 1.9s,-23.75889161,-46.59827732,Auto Takeoff,0.0,0.0,0.7,0.2,0.0,0.0,0.0,0.0,0.0,0.0,0,0,9,4,91,16.687,0.006,4.173,4.174,4.172,4.168,0,0,0,-0.2,-5.1,48.3,48.3,0,0,0,0,0,,,,,
12,2.1,0m 2.1s,-23.75889157,-46.59827734,Auto Takeoff,0.0,0.0,0.7,0.2,0.0,0.0,0.0,0.0,0.0,0.0,0,0,9,4,91,16.687,0.006,4.173,4.174,4.172,4.168,0,0,0,-0.2,-5.1,48.4,48.4,0,0,0,0,0,,,,,
13,2.2,0m 2.2s,-23.7588916,-46.59827729,Auto Takeoff,0.0,0.0,0.7,0.2,0.0,0.0,0.0,0.0,0.0,0.0,0,0,9,4,91,16.687,0.006,4.173,4.174,4.172,4.168,0,0,0,0,-5.2,48.2,48.2,0,0,0,0,0,,,,,
14,2.3,0m 2.3s,-23.7588916,-46.59827727,Auto Takeoff,0.0,0.0,0.7,0.2,0.0,0.0,0.0,0.0,0.0,0.0,0,0,9,4,91,16.687,0.006,4.173,4.174,4.172,4.168,0,0,0,0.7,-4.7,47.9,47.9,0,0,0,0,0,,,,,
15,2.4,0m 2.4s,-23.75889157,-46.59827736,Auto Takeoff,0.0,0.0,0.7,0.2,0.2,0.1,0.0,0.0,0.0,0.0,0,0,9,4,91,16.687,0.006,4.173,4.174,4.172,4.168,0,-0.1,0,1,-3.4,48,48,0,0,0,0,0,,,,,
16,2.5,0m 2.5s,-23.75889149,-46.59827753,Auto Takeoff,0.0,0.0,0.7,0.2,0.3,0.1,0.0,0.0,0.0,0.0,0,0,9,4,91,16.687,0.006,4.173,4.174,4.172,4.168,0.1,-0.1,-0.2,1,-3,47.8,47.8,0,0,0,0,0,,,,,
17,2.6,0m 2.6s,-23.75889136,-46.59827777,Auto Takeoff,0.0,0.0,0.7,0.2,0.3,0.1,0.0,0.0,0.0,0.0,0,0,9,4,91,16.687,0.006,4.173,4.174,4.172,4.168,0.1,-0.2,-0.3,0.1,-1,47.8,47.8,0,0,0,0,0,,,,,
18,2.7,0m 2.7s,-23.7588912,-46.59827804,Auto Takeoff,0.0,0.0,0.7,0.2,0.5,0.2,0.0,0.0,0.0,0.0,0,0,9,4,91,16.687,0.006,4.173,4.174,4.172,4.168,0.1,-0.2,-0.5,-0.7,0.8,47.9,47.9,0,0,0,0,0,,,,,
19,2.8,0m 2.8s,-23.75889099,-46.59827826,Auto Takeoff,0.3,0.1,1.0,0.3,0.5,0.2,0.0,0.0,0.0,0.0,0,0,9,4,91,16.687,0.006,4.173,4.174,4.172,4.168,0.1,-0.2,-0.5,-0.6,2.4,47.8,47.8,0,0,0,0,0,,,,,
20,2.9,0m 2.9s,-23.75889081,-46.59827846,Auto Takeoff,0.7,0.2,1.0,0.3,0.3,0.1,0.0,0.0,0.3,0.1,-23.75889151,-46.59827749,9,4,91,16.437,0.014,4.113,4.114,4.11,4.1,0.1,-0.1,-0.5,-0.3,3,48,48,0,0,0,0,0,,,,,
21,3,0m 3s,-23.7588907,-46.59827859,Auto Takeoff,0.7,0.2,1.3,0.4,0.2,0.1,1.1,0.5,0.5,0.2,-23.75889151,-46.59827749,9,4,91,16.437,0.014,4.113,4.114,4.11,4.1,0,-0.1,-0.5,-0.4,3.1,47.9,47.9,0,0,0,0,0,,,,,
22,3.1,0m 3.1s,-23.75889063,-46.59827871,Auto Takeoff,1.0,0.3,1.3,0.4,0.2,0.1,0.0,0.0,0.5,0.2,-23.75889151,-46.59827749,9,4,91,16.437,0.014,4.113,4.114,4.11,4.1,0,-0.1,-0.5,-0.9,2.2,48,48,0,0,0,0,0,,,,,
23,3.2,0m 3.2s,-23.75889061,-46.59827875,Auto Takeoff,1.0,0.3,1.6,0.5,0.2,0.1,1.1,0.5,0.5,0.2,-23.75889151,-46.59827749,9,4,91,16.437,0.014,4.113,4.114,4.11,4.1,0,-0.1,-0.4,-1,1.6,47.8,47.8,0,0,0,0,0,,,,,
24,3.3,0m 3.3s,-23.75889058,-46.5982788,Auto Takeoff,1.3,0.4,1.6,0.5,0.0,0.0,0.0,0.0,0.5,0.2,-23.75889151,-46.59827749,9,4,91,16.437,0.014,4.113,4.114,4.11,4.1,0,0,-0.4,-0.7,1.7,47.9,47.9,0,0,0,0,0,,,,,
25,3.4,0m 3.4s,-23.75889057,-46.59827872,Auto Takeoff,1.3,0.4,2.0,0.6,0.0,0.0,0.0,0.0,0.6,0.2,-23.75889151,-46.59827749,9,4,91,16.437,0.014,4.113,4.114,4.11,4.1,0,0,-0.4,-0.4,2.1,48.1,48.1,0,0,0,0,0,,,,,
26,3.5,0m 3.5s,-23.75889057,-46.59827865,Auto Takeoff,1.3,0.4,2.0,0.6,0.0,0.0,0.0,0.0,0.6,0.2,-23.75889151,-46.59827749,9,4,91,16.437,0.014,4.113,4.114,4.11,4.1,0,0,-0.4,-1.1,1.7,48,48,0,0,0,0,0,,,,,
27,3.6,0m 3.6s,-23.75889062,-46.59827846,Auto Takeoff,1.6,0.5,2.0,0.6,0.0,0.0,0.0,0.0,0.4,0.1,-23.75889151,-46.59827749,9,4,91,16.437,0.014,4.113,4.114,4.11,4.1,0,0,-0.4,-0.3,0.3,48.1,48.1,0,0,0,0,0,,,,,
28,3.7,0m 3.7s,-23.75889065,-46.59827832,Auto Takeoff,1.6,0.5,2.3,0.7,0.0,0.0,0.0,0.0,0.4,0.1,-23.75889151,-46.59827749,9,4,91,16.437,0.014,4.113,4.114,4.11,4.1,0,0,-0.4,0,0.1,48.1,48.1,0,0,0,0,0,,,,,
29,3.8,0m 3.8s,-23.7588907,-46.59827822,Auto Takeoff,2.0,0.6,2.3,0.7,0.2,0.1,1.1,0.5,0.4,0.1,-23.75889151,-46.59827749,9,4,91,16.437,0.014,4.113,4.114,4.11,4.1,0,-0.1,-0.4,-0.5,1.2,47.9,47.9,1024,1024,1024,1024,1026,,,,,
30,3.9,0m 3.9s,-23.75889074,-46.59827816,Auto Takeoff,2.0,0.6,2.6,0.8,0.0,0.0,0.0,0.0,0.4,0.1,-23.75889151,-46.59827749,9,4,91,16.016,0.009,3.999,4.008,4.008,4.001,0,0,-0.4,-0.6,2.3,47.7,47.7,1024,1024,1024,1024,1141,,,,,
31,4,0m 4s,-23.75889084,-46.59827812,Auto Takeoff,2.3,0.7,3.0,0.9,0.0,0.0,0.0,0.0,0.4,0.1,-23.75889151,-46.59827749,9,4,91,16.016,0.009,3.999,4.008,4.008,4.001,0,0,-0.4,-1.1,1.2,47.7,47.7,1024,1024,1024,1024,1141,,,,,
32,4.1,0m 4.1s,-23.75889093,-46.59827807,Auto Takeoff,2.3,0.7,3.0,0.9,0.0,0.0,0.0,0.0,0.0,0.0,-23.75889151,-46.59827749,9,4,91,16.016,0.009,3.999,4.008,4.008,4.001,0,0,-0.4,-1.1,0.2,47.6,47.6,1024,1024,1024,1024,1268,,,,,
33,4.2,0m 4.2s,-23.75889099,-46.59827809,Auto Takeoff,2.6,0.8,3.3,1.0,0.0,0.0,0.0,0.0,0.0,0.0,-23.75889151,-46.59827749,9,4,91,16.016,0.009,3.999,4.008,4.008,4.001,0,0,-0.4,-1.5,1.1,47.6,47.6,1024,1024,1024,1024,1392,,,,,
34,4.3,0m 4.3s,-23.75889102,-46.5982781,Auto Takeoff,2.6,0.8,3.3,1.0,0.0,0.0,0.0,0.0,0.0,0.0,-23.75889151,-46.59827749,9,4,91,16.016,0.009,3.999,4.008,4.008,4.001,0,0,-0.5,-0.6,1.7,47.4,47.4,1024,1024,1024,1024,1492,,,,,
35,4.4,0m 4.4s,-23.75889103,-46.59827801,Auto Takeoff,3.0,0.9,3.6,1.1,0.0,0.0,0.0,0.0,0.0,0.0,-23.75889151,-46.59827749,9,4,91,16.016,0.009,3.999,4.008,4.008,4.001,0,0,-0.6,-1.3,1.5,47.4,47.4,1024,1024,1024,1024,1549,,,,,
36,4.5,0m 4.5s,-23.75889106,-46.59827793,P-GPS,3.3,1.0,3.6,1.1,0.0,0.0,0.0,0.0,0.0,0.0,-23.75889151,-46.59827749,9,4,91,16.016,0.009,3.999,4.008,4.008,4.001,0,0,-0.8,-1.7,0.7,47.4,47.4,1024,1024,1024,1024,1580,,,,,
37,4.6,0m 4.6s,-23.75889111,-46.5982778,P-GPS,3.6,1.1,3.9,1.2,0.0,0.0,0.0,0.0,0.0,0.0,-23.75889151,-46.59827749,9,4,91,16.016,0.009,3.999,4.008,4.008,4.001,0,0,-1.2,-2,0.8,47.5,47.5,1024,1024,1024,1024,1600,,,,,
38,4.7,0m 4.7s,-23.75889114,-46.59827769,P-GPS,3.9,1.2,4.6,1.4,0.0,0.0,0.0,0.0,0.0,0.0,-23.75889151,-46.59827749,9,4,91,16.016,0.009,3.999,4.008,4.008,4.001,0,0,-1.6,-1.3,1.8,47.4,47.4,1024,1024,1024,1024,1604,,,,,
39,4.8,0m 4.8s,-23.75889115,-46.59827754,P-GPS,4.6,1.4,4.9,1.5,0.0,0.0,0.0,0.0,0.0,0.0,-23.75889151,-46.59827749,9,4,91,16.016,0.009,3.999,4.008,4.008,4.001,0,0,-2.1,-0.8,2.1,47.6,47.6,1024,1024,1024,1024,1625,,,,,
40,4.9,0m 4.9s,-23.75889118,-46.59827736,P-GPS,5.2,1.6,5.9,1.8,0.0,0.0,0.0,0.0,0.0,0.0,-23.75889151,-46.59827749,9,4,91,16.016,0.009,3.999,4.008,4.008,4.001,0,0,-2.5,-0.3,1.5,47.6,47.6,1024,1024,1024,1024,1640,,,,,
41,5,0m 5s,-23.75889132,-46.59827727,P-GPS,6.2,1.9,6.6,2.0,0.0,0.0,0.0,0.0,0.0,0.0,-23.75889151,-46.59827749,9,4,91,16.016,0.009,3.999,4.008,4.008,4.001,0,0,-3,0,0.9,47.8,47.8,1024,1024,1024,1024,1662,,,,,
42,5.1,0m 5.1s,-23.75889146,-46.59827717,P-GPS,7.2,2.2,7.5,2.3,0.0,0.0,0.0,0.0,0.0,0.0,-23.75889151,-46.59827749,9,4,91,16.016,0.009,3.999,4.008,4.008,4.001,0,0,-3.4,-0.6,-0.5,47.8,47.8,1024,1024,1024,1024,1679,,,,,
43,5.2,0m 5.2s,-23.75889155,-46.5982771,P-GPS,8.5,2.6,8.9,2.7,0.0,0.0,0.0,0.0,0.0,0.0,-23.75889151,-46.59827749,9,4,91,16.016,0.009,3.999,4.008,4.008,4.001,0,0,-3.7,-2.7,0.2,48,48,1024,1024,1024,1024,1679,,,,,
44,5.3,0m 5.3s,-23.75889157,-46.59827702,P-GPS,9.8,3.0,9.8,3.0,0.0,0.0,1.1,0.5,0.0,0.0,-23.75889151,-46.59827749,9,4,91,16.016,0.009,3.999,4.008,4.008,4.001,0,0,-4.1,-2.4,2.3,48,48,1024,1024,1024,1024,1668,,,,,
45,5.4,0m 5.4s,-23.75889153,-46.59827679,P-GPS,11.2,3.4,11.2,3.4,0.2,0.1,0.0,0.0,0.3,0.1,-23.75889151,-46.59827749,9,4,91,16.016,0.009,3.999,4.008,4.008,4.001,0,0.1,-4.4,-0.2,3.1,48.1,48.1,1024,1024,1024,1024,1665,,,,,
46,5.5,0m 5.5s,-23.75889153,-46.59827651,P-GPS,12.8,3.9,12.8,3.9,0.2,0.1,0.0,0.0,0.3,0.1,-23.75889151,-46.59827749,9,4,91,16.016,0.009,3.999,4.008,4.008,4.001,0,0.1,-4.6,1,2,48.1,48.1,1024,1024,1024,1024,1662,,,,,
47,5.6,0m 5.6s,-23.75889158,-46.59827605,P-GPS,14.4,4.4,14.1,4.3,0.2,0.1,1.1,0.5,0.4,0.1,-23.75889151,-46.59827749,9,4,91,16.016,0.009,3.999,4.008,4.008,4.001,0,0.1,-4.7,0.6,0.8,48.1,48.1,1024,1024,1024,1024,1646,,,,,
48,5.7,0m 5.7s,-23.75889166,-46.59827561,P-GPS,15.7,4.8,15.7,4.8,0.4,0.2,1.1,0.5,0.5,0.2,-23.75889151,-46.59827749,9,4,91,16.016,0.009,3.999,4.008,4.008,4.001,0,0.2,-4.7,1.1,-0.6,48,48,1024,1024,1024,1024,1632,,,,,
49,5.8,0m 5.8s,-23.75889175,-46.59827512,P-GPS,17.4,5.3,17.1,5.2,0.2,0.1,0.0,0.0,0.8,0.2,-23.75889151,-46.59827749,9,4,91,16.016,0.009,3.999,4.008,4.008,4.001,0,0.1,-4.5,1.5,-1.7,47.9,47.9,1024,1024,1024,1024,1614,,,,,
50,5.9,0m 5.9s,-23.75889185,-46.59827472,P-GPS,18.7,5.7,18.7,5.7,0.3,0.1,0.0,0.0,0.9,0.3,-23.75889151,-46.59827749,9,4,91,16.016,0.009,3.999,4.008,4.008,4.001,-0.1,0.1,-4.3,0.8,-2,48,48,1024,1024,1024,1024,1607,,,,,
51,6,0m 6s,-23.75889198,-46.59827432,P-GPS,20.3,6.2,20.0,6.1,0.2,0.1,1.1,0.5,1.0,0.3,-23.75889151,-46.59827749,9,4,91,16.016,0.009,3.999,4.008,4.008,4.001,0,0.1,-4.1,0.6,-2.6,47.9,47.9,1024,1024,1024,1024,1609,,,,,
52,6.1,0m 6.1s,-23.7588921,-46.59827396,P-GPS,21.7,6.6,21.3,6.5,0.2,0.1,1.1,0.5,1.2,0.4,-23.75889151,-46.59827749,9,4,91,16.016,0.009,3.999,4.008,4.008,4.001,0,0.1,-3.8,1.1,-2.6,48,48,1024,1024,1024,1024,1614,,,,,
53,6.2,0m 6.2s,-23.75889216,-46.59827368,P-GPS,22.6,6.9,22.3,6.8,0.0,0.0,1.1,0.5,1.3,0.4,-23.75889151,-46.59827749,9,4,91,16.016,0.009,3.999,4.008,4.008,4.001,0,0,-3.6,0,-2.3,47.9,47.9,1024,1024,1024,1024,1612,,,,,
54,6.3,0m 6.3s,-23.7588922,-46.59827343,P-GPS,24.0,7.3,23.6,7.2,0.2,0.1,0.0,0.0,1.4,0.4,-23.75889151,-46.59827749,9,4,91,16.016,0.009,3.999,4.008,4.008,4.001,0,0.1,-3.5,-0.7,-2.1,47.9,47.9,1024,1024,1024,1024,1609,,,,,
55,6.4,0m 6.4s,-23.75889216,-46.59827315,P-GPS,24.9,7.6,24.6,7.5,0.2,0.1,1.1,0.5,1.5,0.4,-23.75889151,-46.59827749,9,4,91,16.016,0.009,3.999,4.008,4.008,4.001,0,0.1,-3.3,1,-1.9,47.9,47.9,1024,1024,1024,1024,1610,,,,,
56,6.5,0m 6.5s,-23.75889212,-46.59827289,P-GPS,26.2,8.0,25.6,7.8,0.3,0.1,0.0,0.0,1.5,0.5,-23.75889151,-46.59827749,9,4,91,16.016,0.009,3.999,4.008,4.008,4.001,0.1,0.1,-3.2,1.2,-2.6,47.9,47.9,1024,1024,1024,1024,1608,,,,,
57,6.6,0m 6.6s,-23.758892,-46.5982727,P-GPS,27.2,8.3,26.9,8.2,0.2,0.1,1.1,0.5,1.6,0.5,-23.75889151,-46.59827749,9,4,91,16.016,0.009,3.999,4.008,4.008,4.001,0.1,0,-3.2,2.3,-2.1,47.8,47.8,1024,1024,1024,1024,1593,,,,,
58,6.7,0m 6.7s,-23.75889187,-46.59827255,P-GPS,28.2,8.6,27.9,8.5,0.2,0.1,0.0,0.0,1.6,0.5,-23.75889151,-46.59827749,9,4,91,16.016,0.009,3.999,4.008,4.008,4.001,0.1,0,-3.2,2.9,-0.3,47.7,47.7,1024,1024,1024,1024,1591,,,,,
59,6.8,0m 6.8s,-23.75889167,-46.59827249,P-GPS,29.2,8.9,28.9,8.8,0.2,0.1,0.0,0.0,1.6,0.5,-23.75889151,-46.59827749,9,4,91,16.016,0.009,3.999,4.008,4.008,4.001,0.1,0,-3.1,2.3,1.6,47.7,47.7,1024,1024,1024,1024,1594,,,,,
60,6.9,0m 6.9s,-23.75889151,-46.59827242,P-GPS,30.2,9.2,29.9,9.1,0.2,0.1,0.0,0.0,1.6,0.5,-23.75889151,-46.59827749,9,4,91,15.601,0.023,3.891,3.912,3.909,3.889,0.1,0,-3,1.7,1.2,47.6,47.6,1024,1024,1024,1024,1594,,,,,
61,7,0m 7s,-23.75889135,-46.59827244,P-GPS,31.2,9.5,30.8,9.4,0.2,0.1,0.0,0.0,1.7,0.5,-23.75889151,-46.59827749,9,4,91,15.601,0.023,3.891,3.912,3.909,3.889,0.1,0,-3,0.3,1.1,47.6,47.6,1024,1024,1024,1024,1577,,,,,
62,7.1,0m 7.1s,-23.75889114,-46.59827241,P-GPS,32.2,9.8,31.8,9.7,0.4,0.2,0.0,0.0,1.7,0.5,-23.75889151,-46.59827749,9,4,91,15.601,0.023,3.891,3.912,3.909,3.889,0.2,0,-2.9,1.7,1.6,47.7,47.7,1024,1024,1024,1024,1532,,,,,
63,7.2,0m 7.2s,-23.75889083,-46.59827239,P-GPS,33.1,10.1,32.8,10.0,0.7,0.3,0.0,0.0,1.7,0.5,-23.75889151,-46.59827749,9,4,91,15.601,0.023,3.891,3.912,3.909,3.889,0.3,0,-2.8,3.7,2.5,47.8,47.8,1024,1024,1024,1024,1467,,,,,
64,7.3,0m 7.3s,-23.75889048,-46.59827238,P-GPS,34.1,10.4,33.8,10.3,0.7,0.3,1.1,0.5,1.8,0.5,-23.75889151,-46.59827749,9,4,91,15.601,0.023,3.891,3.912,3.909,3.889,0.3,0,-2.6,5.5,4.5,48.1,48.1,1024,1024,1024,1024,1421,,,,,
65,7.4,0m 7.4s,-23.7588901,-46.59827241,P-GPS,35.1,10.7,34.4,10.5,0.7,0.3,0.0,0.0,1.7,0.5,-23.75889151,-46.59827749,9,4,91,15.601,0.023,3.891,3.912,3.909,3.889,0.3,-0.1,-2.2,7.2,5.9,48.2,48.2,1024,1024,1024,1024,1410,,,,,
66,7.5,0m 7.5s,-23.75888974,-46.59827246,P-GPS,35.8,10.9,35.1,10.7,0.5,0.2,1.5,0.7,1.8,0.6,-23.75889151,-46.59827749,9,4,91,15.601,0.023,3.891,3.912,3.909,3.889,0.2,-0.1,-1.8,6.2,7.2,48.3,48.3,1024,1024,1024,1024,1334,,,,,
67,7.6,0m 7.6s,-23.7588894,-46.59827255,P-GPS,36.1,11.0,35.4,10.8,0.5,0.2,0.0,0.0,1.8,0.6,-23.75889151,-46.59827749,9,4,91,15.601,0.023,3.891,3.912,3.909,3.889,0.2,-0.1,-1.4,4.7,6.7,48.1,48.1,1024,1024,1024,1024,1334,,,,,
68,7.7,0m 7.7s,-23.75888906,-46.59827263,P-GPS,36.7,11.2,35.8,10.9,0.8,0.4,1.1,0.5,1.8,0.6,-23.75889151,-46.59827749,9,4,91,15.601,0.023,3.891,3.912,3.909,3.889,0.3,-0.2,-1.1,4.6,6.9,48,48,1024,1024,1024,1024,1352,,,,,
69,7.8,0m 7.8s,-23.75888874,-46.59827281,P-GPS,37.1,11.3,35.8,10.9,0.8,0.4,0.0,0.0,1.8,0.6,-23.75889151,-46.59827749,9,4,91,15.601,0.023,3.891,3.912,3.909,3.889,0.3,-0.2,-0.8,3.9,8,48.2,48.2,1024,1024,1024,1024,1422,,,,,
70,8,0m 8s,-23.75888811,-46.59827319,P-GPS,37.4,11.4,36.1,11.0,0.5,0.2,0.7,0.3,1.9,0.6,-23.75889151,-46.59827749,9,4,91,15.601,0.023,3.891,3.912,3.909,3.889,0.2,-0.1,-0.6,3,7.9,48.1,48.1,1024,1024,1024,1024,1472,,,,,
71,8.1,0m 8.1s,-23.75888781,-46.59827336,P-GPS,37.7,11.5,36.1,11.0,0.6,0.3,0.7,0.3,1.9,0.6,-23.75889151,-46.59827749,9,4,91,15.601,0.023,3.891,3.912,3.909,3.889,0.2,-0.2,-0.6,3.3,7.8,48.1,48.1,1024,1024,1024,1024,1463,,,,,
72,8.2,0m 8.2s,-23.75888756,-46.59827352,P-GPS,38.1,11.6,35.8,10.9,0.5,0.2,0.0,0.0,2.0,0.6,-23.75889151,-46.59827749,9,4,91,15.601,0.023,3.891,3.912,3.909,3.889,0.2,-0.1,-0.8,3,8.2,47.9,47.9,1024,1024,1024,1024,1414,,,,,
73,8.3,0m 8.3s,-23.75888734,-46.59827361,P-GPS,38.1,11.6,36.1,11.0,0.3,0.1,1.1,0.5,2.0,0.6,-23.75889151,-46.59827749,9,4,91,15.601,0.023,3.891,3.912,3.909,3.889,0.1,-0.1,-0.9,2.7,8.3,47.8,47.8,1024,1024,1024,1024,1371,,,,,
74,8.4,0m 8.4s,-23.75888722,-46.5982737,P-GPS,38.7,11.8,36.1,11.0,0.3,0.1,0.0,0.0,2.0,0.6,-23.75889151,-46.59827749,9,4,91,15.601,0.023,3.891,3.912,3.909,3.889,0.1,-0.1,-1,2.3,8.6,47.9,47.9,1024,1024,1024,1024,1295,,,,,
75,8.5,0m 8.5s,-23.75888708,-46.5982737,P-GPS,39.0,11.9,36.4,11.1,0.2,0.1,0.0,0.0,2.1,0.6,-23.75889151,-46.59827749,9,4,91,15.601,0.023,3.891,3.912,3.909,3.889,0.1,0,-0.9,3.2,9.1,48.1,48.1,1024,1024,1024,1024,1194,,,,,
76,8.6,0m 8.6s,-23.75888698,-46.5982736,P-GPS,39.4,12.0,36.4,11.1,0.2,0.1,0.0,0.0,2.1,0.6,-23.75889151,-46.59827749,9,4,91,15.601,0.023,3.891,3.912,3.909,3.889,0.1,0,-0.8,5.2,8.4,48.4,48.4,1024,1024,1024,1024,1094,,,,,
77,8.7,0m 8.7s,-23.7588869,-46.59827351,P-GPS,39.4,12.0,36.7,11.2,0.0,0.0,0.0,0.0,2.1,0.6,-23.75889151,-46.59827749,9,4,91,15.601,0.023,3.891,3.912,3.909,3.889,0,0,-0.6,5.1,7.9,48.5,48.5,1024,1024,1024,1024,1024,,,,,
78,8.8,0m 8.8s,-23.75888689,-46.59827341,P-GPS,39.7,12.1,36.7,11.2,0.0,0.0,1.1,0.5,2.2,0.7,-23.75889151,-46.59827749,9,4,91,15.601,0.023,3.891,3.912,3.909,3.889,0,0,-0.5,3,8,48.2,48.2,1024,1024,1024,1024,1024,,,,,
79,8.9,0m 8.9s,-23.75888683,-46.59827332,P-GPS,40.0,12.2,36.7,11.2,0.2,0.1,0.0,0.0,2.2,0.7,-23.75889151,-46.59827749,9,4,91,15.984,0.043,3.988,3.981,3.991,4.024,0.1,0,-0.3,2.8,8.2,48,48,1024,1024,1024,1024,1024,,,,,
80,9,0m 9s,-23.75888672,-46.59827328,P-GPS,40.0,12.2,36.7,11.2,0.2,0.1,0.0,0.0,2.2,0.7,-23.75889151,-46.59827749,9,4,91,15.984,0.043,3.988,3.981,3.991,4.024,0.1,0,-0.2,3.9,8.3,48.1,48.1,1024,1024,1024,1024,1024,,,,,
81,9.1,0m 9.1s,-23.7588866,-46.59827322,P-GPS,40.0,12.2,36.1,11.0,0.2,0.1,0.0,0.0,2.3,0.7,-23.75889151,-46.59827749,9,4,91,15.984,0.043,3.988,3.981,3.991,4.024,0.1,0,-0.1,4.5,8.1,48.1,48.1,1024,1024,1024,1024,1024,,,,,
82,9.2,0m 9.2s,-23.7588865,-46.59827312,P-GPS,40.4,12.3,36.1,11.0,0.2,0.1,0.0,0.0,2.3,0.7,-23.75889151,-46.59827749,9,4,91,15.984,0.043,3.988,3.981,3.991,4.024,0.1,0,-0.1,4.4,8.1,48.1,48.1,1024,1024,1024,1024,1024,,,,,
83,9.3,0m 9.3s,-23.75888642,-46.59827299,P-GPS,40.4,12.3,35.8,10.9,0.2,0.1,0.0,0.0,2.4,0.7,-23.75889151,-46.59827749,9,4,91,15.984,0.043,3.988,3.981,3.991,4.024,0.1,0,-0.1,5.1,7.3,48.2,48.2,1024,1024,1024,1024,1024,,,,,
84,9.4,0m 9.4s,-23.75888635,-46.59827287,P-GPS,40.4,12.3,35.8,10.9,0.2,0.1,0.0,0.0,2.4,0.7,-23.75889151,-46.59827749,9,4,91,15.984,0.043,3.988,3.981,3.991,4.024,0.1,0,0,6.3,7.3,48.2,48.2,1024,1024,1024,1024,1024,,,,,
85,9.5,0m 9.5s,-23.75888629,-46.59827277,P-GPS,40.4,12.3,35.4,10.8,0.2,0.1,0.0,0.0,2.5,0.8,-23.75889151,-46.59827749,9,4,91,15.984,0.043,3.988,3.981,3.991,4.024,0.1,0,0,6,8,48.3,48.3,1024,1024,1024,1024,1024,,,,,
86,9.6,0m 9.6s,-23.75888629,-46.59827274,P-GPS,40.7,12.4,35.1,10.7,0.0,0.0,0.0,0.0,2.5,0.8,-23.75889151,-46.59827749,9,4,91,15.984,0.043,3.988,3.981,3.991,4.024,0,0,0,4.6,9,48.1,48.1,1024,1024,1024,1024,1024,,,,,
87,9.7,0m 9.7s,-23.75888629,-46.59827267,P-GPS,40.7,12.4,34.4,10.5,0.0,0.0,0.0,0.0,2.5,0.8,-23.75889151,-46.59827749,9,4,91,15.984,0.043,3.988,3.981,3.991,4.024,0,0,0,5.2,8.4,48.1,48.1,1024,1024,1024,1024,1024,,,,,
88,9.8,0m 9.8s,-23.75888631,-46.59827256,P-GPS,40.7,12.4,34.4,10.5,0.0,0.0,0.0,0.0,2.5,0.8,-23.75889151,-46.59827749,9,4,91,15.984,0.043,3.988,3.981,3.991,4.024,0,0,0.1,6.1,7.4,48.3,48.3,1024,1024,1024,1024,1024,,,,,
89,9.9,0m 9.9s,-23.75888636,-46.59827247,P-GPS,40.7,12.4,34.1,10.4,0.0,0.0,0.0,0.0,2.5,0.8,-23.75889151,-46.59827749,9,4,91,15.984,0.043,3.988,3.981,3.991,4.024,0,0,0,5.1,6.8,48.2,48.2,1024,1024,1024,1024,1024,,,,,
90,10,0m 10s,-23.75888645,-46.59827238,P-GPS,40.7,12.4,33.5,10.2,0.0,0.0,0.0,0.0,2.5,0.8,-23.75889151,-46.59827749,9,4,91,15.984,0.043,3.988,3.981,3.991,4.024,0,0,0,5.1,7.7,48.1,48.1,1024,1024,1024,1024,1024,,,,,
91,10.1,0m 10.1s,-23.75888655,-46.59827229,P-GPS,40.7,12.4,33.5,10.2,0.0,0.0,0.0,0.0,2.5,0.8,-23.75889151,-46.59827749,9,4,91,15.984,0.043,3.988,3.981,3.991,4.024,0,0,0,6.6,7.9,48.3,48.3,1024,1024,1024,1024,1024,,,,,
92,10.2,0m 10.2s,-23.75888667,-46.59827213,P-GPS,41.0,12.5,,,0.2,0.1,0.0,0.0,2.5,0.8,-23.75889151,-46.59827749,9,4,91,15.984,0.043,3.988,3.981,3.991,4.024,-0.1,0,0,5.3,7.3,48.2,48.2,1024,1024,1024,1024,1024,,,,,
93,10.3,0m 10.3s,-23.75888682,-46.59827198,P-GPS,41.0,12.5,,,0.2,0.1,0.0,0.0,2.5,0.8,-23.75889151,-46.59827749,9,4,91,15.984,0.043,3.988,3.981,3.991,4.024,-0.1,0,0,3,7.6,47.8,47.8,1024,1024,1024,1024,1024,,,,,
94,10.4,0m 10.4s,-23.75888709,-46.59827181,P-GPS,41.0,12.5,,,0.5,0.2,1.1,0.5,2.5,0.8,-23.75889151,-46.59827749,9,4,91,15.984,0.043,3.988,3.981,3.991,4.024,-0.1,0.2,0.1,3.9,6.2,47.9,47.9,1024,1024,1024,1024,1024,,,,,
95,10.5,0m 10.5s,-23.75888735,-46.59827162,P-GPS,41.0,12.5,,,0.5,0.2,0.0,0.0,2.5,0.7,-23.75889151,-46.59827749,9,4,91,15.984,0.043,3.988,3.981,3.991,4.024,-0.1,0.2,0.1,6.7,4,48.2,48.2,1024,1024,1024,1024,1024,,,,,
96,10.6,0m 10.6s,-23.7588877,-46.59827145,P-GPS,41.0,12.5,31.5,9.6,0.2,0.1,1.1,0.5,2.5,0.7,-23.75889151,-46.59827749,9,4,91,15.984,0.043,3.988,3.981,3.991,4.024,-0.1,0,0.2,7.4,4.2,48.4,48.4,1024,1024,1024,1024,1024,,,,,
97,10.7,0m 10.7s,-23.75888806,-46.59827142,P-GPS,41.0,12.5,30.8,9.4,0.5,0.2,1.1,0.5,2.4,0.7,-23.75889151,-46.59827749,9,4,91,15.984,0.043,3.988,3.981,3.991,4.024,-0.2,-0.1,0.2,3.2,5.4,48.2,48.2,1024,1024,1024,1024,1024,,,,,
98,10.8,0m 10.8s,-23.7588885,-46.59827138,P-GPS,41.0,12.5,30.5,9.3,0.5,0.2,0.0,0.0,2.3,0.7,-23.75889151,-46.59827749,9,4,91,15.984,0.043,3.988,3.981,3.991,4.024,-0.2,-0.1,0.2,0.1,4.9,47.7,47.7,1024,1024,1024,1024,1024,,,,,
99,10.9,0m 10.9s,-23.75888885,-46.59827131,P-GPS,40.7,12.4,30.5,9.3,0.2,0.1,1.5,0.7,2.3,0.7,-23.75889151,-46.59827749,9,4,91,15.914,0.003,3.977,3.98,3.979,3.978,-0.1,0,0.3,1.2,6,47.7,47.7,1024,1024,1024,1024,1024,,,,,
100,11,0m 11s,-23.75888922,-46.59827115,P-GPS,40.7,12.4,30.2,9.2,0.2,0.1,0.0,0.0,2.3,0.7,-23.75889151,-46.59827749,9,4,91,15.914,0.003,3.977,3.98,3.979,3.978,-0.1,0,0.3,1.7,4.9,47.7,47.7,1024,1024,1024,1024,1024,,,,,
101,11.1,0m 11.1s,-23.75888955,-46.59827096,P-GPS,40.7,12.4,29.9,9.1,0.4,0.2,0.0,0.0,2.3,0.7,-23.75889151,-46.59827749,9,4,91,15.914,0.003,3.977,3.98,3.979,3.978,-0.2,0,0.3,0.4,3.4,47.9,47.9,1024,1024,1024,1024,1024,,,,,
102,11.2,0m 11.2s,-23.75888992,-46.59827058,P-GPS,40.4,12.3,29.9,9.1,0.4,0.2,0.0,0.0,2.4,0.7,-23.75889151,-46.59827749,10,4,91,15.914,0.003,3.977,3.98,3.979,3.978,-0.2,0,0.4,2.2,2.3,47.9,47.9,1024,1024,1024,1024,1024,,,,,
103,11.4,0m 11.4s,-23.75889052,-46.59826981,P-GPS,39.7,12.1,29.5,9.0,0.7,0.3,1.0,0.4,2.6,0.8,-23.75889151,-46.59827749,10,4,91,15.914,0.003,3.977,3.98,3.979,3.978,-0.3,0,0.3,2.6,2.8,48.2,48.2,1024,1024,1024,1024,1024,,,,,
104,11.5,0m 11.5s,-23.75889077,-46.59826945,P-GPS,39.7,12.1,29.5,9.0,0.7,0.3,1.2,0.5,2.7,0.8,-23.75889151,-46.59827749,10,4,91,15.914,0.003,3.977,3.98,3.979,3.978,-0.3,0,0.1,2.6,3,48.1,48.1,1024,1024,1024,1024,1024,,,,,
105,11.6,0m 11.6s,-23.75889107,-46.59826904,P-GPS,39.7,12.1,29.5,9.0,0.5,0.2,1.5,0.7,2.8,0.9,-23.75889151,-46.59827749,10,4,91,15.914,0.003,3.977,3.98,3.979,3.978,-0.2,0.1,0,3.1,2.9,48.1,48.1,1024,1024,1024,1024,1024,,,,,
106,11.7,0m 11.7s,-23.75889131,-46.59826868,P-GPS,40.0,12.2,29.2,8.9,0.5,0.2,1.5,0.7,2.9,0.9,-23.75889151,-46.59827749,10,4,91,15.914,0.003,3.977,3.98,3.979,3.978,-0.2,0.1,0,4.1,2.9,48.1,48.1,1024,1024,1024,1024,1024,,,,,
107,11.8,0m 11.8s,-23.75889159,-46.59826828,P-GPS,40.0,12.2,29.2,8.9,0.7,0.3,1.5,0.7,3.1,0.9,-23.75889151,-46.59827749,10,4,91,15.914,0.003,3.977,3.98,3.979,3.978,-0.3,0.1,0,4.1,1.8,47.9,47.9,1024,1024,1024,1024,1024,,,,,
108,11.9,0m 11.9s,-23.75889182,-46.59826793,P-GPS,40.0,12.2,29.2,8.9,0.7,0.3,1.5,0.7,3.2,1.0,-23.75889151,-46.59827749,10,4,91,15.861,0.013,3.961,3.972,3.969,3.959,-0.3,0.1,0,3.8,0.8,47.9,47.9,1024,1024,1024,1024,1024,,,,,
109,12,0m 12s,-23.7588921,-46.59826763,P-GPS,40.0,12.2,29.2,8.9,0.4,0.2,1.5,0.7,3.3,1.0,-23.75889151,-46.59827749,10,4,91,15.861,0.013,3.961,3.972,3.969,3.959,-0.2,0,0,4.1,0.6,47.9,47.9,1024,1024,1024,1024,1024,,,,,
110,12.1,0m 12.1s,-23.75889231,-46.59826741,P-GPS,40.0,12.2,29.2,8.9,0.4,0.2,1.1,0.5,3.4,1.0,-23.75889151,-46.59827749,10,4,91,15.861,0.013,3.961,3.972,3.969,3.959,-0.2,0,0.1,3.3,1.2,47.9,47.9,1024,1024,1024,1024,1024,,,,,
111,12.2,0m 12.2s,-23.75889254,-46.59826728,P-GPS,40.0,12.2,29.2,8.9,0.4,0.2,1.1,0.5,3.4,1.0,-23.75889151,-46.59827749,10,4,91,15.861,0.013,3.961,3.972,3.969,3.959,-0.2,0,0,2.2,1.4,47.9,47.9,1024,1024,1024,1024,1024,,,,,
112,12.3,0m 12.3s,-23.75889269,-46.5982672,P-GPS,40.0,12.2,29.2,8.9,0.2,0.1,0.0,0.0,3.5,1.1,-23.75889151,-46.59827749,10,4,91,15.861,0.013,3.961,3.972,3.969,3.959,-0.1,0,0.1,1.7,1.5,47.9,47.9,1024,1024,1024,1024,1024,,,,,
113,12.4,0m 12.4s,-23.75889288,-46.59826717,P-GPS,40.0,12.2,29.2,8.9,0.2,0.1,0.0,0.0,3.5,1.1,-23.75889151,-46.59827749,10,4,91,15.861,0.013,3.961,3.972,3.969,3.959,-0.1,0,0.1,1.3,1.9,47.9,47.9,1024,1024,1024,1024,1024,,,,,
114,12.5,0m 12.5s,-23.75889298,-46.59826716,P-GPS,40.0,12.2,29.2,8.9,0.2,0.1,0.0,0.0,3.5,1.1,-23.75889151,-46.59827749,10,4,91,15.861,0.013,3.961,3.972,3.969,3.959,-0.1,0,0,1.5,1.5,47.9,47.9,1024,1024,1024,1024,1024,,,,,
115,12.6,0m 12.6s,-23.75889312,-46.59826723,P-GPS,40.0,12.2,29.2,8.9,0.0,0.0,0.0,0.0,3.5,1.1,-23.75889151,-46.59827749,10,4,91,15.861,0.013,3.961,3.972,3.969,3.959,0,0,0,1.8,1.9,47.8,47.8,1024,1024,1024,1024,1024,,,,,
116,12.7,0m 12.7s,-23.75889318,-46.5982673,P-GPS,40.0,12.2,29.2,8.9,0.0,0.0,0.0,0.0,3.4,1.0,-23.75889151,-46.59827749,10,4,91,15.861,0.013,3.961,3.972,3.969,3.959,0,0,0.1,1.8,3,47.7,47.7,1024,1024,1024,1024,1024,,,,,
117,12.8,0m 12.8s,-23.75889328,-46.59826736,P-GPS,39.7,12.1,29.2,8.9,0.0,0.0,0.0,0.0,3.4,1.0,-23.75889151,-46.59827749,10,4,91,15.861,0.013,3.961,3.972,3.969,3.959,0,0,0.2,1.5,2.9,47.7,47.7,1024,1024,1024,1024,1024,,,,,
118,12.9,0m 12.9s,-23.75889332,-46.59826738,P-GPS,39.7,12.1,29.2,8.9,0.2,0.1,0.0,0.0,3.4,1.0,-23.75889151,-46.59827749,10,4,90,15.861,0.013,3.961,3.972,3.969,3.959,-0.1,0,0.1,1.3,2.3,47.6,47.6,1024,1024,1024,1024,1024,,,,,
119,13,0m 13s,-23.75889343,-46.59826734,P-GPS,39.4,12.0,29.2,8.9,0.0,0.0,0.0,0.0,3.5,1.1,-23.75889151,-46.59827749,10,4,90,15.861,0.013,3.961,3.972,3.969,3.959,0,0,0.2,0.9,1.9,47.8,47.8,1024,1024,1024,1024,1024,,,,,
120,13.1,0m 13.1s,-23.75889346,-46.5982673,P-GPS,39.4,12.0,29.2,8.9,0.0,0.0,0.0,0.0,3.5,1.1,-23.75889151,-46.59827749,10,4,90,15.861,0.013,3.961,3.972,3.969,3.959,0,0,0,0.8,1.4,47.9,47.9,1024,1024,1024,1024,1024,,,,,
121,13.2,0m 13.2s,-23.75889354,-46.59826727,P-GPS,39.4,12.0,29.2,8.9,0.0,0.0,0.0,0.0,3.5,1.1,-23.75889151,-46.59827749,10,4,90,15.861,0.013,3.961,3.972,3.969,3.959,0,0,0,1.1,0.4,48,48,1024,1024,1024,1024,1024,,,,,
122,13.3,0m 13.3s,-23.75889351,-46.59826726,P-GPS,39.7,12.1,29.2,8.9,0.0,0.0,0.0,0.0,3.5,1.1,-23.75889151,-46.59827749,10,4,90,15.861,0.013,3.961,3.972,3.969,3.959,0,0,-0.1,1.7,0.9,48,48,1024,1024,1024,1024,1024,,,,,
123,13.4,0m 13.4s,-23.75889347,-46.59826722,P-GPS,39.7,12.1,29.5,9.0,0.3,0.1,0.0,0.0,3.5,1.1,-23.75889151,-46.59827749,10,4,90,15.861,0.013,3.961,3.972,3.969,3.959,0.1,-0.1,-0.2,1.8,3.2,47.9,47.9,1024,1024,1024,1024,1024,,,,,
124,13.5,0m 13.5s,-23.75889334,-46.59826717,P-GPS,40.0,12.2,29.5,9.0,0.2,0.1,0.0,0.0,3.5,1.1,-23.75889151,-46.59827749,10,4,90,15.861,0.013,3.961,3.972,3.969,3.959,0.1,0,-0.1,2.2,4.1,47.9,47.9,1024,1024,1024,1024,1024,,,,,
125,13.6,0m 13.6s,-23.75889326,-46.5982671,P-GPS,40.0,12.2,29.5,9.0,0.0,0.0,1.1,0.5,3.5,1.1,-23.75889151,-46.59827749,10,4,90,15.861,0.013,3.961,3.972,3.969,3.959,0,0,-0.2,2.7,3.4,47.9,47.9,1024,1024,1024,1024,1024,,,,,
126,13.7,0m 13.7s,-23.75889311,-46.59826701,P-GPS,40.4,12.3,29.5,9.0,0.0,0.0,1.1,0.5,3.5,1.1,-23.75889151,-46.59827749,10,4,90,15.861,0.013,3.961,3.972,3.969,3.959,0,0,-0.1,3.1,2.9,48,48,1024,1024,1024,1024,1024,,,,,
127,13.8,0m 13.8s,-23.75889309,-46.59826696,P-GPS,40.4,12.3,29.5,9.0,0.0,0.0,0.0,0.0,3.6,1.1,-23.75889151,-46.59827749,10,4,90,15.861,0.013,3.961,3.972,3.969,3.959,0,0,-0.1,2.9,3.2,48,48,1024,1024,1024,1024,1024,,,,,
128,13.9,0m 13.9s,-23.758893,-46.5982669,P-GPS,40.7,12.4,29.5,9.0,0.2,0.1,0.0,0.0,3.6,1.1,-23.75889151,-46.59827749,10,4,90,15.851,0.013,3.955,3.966,3.968,3.962,0.1,0,-0.1,2.8,3.9,48.1,48.1,1024,1024,1024,1024,1024,,,,,
129,14,0m 14s,-23.75889301,-46.59826678,P-GPS,40.7,12.4,29.5,9.0,0.2,0.1,1.1,0.5,3.6,1.1,-23.75889151,-46.59827749,10,4,90,15.851,0.013,3.955,3.966,3.968,3.962,0.1,0,0,3,3.3,48,48,1024,1024,1024,1024,1024,,,,,
130,14.1,0m 14.1s,-23.75889297,-46.59826662,P-GPS,40.7,12.4,29.5,9.0,0.0,0.0,0.0,0.0,3.7,1.1,-23.75889151,-46.59827749,10,4,90,15.851,0.013,3.955,3.966,3.968,3.962,0,0,0,3.9,3,48,48,1024,1024,1024,1024,1024,,,,,
131,14.2,0m 14.2s,-23.75889301,-46.59826644,P-GPS,40.7,12.4,29.5,9.0,0.0,0.0,1.1,0.5,3.7,1.1,-23.75889151,-46.59827749,10,4,90,15.851,0.013,3.955,3.966,3.968,3.962,0,0,-0.1,3.8,1.3,48,48,1024,1024,1024,1024,1024,,,,,
132,14.3,0m 14.3s,-23.75889295,-46.59826629,P-GPS,40.7,12.4,29.5,9.0,0.2,0.1,0.0,0.0,3.8,1.1,-23.75889151,-46.59827749,10,4,90,15.851,0.013,3.955,3.966,3.968,3.962,0.1,0,-0.1,3.3,1.8,47.8,47.8,1024,1024,1024,1024,1024,,,,,
133,14.4,0m 14.4s,-23.75889293,-46.59826615,P-GPS,41.0,12.5,29.5,9.0,0.2,0.1,0.0,0.0,3.8,1.2,-23.75889151,-46.59827749,10,4,90,15.851,0.013,3.955,3.966,3.968,3.962,0.1,0,-0.1,3.3,3.4,47.8,47.8,1024,1024,1024,1024,1024,,,,,
134,14.5,0m 14.5s,-23.75889284,-46.59826599,P-GPS,41.0,12.5,29.5,9.0,0.2,0.1,0.0,0.0,3.9,1.2,-23.75889151,-46.59827749,10,4,90,15.851,0.013,3.955,3.966,3.968,3.962,0.1,0,0,3.8,3.2,47.7,47.7,1024,1024,1024,1024,1024,,,,,
135,14.6,0m 14.6s,-23.75889284,-46.59826584,P-GPS,41.0,12.5,29.5,9.0,0.2,0.1,0.0,0.0,3.9,1.2,-23.75889151,-46.59827749,10,4,90,15.851,0.013,3.955,3.966,3.968,3.962,0.1,0,0,4.5,2.8,47.8,47.8,1024,1024,1024,1024,1024,,,,,
136,14.7,0m 14.7s,-23.75889276,-46.59826568,P-GPS,41.0,12.5,29.2,8.9,0.2,0.1,0.0,0.0,4.0,1.2,-23.75889151,-46.59827749,10,4,90,15.851,0.013,3.955,3.966,3.968,3.962,0.1,0,0,5.4,2.5,47.9,47.9,1024,1024,1024,1024,1024,,,,,
137,14.8,0m 14.8s,-23.75889271,-46.59826557,P-GPS,41.3,12.6,29.2,8.9,0.2,0.1,1.1,0.5,4.0,1.2,-23.75889151,-46.59827749,10,4,90,15.851,0.013,3.955,3.966,3.968,3.962,0.1,0,0,5.3,1.7,48,48,1024,1024,1024,1024,1024,,,,,
138,14.9,0m 14.9s,-23.75889259,-46.59826547,P-GPS,41.3,12.6,29.2,8.9,0.2,0.1,0.0,0.0,4.0,1.2,-23.75889151,-46.59827749,10,4,90,15.759,0.011,3.933,3.944,3.944,3.938,0.1,0,0,4.7,2,48,48,1024,1024,1024,1024,1024,,,,,
139,15,0m 15s,-23.75889249,-46.59826541,P-GPS,41.3,12.6,28.9,8.8,0.2,0.1,1.1,0.5,4.1,1.2,-23.75889151,-46.59827749,10,4,90,15.759,0.011,3.933,3.944,3.944,3.938,0.1,0,0,5,3.2,48,48,1024,1024,1024,1024,1024,,,,,
140,15.1,0m 15.1s,-23.75889233,-46.59826534,P-GPS,41.3,12.6,28.9,8.8,0.2,0.1,0.0,0.0,4.1,1.2,-23.75889151,-46.59827749,10,4,90,15.759,0.011,3.933,3.944,3.944,3.938,0.1,0,0,5.3,3.5,48,48,1024,1024,1024,1024,1024,,,,,
141,15.2,0m 15.2s,-23.75889223,-46.59826529,P-GPS,41.7,12.7,28.9,8.8,0.2,0.1,1.1,0.5,4.1,1.2,-23.75889151,-46.59827749,10,4,90,15.759,0.011,3.933,3.944,3.944,3.938,0.1,0,0,5.5,3.3,48,48,1024,1024,1024,1024,1024,,,,,
142,15.3,0m 15.3s,-23.75889206,-46.59826524,P-GPS,41.7,12.7,,,0.2,0.1,0.0,0.0,4.1,1.2,-23.75889151,-46.59827749,10,4,90,15.759,0.011,3.933,3.944,3.944,3.938,0.1,0,0,6,3.4,48,48,1024,1024,1024,1024,1024,,,,,
143,15.4,0m 15.4s,-23.75889194,-46.5982652,P-GPS,41.7,12.7,,,0.2,0.1,0.0,0.0,4.1,1.3,-23.75889151,-46.59827749,10,4,90,15.759,0.011,3.933,3.944,3.944,3.938,0.1,0,0,5.9,3.8,48,48,1024,1024,1024,1024,1024,,,,,
144,15.5,0m 15.5s,-23.75889177,-46.59826516,P-GPS,41.7,12.7,,,0.2,0.1,0.0,0.0,4.1,1.3,-23.75889151,-46.59827749,10,4,90,15.759,0.011,3.933,3.944,3.944,3.938,0.1,0,0.1,6.2,3.7,48.1,48.1,1024,1024,1024,1024,1024,,,,,
145,15.6,0m 15.6s,-23.75889168,-46.5982652,P-GPS,41.7,12.7,,,0.2,0.1,0.0,0.0,4.1,1.2,-23.75889151,-46.59827749,10,4,90,15.759,0.011,3.933,3.944,3.944,3.938,0.1,0,0.1,6.5,3.7,48.1,48.1,1024,1024,1024,1024,1024,,,,,
146,15.7,0m 15.7s,-23.75889156,-46.59826525,P-GPS,41.7,12.7,,,0.2,0.1,0.0,0.0,4.1,1.2,-23.75889151,-46.59827749,10,4,90,15.759,0.011,3.933,3.944,3.944,3.938,0.1,0,0.1,5.8,4,48.1,48.1,1024,1024,1024,1024,1024,,,,,
147,15.8,0m 15.8s,-23.7588915,-46.59826536,P-GPS,41.7,12.7,,,0.0,0.0,0.0,0.0,4.0,1.2,-23.75889151,-46.59827749,10,4,90,15.759,0.011,3.933,3.944,3.944,3.938,0,0,0.1,4.8,4.1,48.1,48.1,1024,1024,1024,1024,1024,,,,,
148,15.9,0m 15.9s,-23.7588914,-46.59826545,P-GPS,41.7,12.7,,,0.0,0.0,0.0,0.0,4.0,1.2,-23.75889151,-46.59827749,10,4,90,15.842,0.013,3.953,3.966,3.966,3.957,0,0,0.1,4.4,4.4,48.1,48.1,1024,1024,1024,1024,1024,,,,,
149,16,0m 16s,-23.75889138,-46.5982656,P-GPS,41.7,12.7,,,0.2,0.1,0.0,0.0,4.0,1.2,-23.75889151,-46.59827749,10,4,90,15.842,0.013,3.953,3.966,3.966,3.957,0.1,0,0.2,4.1,4.9,48,48,1024,1024,1024,1024,1024,,,,,
150,16.1,0m 16.1s,-23.75889132,-46.59826572,P-GPS,41.7,12.7,,,0.2,0.1,0.0,0.0,3.9,1.2,-23.75889151,-46.59827749,10,4,90,15.842,0.013,3.953,3.966,3.966,3.957,0.1,0,0.1,4,4.7,48,48,1024,1024,1024,1024,1024,,,,,
151,16.2,0m 16.2s,-23.75889136,-46.59826584,P-GPS,41.7,12.7,,,0.2,0.1,0.0,0.0,3.9,1.2,-23.75889151,-46.59827749,10,4,90,15.842,0.013,3.953,3.966,3.966,3.957,0.1,0,0.2,4.3,4.5,48,48,1024,1024,1024,1024,1024,,,,,
152,16.3,0m 16.3s,-23.75889134,-46.59826594,P-GPS,41.7,12.7,,,0.0,0.0,0.0,0.0,3.8,1.2,-23.75889151,-46.59827749,10,4,90,15.842,0.013,3.953,3.966,3.966,3.957,0,0,0.2,4.6,4.9,48.1,48.1,1024,1024,1024,1024,1024,,,,,
153,16.4,0m 16.4s,-23.7588914,-46.59826602,P-GPS,41.3,12.6,,,0.0,0.0,0.0,0.0,3.8,1.2,-23.75889151,-46.59827749,10,4,90,15.842,0.013,3.953,3.966,3.966,3.957,0,0,0.2,4.7,4.5,48,48,1024,1024,1024,1024,1024,,,,,
154,16.5,0m 16.5s,-23.7588914,-46.59826608,P-GPS,41.3,12.6,,,0.2,0.1,0.0,0.0,3.8,1.2,-23.75889151,-46.59827749,10,4,90,15.842,0.013,3.953,3.966,3.966,3.957,0,-0.1,0.1,3.9,4.9,48,48,1024,1024,1024,1024,1024,,,,,
155,16.6,0m 16.6s,-23.75889149,-46.59826618,P-GPS,41.3,12.6,27.9,8.5,0.0,0.0,0.0,0.0,3.8,1.1,-23.75889151,-46.59827749,10,4,90,15.842,0.013,3.953,3.966,3.966,3.957,0,0,0.2,3.7,4.9,48,48,1024,1024,1024,1024,1024,,,,,
156,16.7,0m 16.7s,-23.75889154,-46.59826625,P-GPS,41.3,12.6,27.9,8.5,0.0,0.0,0.0,0.0,3.8,1.1,-23.75889151,-46.59827749,10,4,90,15.842,0.013,3.953,3.966,3.966,3.957,0,0,0.1,3.3,4.7,48.1,48.1,1024,1024,1024,1024,1024,,,,,
157,16.8,0m 16.8s,-23.75889168,-46.5982663,P-GPS,41.3,12.6,27.9,8.5,0.0,0.0,0.0,0.0,3.7,1.1,-23.75889151,-46.59827749,10,4,90,15.842,0.013,3.953,3.966,3.966,3.957,0,0,0.2,3.5,4.2,48.1,48.1,1024,1024,1024,1024,1024,,,,,
158,16.9,0m 16.9s,-23.75889177,-46.59826632,P-GPS,41.3,12.6,27.9,8.5,0.0,0.0,1.1,0.5,3.7,1.1,-23.75889151,-46.59827749,10,4,90,15.842,0.013,3.953,3.966,3.966,3.957,0,0,0.3,4,3.8,48.1,48.1,1024,1024,1024,1024,1024,,,,,
159,17,0m 17s,-23.75889195,-46.59826635,P-GPS,41.0,12.5,27.9,8.5,0.0,0.0,0.0,0.0,3.7,1.1,-23.75889151,-46.59827749,10,4,90,15.842,0.013,3.953,3.966,3.966,3.957,0,0,0.3,3.7,3.4,48,48,1024,1024,1024,1024,1024,,,,,
160,17.1,0m 17.1s,-23.7588921,-46.59826637,P-GPS,41.0,12.5,27.9,8.5,0.0,0.0,0.0,0.0,3.7,1.1,-23.75889151,-46.59827749,10,4,90,15.842,0.013,3.953,3.966,3.966,3.957,0,0,0.3,2.4,3.8,47.9,47.9,1024,1024,1024,1024,1024,,,,,
161,17.2,0m 17.2s,-23.75889232,-46.59826639,P-GPS,41.0,12.5,27.9,8.5,0.0,0.0,0.0,0.0,3.7,1.1,-23.75889151,-46.59827749,10,4,90,15.842,0.013,3.953,3.966,3.966,3.957,0,0,0.2,1.6,4,47.9,47.9,1024,1024,1024,1024,1024,,,,,
162,17.3,0m 17.3s,-23.75889247,-46.59826635,P-GPS,40.7,12.4,27.9,8.5,0.0,0.0,1.1,0.5,3.7,1.1,-23.75889151,-46.59827749,10,4,90,15.842,0.013,3.953,3.966,3.966,3.957,0,0,0.2,2.3,2.9,47.9,47.9,1024,1024,1024,1024,1024,,,,,
163,17.4,0m 17.4s,-23.75889267,-46.59826622,P-GPS,40.7,12.4,27.9,8.5,0.0,0.0,1.1,0.5,3.8,1.2,-23.75889151,-46.59827749,10,4,90,15.842,0.013,3.953,3.966,3.966,3.957,0,0,0.1,2.9,1.3,48.1,48.1,1024,1024,1024,1024,1024,,,,,
164,17.5,0m 17.5s,-23.75889279,-46.5982661,P-GPS,40.7,12.4,27.9,8.5,0.0,0.0,0.0,0.0,3.8,1.2,-23.75889151,-46.59827749,10,4,90,15.842,0.013,3.953,3.966,3.966,3.957,0,0,0,3.5,1.5,48.1,48.1,1024,1024,1024,1024,1024,,,,,
165,17.6,0m 17.6s,-23.75889296,-46.59826607,P-GPS,40.7,12.4,27.9,8.5,0.2,0.1,0.0,0.0,3.8,1.2,-23.75889151,-46.59827749,10,4,90,15.842,0.013,3.953,3.966,3.966,3.957,0,-0.1,0,3.2,3.2,48,48,1024,1024,1024,1024,1024,,,,,
166,17.7,0m 17.7s,-23.75889307,-46.59826604,P-GPS,40.7,12.4,28.2,8.6,0.0,0.0,0.0,0.0,3.9,1.2,-23.75889151,-46.59827749,10,4,90,15.842,0.013,3.953,3.966,3.966,3.957,0,0,0.1,3,4,48,48,1024,1024,1024,1024,1024,,,,,
167,17.8,0m 17.8s,-23.75889322,-46.59826606,P-GPS,40.7,12.4,28.2,8.6,0.2,0.1,0.0,0.0,3.9,1.2,-23.75889151,-46.59827749,10,4,90,15.842,0.013,3.953,3.966,3.966,3.957,-0.1,0,0.2,3,3,48.1,48.1,1024,1024,1024,1024,1024,,,,,
168,17.9,0m 17.9s,-23.75889332,-46.59826605,P-GPS,40.7,12.4,28.2,8.6,0.2,0.1,0.0,0.0,3.9,1.2,-23.75889151,-46.59827749,10,4,90,15.798,0.011,3.943,3.954,3.953,3.948,-0.1,0,0.1,2.5,2.1,48.1,48.1,1024,1024,1024,1024,1024,,,,,
169,18,0m 18s,-23.75889349,-46.59826611,P-GPS,40.7,12.4,28.2,8.6,0.0,0.0,0.0,0.0,3.9,1.2,-23.75889151,-46.59827749,10,4,90,15.798,0.011,3.943,3.954,3.953,3.948,0,0,0.1,1.8,2.4,48,48,1024,1024,1024,1024,1024,,,,,
170,18.1,0m 18.1s,-23.75889358,-46.59826613,P-GPS,40.7,12.4,28.2,8.6,0.0,0.0,0.0,0.0,3.9,1.2,-23.75889151,-46.59827749,10,4,90,15.798,0.011,3.943,3.954,3.953,3.948,0,0,0,1.2,3.1,47.9,47.9,1024,1024,1024,1024,1024,,,,,
171,18.2,0m 18.2s,-23.7588937,-46.59826619,P-GPS,40.7,12.4,28.5,8.7,0.0,0.0,0.0,0.0,3.8,1.2,-23.75889151,-46.59827749,10,4,90,15.798,0.011,3.943,3.954,3.953,3.948,0,0,0,1.1,2.9,47.9,47.9,1024,1024,1024,1024,1024,,,,,
172,18.3,0m 18.3s,-23.75889375,-46.59826619,P-GPS,40.4,12.3,28.5,8.7,0.2,0.1,0.0,0.0,3.9,1.2,-23.75889151,-46.59827749,10,4,90,15.798,0.011,3.943,3.954,3.953,3.948,0,0.1,0.1,1.6,2.3,47.8,47.8,1024,1024,1024,1024,1024,,,,,
173,18.5,0m 18.5s,-23.75889376,-46.59826613,P-GPS,40.4,12.3,28.5,8.7,0.0,0.0,0.0,0.0,3.9,1.2,-23.75889151,-46.59827749,10,4,90,15.798,0.011,3.943,3.954,3.953,3.948,0,0,0.1,2.5,2.2,47.8,47.8,1024,1024,1024,1024,1024,,,,,
174,18.6,0m 18.6s,-23.75889376,-46.59826611,P-GPS,40.4,12.3,28.9,8.8,0.0,0.0,0.0,0.0,3.9,1.2,-23.75889151,-46.59827749,10,4,90,15.798,0.011,3.943,3.954,3.953,3.948,0,0,0.1,2.7,2.1,47.9,47.9,1024,1024,1024,1024,1024,,,,,
175,18.7,0m 18.7s,-23.7588937,-46.59826605,P-GPS,40.4,12.3,28.9,8.8,0.0,0.0,0.0,0.0,3.9,1.2,-23.75889151,-46.59827749,10,4,90,15.798,0.011,3.943,3.954,3.953,3.948,0,0,0,3.5,1.6,47.9,47.9,1024,1024,1024,1024,1024,,,,,
176,18.8,0m 18.8s,-23.75889368,-46.59826606,P-GPS,40.4,12.3,28.9,8.8,0.2,0.1,0.0,0.0,3.9,1.2,-23.75889151,-46.59827749,10,4,90,15.798,0.011,3.943,3.954,3.953,3.948,0.1,0,0,4.1,1.8,48,48,1024,1024,1024,1024,1024,,,,,
177,18.9,0m 18.9s,-23.7588936,-46.59826607,P-GPS,40.7,12.4,29.2,8.9,0.2,0.1,0.0,0.0,3.9,1.2,-23.75889151,-46.59827749,10,4,90,15.735,0.009,3.928,3.935,3.937,3.935,0.1,0,0,3.5,2.6,48,48,1024,1024,1024,1024,1024,,,,,
178,19,0m 19s,-23.75889355,-46.59826613,P-GPS,40.7,12.4,29.2,8.9,0.2,0.1,0.0,0.0,3.9,1.2,-23.75889151,-46.59827749,10,4,90,15.735,0.009,3.928,3.935,3.937,3.935,0.1,0,0,3.3,3.5,48,48,1024,1024,1024,1024,1024,,,,,
179,19.1,0m 19.1s,-23.75889343,-46.59826613,P-GPS,40.7,12.4,29.2,8.9,0.2,0.1,1.1,0.5,3.9,1.2,-23.75889151,-46.59827749,10,4,90,15.735,0.009,3.928,3.935,3.937,3.935,0.1,0,0,3.6,4.2,48,48,1024,1024,1024,1024,1024,,,,,
180,19.2,0m 19.2s,-23.75889335,-46.59826613,P-GPS,40.7,12.4,29.2,8.9,0.3,0.1,0.0,0.0,3.8,1.2,-23.75889151,-46.59827749,10,4,90,15.735,0.009,3.928,3.935,3.937,3.935,0.1,0.1,0,4.2,4,48,48,1024,1024,1024,1024,1066,,,,,
181,19.3,0m 19.3s,-23.75889322,-46.59826608,P-GPS,40.7,12.4,29.2,8.9,0.2,0.1,0.0,0.0,3.9,1.2,-23.75889151,-46.59827749,10,4,90,15.735,0.009,3.928,3.935,3.937,3.935,0,0.1,0,4.8,3.5,48,48,1024,1024,1024,1024,1244,,,,,
182,19.4,0m 19.4s,-23.75889315,-46.59826606,P-GPS,40.7,12.4,29.2,8.9,0.0,0.0,0.0,0.0,3.9,1.2,-23.75889151,-46.59827749,10,4,90,15.735,0.009,3.928,3.935,3.937,3.935,0,0,0.1,5.2,2.8,48.1,48.1,1024,1024,1024,1024,1486,,,,,
183,19.5,0m 19.5s,-23.75889305,-46.59826603,P-GPS,40.7,12.4,29.5,9.0,0.0,0.0,0.0,0.0,3.9,1.2,-23.75889151,-46.59827749,10,4,90,15.735,0.009,3.928,3.935,3.937,3.935,0,0,0,4.7,2.6,48,48,1024,1024,1024,1024,1656,,,,,
184,19.6,0m 19.6s,-23.75889302,-46.59826604,P-GPS,41.0,12.5,29.5,9.0,0.0,0.0,0.0,0.0,3.9,1.2,-23.75889151,-46.59827749,10,4,90,15.735,0.009,3.928,3.935,3.937,3.935,0.1,0,-0.1,3.6,2.4,47.9,47.9,1024,1024,1024,1024,1684,,,,,
185,19.7,0m 19.7s,-23.75889295,-46.59826604,P-GPS,41.0,12.5,29.5,9.0,0.2,0.1,0.0,0.0,3.9,1.2,-23.75889151,-46.59827749,10,4,90,15.735,0.009,3.928,3.935,3.937,3.935,0.1,0,-0.6,2.7,1.3,47.8,47.8,1024,1024,1024,1024,1684,,,,,
186,19.8,0m 19.8s,-23.75889291,-46.59826609,P-GPS,41.7,12.7,29.9,9.1,0.4,0.2,0.0,0.0,3.8,1.2,-23.75889151,-46.59827749,10,4,90,15.735,0.009,3.928,3.935,3.937,3.935,0.2,0,-1.1,3.7,1.2,48,48,1024,1024,1024,1024,1684,,,,,
187,19.9,0m 19.9s,-23.75889277,-46.59826617,P-GPS,42.3,12.9,30.2,9.2,0.4,0.2,0.0,0.0,3.8,1.2,-23.75889151,-46.59827749,10,4,90,15.735,0.009,3.928,3.935,3.937,3.935,0.2,0,-1.7,5.2,2.1,47.9,47.9,1024,1024,1024,1024,1684,,,,,
188,20,0m 20s,-23.75889268,-46.59826634,P-GPS,43.0,13.1,30.8,9.4,0.2,0.1,0.0,0.0,3.7,1.1,-23.75889151,-46.59827749,10,4,90,15.735,0.009,3.928,3.935,3.937,3.935,0.1,0,-2.2,4.5,3.5,47.9,47.9,1024,1024,1024,1024,1684,,,,,
189,20.1,0m 20.1s,-23.75889258,-46.59826652,P-GPS,44.0,13.4,31.8,9.7,0.0,0.0,0.0,0.0,3.7,1.1,-23.75889151,-46.59827749,10,4,90,15.735,0.009,3.928,3.935,3.937,3.935,0,0,-2.8,3.1,5.6,47.7,47.7,1024,1024,1024,1024,1684,,,,,
190,20.2,0m 20.2s,-23.75889268,-46.59826677,P-GPS,44.9,13.7,32.8,10.0,0.0,0.0,0.0,0.0,3.6,1.1,-23.75889151,-46.59827749,10,4,90,15.735,0.009,3.928,3.935,3.937,3.935,0,0,-3.4,2.4,6,47.6,47.6,1024,1024,1024,1024,1684,,,,,
191,20.3,0m 20.3s,-23.75889279,-46.59826689,P-GPS,46.3,14.1,34.1,10.4,0.3,0.1,0.0,0.0,3.6,1.1,-23.75889151,-46.59827749,10,4,90,15.735,0.009,3.928,3.935,3.937,3.935,-0.1,0.1,-3.9,2.3,3.5,47.5,47.5,1024,1024,1024,1024,1684,,,,,
192,20.4,0m 20.4s,-23.7588931,-46.59826698,P-GPS,47.6,14.5,35.4,10.8,0.2,0.1,0.0,0.0,3.6,1.1,-23.75889151,-46.59827749,10,4,90,15.735,0.009,3.928,3.935,3.937,3.935,0,0.1,-4.3,3.1,1.7,47.7,47.7,1024,1024,1024,1024,1684,,,,,
193,20.5,0m 20.5s,-23.7588933,-46.59826703,P-GPS,49.2,15.0,36.7,11.2,0.0,0.0,0.0,0.0,3.6,1.1,-23.75889151,-46.59827749,10,4,90,15.735,0.009,3.928,3.935,3.937,3.935,0,0,-4.6,4.1,2.2,47.8,47.8,1024,1024,1024,1024,1684,,,,,
194,20.6,0m 20.6s,-23.75889367,-46.59826718,P-GPS,50.9,15.5,38.4,11.7,0.0,0.0,1.1,0.5,3.5,1.1,-23.75889151,-46.59827749,10,4,90,15.735,0.009,3.928,3.935,3.937,3.935,0,0,-4.8,5.1,2.3,48.1,48.1,1024,1024,1024,1024,1684,,,,,
195,20.7,0m 20.7s,-23.75889393,-46.59826733,P-GPS,52.5,16.0,,,0.2,0.1,1.1,0.5,3.5,1.1,-23.75889151,-46.59827749,10,4,90,15.735,0.009,3.928,3.935,3.937,3.935,-0.1,0,-4.8,5.7,2.4,48.2,48.2,1024,1024,1024,1024,1681,,,,,
196,20.8,0m 20.8s,-23.75889427,-46.59826752,P-GPS,54.1,16.5,,,0.2,0.1,1.1,0.5,3.5,1.1,-23.75889151,-46.59827749,10,4,90,15.735,0.009,3.928,3.935,3.937,3.935,-0.1,0,-4.9,4.5,1.9,48,48,1024,1024,1024,1024,1681,,,,,
197,20.9,0m 20.9s,-23.75889451,-46.59826774,P-GPS,55.8,17.0,,,0.2,0.1,0.0,0.0,3.4,1.0,-23.75889151,-46.59827749,10,4,89,15.74,0.013,3.927,3.94,3.94,3.933,-0.1,0,-5.1,2.3,1.3,48,48,1024,1024,1024,1024,1684,,,,,
198,21,0m 21s,-23.75889478,-46.59826807,P-GPS,57.4,17.5,,,0.2,0.1,0.0,0.0,3.4,1.0,-23.75889151,-46.59827749,10,4,89,15.74,0.013,3.927,3.94,3.94,3.933,0,-0.1,-5.1,1.1,1.5,47.9,47.9,1024,1024,1024,1024,1684,,,,,
199,21.1,0m 21.1s,-23.75889486,-46.59826842,P-GPS,59.4,18.1,,,0.2,0.1,1.1,0.5,3.3,1.0,-23.75889151,-46.59827749,10,4,89,15.74,0.013,3.927,3.94,3.94,3.933,0,-0.1,-5.2,1.6,3.9,47.9,47.9,1024,1024,1024,1024,1684,,,,,
200,21.2,0m 21.2s,-23.75889494,-46.59826884,P-GPS,61.0,18.6,,,0.2,0.1,1.1,0.5,3.1,1.0,-23.75889151,-46.59827749,10,4,89,15.74,0.013,3.927,3.94,3.94,3.933,0,-0.1,-5.1,2.6,5.6,48.1,48.1,1024,1024,1024,1024,1665,,,,,
201,21.3,0m 21.3s,-23.75889495,-46.59826924,P-GPS,63.0,19.2,,,0.4,0.2,1.1,0.5,3.0,0.9,-23.75889151,-46.59827749,10,4,89,15.74,0.013,3.927,3.94,3.94,3.933,0,-0.2,-5,2.7,5.6,48.2,48.2,1024,1024,1024,1024,1665,,,,,
202,21.4,0m 21.4s,-23.75889501,-46.59826975,P-GPS,64.6,19.7,,,0.4,0.2,1.1,0.5,2.9,0.9,-23.75889151,-46.59827749,10,4,89,15.74,0.013,3.927,3.94,3.94,3.933,0,-0.2,-4.9,1.3,6.5,48.1,48.1,1024,1024,1024,1024,1664,,,,,
203,21.5,0m 21.5s,-23.758895,-46.59827023,P-GPS,66.3,20.2,,,0.4,0.2,1.1,0.5,2.7,0.8,-23.75889151,-46.59827749,10,4,89,15.74,0.013,3.927,3.94,3.94,3.933,0,-0.2,-4.7,-0.5,6.7,47.9,47.9,1024,1024,1024,1024,1664,,,,,
204,21.6,0m 21.6s,-23.75889507,-46.59827079,P-GPS,67.6,20.6,,,0.4,0.2,1.5,0.7,2.6,0.8,-23.75889151,-46.59827749,10,4,89,15.74,0.013,3.927,3.94,3.94,3.933,0,-0.2,-4.6,-2.3,6.5,47.7,47.7,1024,1024,1024,1024,1663,,,,,
205,21.7,0m 21.7s,-23.75889503,-46.59827122,P-GPS,69.2,21.1,,,0.2,0.1,1.1,0.5,2.5,0.7,-23.75889151,-46.59827749,10,4,89,15.74,0.013,3.927,3.94,3.94,3.933,0,-0.1,-4.6,-2.5,6.3,47.6,47.6,1024,1024,1024,1024,1664,,,,,
206,21.8,0m 21.8s,-23.75889497,-46.59827164,P-GPS,70.9,21.6,,,0.3,0.1,1.1,0.5,2.3,0.7,-23.75889151,-46.59827749,10,4,89,15.74,0.013,3.927,3.94,3.94,3.933,0.1,-0.1,-4.5,-0.4,5.8,47.8,47.8,1024,1024,1024,1024,1666,,,,,
207,21.9,0m 21.9s,-23.75889479,-46.59827195,P-GPS,72.5,22.1,,,0.3,0.1,1.5,0.7,2.2,0.7,-23.75889151,-46.59827749,10,4,89,14.988,0.028,3.748,3.759,3.75,3.731,0.1,-0.1,-4.6,1,6.1,48,48,1024,1024,1024,1024,1665,,,,,
208,22,0m 22s,-23.7588946,-46.59827235,P-GPS,74.1,22.6,,,0.5,0.2,1.5,0.7,2.0,0.6,-23.75889151,-46.59827749,10,4,89,14.988,0.028,3.748,3.759,3.75,3.731,0.2,-0.1,-4.6,1.1,7,48,48,1024,1024,1024,1024,1667,,,,,
209,22.1,0m 22.1s,-23.75889433,-46.59827265,P-GPS,75.8,23.1,,,0.5,0.2,1.5,0.7,1.9,0.6,-23.75889151,-46.59827749,10,4,89,14.988,0.028,3.748,3.759,3.75,3.731,0.2,-0.1,-4.6,1.7,6.3,48.2,48.2,1024,1024,1024,1024,1665,,,,,
210,22.2,0m 22.2s,-23.75889409,-46.59827305,P-GPS,77.4,23.6,,,0.5,0.2,1.5,0.7,1.8,0.5,-23.75889151,-46.59827749,10,4,89,14.988,0.028,3.748,3.759,3.75,3.731,0.2,-0.1,-4.7,2.7,6,48.2,48.2,1024,1024,1024,1024,1665,,,,,
211,22.3,0m 22.3s,-23.75889379,-46.59827345,P-GPS,79.1,24.1,,,0.8,0.4,1.1,0.5,1.6,0.5,-23.75889151,-46.59827749,10,4,89,14.988,0.028,3.748,3.759,3.75,3.731,0.3,-0.2,-4.7,2.2,8.8,48.3,48.3,1024,1024,1024,1024,1665,,,,,
212,22.4,0m 22.4s,-23.75889353,-46.59827401,P-GPS,80.7,24.6,,,0.6,0.3,1.5,0.7,1.4,0.4,-23.75889151,-46.59827749,10,4,89,14.988,0.028,3.748,3.759,3.75,3.731,0.2,-0.2,-4.6,0.7,12.5,48.1,48.1,1024,1024,1024,1024,1665,,,,,
213,22.5,0m 22.5s,-23.75889328,-46.59827443,P-GPS,82.0,25.0,,,0.5,0.2,1.5,0.7,1.2,0.4,-23.75889151,-46.59827749,10,4,89,14.988,0.028,3.748,3.759,3.75,3.731,0.2,-0.1,-4.5,-1,12.6,47.7,47.7,1024,1024,1024,1024,1665,,,,,
214,22.6,0m 22.6s,-23.75889316,-46.59827485,P-GPS,83.7,25.5,,,0.2,0.1,1.1,0.5,1.0,0.3,-23.75889151,-46.59827749,10,4,89,14.988,0.028,3.748,3.759,3.75,3.731,0.1,0,-4.5,-1.4,10.2,47.7,47.7,1024,1024,1024,1024,1665,,,,,
215,22.7,0m 22.7s,-23.75889301,-46.59827507,P-GPS,85.0,25.9,,,0.2,0.1,1.5,0.7,1.0,0.3,-23.75889151,-46.59827749,10,4,89,14.988,0.028,3.748,3.759,3.75,3.731,0.1,0,-4.5,-0.3,9.5,48,48,1024,1024,1024,1024,1666,,,,,
216,22.8,0m 22.8s,-23.75889294,-46.59827526,P-GPS,86.6,26.4,,,0.2,0.1,0.0,0.0,0.9,0.3,-23.75889151,-46.59827749,10,4,89,14.988,0.028,3.748,3.759,3.75,3.731,0.1,0,-4.4,1.4,9.3,48.3,48.3,1024,1024,1024,1024,1664,,,,,
217,22.9,0m 22.9s,-23.75889288,-46.59827532,P-GPS,88.3,26.9,,,0.0,0.0,0.0,0.0,0.8,0.3,-23.75889151,-46.59827749,10,4,89,15.399,0.059,3.847,3.881,3.849,3.822,0,0,-4.4,2.9,6.4,48.4,48.4,1024,1024,1024,1024,1665,,,,,
218,23,0m 23s,-23.7588929,-46.59827547,P-GPS,89.9,27.4,,,0.0,0.0,0.0,0.0,0.9,0.3,-23.75889151,-46.59827749,10,4,89,15.399,0.059,3.847,3.881,3.849,3.822,0,0,-4.6,2.1,4.5,48.3,48.3,1024,1024,1024,1024,1667,,,,,
219,23.1,0m 23.1s,-23.75889291,-46.59827567,P-GPS,91.5,27.9,,,0.2,0.1,0.0,0.0,0.8,0.2,-23.75889151,-46.59827749,10,4,89,15.399,0.059,3.847,3.881,3.849,3.822,0,-0.1,-4.7,-0.7,5.4,48.1,48.1,1024,1024,1024,1024,1665,,,,,
220,23.2,0m 23.2s,-23.75889291,-46.59827605,P-GPS,93.2,28.4,,,0.2,0.1,0.0,0.0,0.7,0.2,-23.75889151,-46.59827749,10,4,89,15.399,0.059,3.847,3.881,3.849,3.822,0,-0.1,-4.6,-2.7,7.7,47.8,47.8,1024,1024,1024,1024,1665,,,,,
221,23.3,0m 23.3s,-23.75889286,-46.5982763,P-GPS,94.5,28.8,,,0.0,0.0,0.0,0.0,0.6,0.2,-23.75889151,-46.59827749,10,4,89,15.399,0.059,3.847,3.881,3.849,3.822,0,0,-4.5,-3,8.7,47.6,47.6,1024,1024,1024,1024,1665,,,,,
222,23.4,0m 23.4s,-23.75889281,-46.59827654,P-GPS,96.1,29.3,,,0.0,0.0,0.0,0.0,0.5,0.2,-23.75889151,-46.59827749,10,4,89,15.399,0.059,3.847,3.881,3.849,3.822,0,0,-4.5,-2.4,9.1,47.7,47.7,1024,1024,1024,1024,1660,,,,,
223,23.5,0m 23.5s,-23.75889276,-46.59827663,P-GPS,97.8,29.8,,,0.0,0.0,0.0,0.0,0.4,0.1,-23.75889151,-46.59827749,10,4,89,15.399,0.059,3.847,3.881,3.849,3.822,0,0,-4.5,0.5,7.3,48.1,48.1,1024,1024,1024,1024,1660,,,,,
224,23.6,0m 23.6s,-23.75889274,-46.59827675,P-GPS,99.4,30.3,,,0.0,0.0,0.0,0.0,0.5,0.2,-23.75889151,-46.59827749,10,4,89,15.399,0.059,3.847,3.881,3.849,3.822,0,0,-4.6,0.8,7.5,48.3,48.3,1024,1024,1024,1024,1663,,,,,
225,23.7,0m 23.7s,-23.75889276,-46.59827687,P-GPS,101.0,30.8,,,0.0,0.0,0.0,0.0,0.4,0.1,-23.75889151,-46.59827749,10,4,89,15.399,0.059,3.847,3.881,3.849,3.822,0,0,-4.6,-1.8,8.6,47.9,47.9,1024,1024,1024,1024,1657,,,,,
226,23.8,0m 23.8s,-23.75889288,-46.59827711,P-GPS,102.4,31.2,,,0.0,0.0,0.0,0.0,0.4,0.1,-23.75889151,-46.59827749,10,4,89,15.399,0.059,3.847,3.881,3.849,3.822,0,0,-4.4,-4.4,8.3,47.5,47.5,1024,1024,1024,1024,1657,,,,,
227,23.9,0m 23.9s,-23.75889299,-46.59827721,P-GPS,104.0,31.7,,,0.0,0.0,0.0,0.0,0.5,0.2,-23.75889151,-46.59827749,10,4,89,15.183,0.025,3.79,3.809,3.8,3.784,0,0,-4.4,-5.6,7.4,47.4,47.4,1024,1024,1024,1024,1651,,,,,
228,24,0m 24s,-23.75889309,-46.59827726,P-GPS,105.3,32.1,,,0.2,0.1,0.0,0.0,0.5,0.2,-23.75889151,-46.59827749,10,4,89,15.183,0.025,3.79,3.809,3.8,3.784,0,0.1,-4.3,-5.6,6.8,47.3,47.3,1024,1024,1024,1024,1656,,,,,
229,24.1,0m 24.1s,-23.75889312,-46.59827717,P-GPS,106.6,32.5,,,0.4,0.2,0.0,0.0,0.5,0.2,-23.75889151,-46.59827749,10,4,89,15.183,0.025,3.79,3.809,3.8,3.784,0,0.2,-4.4,-3.9,5.5,47.5,47.5,1024,1024,1024,1024,1656,,,,,
230,24.2,0m 24.2s,-23.7588931,-46.59827701,P-GPS,108.3,33.0,,,0.7,0.3,0.0,0.0,0.4,0.1,-23.75889151,-46.59827749,10,4,89,15.183,0.025,3.79,3.809,3.8,3.784,0.1,0.3,-4.3,-1.3,5.7,47.8,47.8,1024,1024,1024,1024,1652,,,,,
231,24.3,0m 24.3s,-23.75889301,-46.59827676,P-GPS,109.6,33.4,,,0.7,0.3,1.1,0.5,0.6,0.2,-23.75889151,-46.59827749,10,4,89,15.183,0.025,3.79,3.809,3.8,3.784,0.1,0.3,-4.3,1.7,6.3,48.1,48.1,1024,1024,1024,1024,1659,,,,,
232,24.4,0m 24.4s,-23.75889291,-46.59827658,P-GPS,110.9,33.8,,,0.7,0.3,0.0,0.0,0.5,0.2,-23.75889151,-46.59827749,10,4,89,15.183,0.025,3.79,3.809,3.8,3.784,0,0.3,-4.2,3.3,6.1,48.2,48.2,1024,1024,1024,1024,1660,,,,,
233,24.5,0m 24.5s,-23.75889284,-46.59827639,P-GPS,112.5,34.3,,,0.7,0.3,1.1,0.5,0.6,0.2,-23.75889151,-46.59827749,10,4,89,15.183,0.025,3.79,3.809,3.8,3.784,0,0.2,-4.3,2.3,5.7,48.3,48.3,1024,1024,1024,1024,1661,,,,,
234,24.6,0m 24.6s,-23.75889286,-46.59827633,P-GPS,113.8,34.7,,,0.4,0.2,0.0,0.0,0.6,0.2,-23.75889151,-46.59827749,10,4,89,15.183,0.025,3.79,3.809,3.8,3.784,0,0.2,-4.4,-0.2,5.2,48,48,1024,1024,1024,1024,1660,,,,,
235,24.7,0m 24.7s,-23.75889284,-46.59827622,P-GPS,115.5,35.2,,,0.5,0.2,0.0,0.0,0.6,0.2,-23.75889151,-46.59827749,10,4,89,15.183,0.025,3.79,3.809,3.8,3.784,0.1,0.2,-4.5,-0.5,5.5,47.8,47.8,1024,1024,1024,1024,1664,,,,,
236,24.8,0m 24.8s,-23.7588928,-46.59827615,P-GPS,117.1,35.7,,,0.5,0.2,0.0,0.0,0.6,0.2,-23.75889151,-46.59827749,10,4,89,15.183,0.025,3.79,3.809,3.8,3.784,0.1,0.2,-4.5,0.8,6,47.9,47.9,1024,1024,1024,1024,1662,,,,,
237,24.9,0m 24.9s,-23.75889273,-46.59827606,P-GPS,118.8,36.2,,,0.3,0.1,1.1,0.5,0.7,0.2,-23.75889151,-46.59827749,10,4,89,15.183,0.025,3.79,3.809,3.8,3.784,0.1,0.1,-4.6,1,7.3,47.8,47.8,1024,1024,1024,1024,1658,,,,,
238,25,0m 25s,-23.75889271,-46.59827602,P-GPS,120.4,36.7,,,0.3,0.1,0.0,0.0,0.7,0.2,-23.75889151,-46.59827749,10,4,89,15.183,0.025,3.79,3.809,3.8,3.784,0.1,0.1,-4.5,-0.1,7.6,47.7,47.7,1024,1024,1024,1024,1664,,,,,
239,25.1,0m 25.1s,-23.75889265,-46.59827591,P-GPS,121.7,37.1,,,0.5,0.2,0.0,0.0,0.7,0.2,-23.75889151,-46.59827749,10,4,89,15.183,0.025,3.79,3.809,3.8,3.784,0.1,0.2,-4.6,0.4,7.8,47.8,47.8,1024,1024,1024,1024,1664,,,,,
240,25.2,0m 25.2s,-23.75889264,-46.59827578,P-GPS,123.4,37.6,,,0.5,0.2,1.1,0.5,0.7,0.2,-23.75889151,-46.59827749,10,4,89,15.183,0.025,3.79,3.809,3.8,3.784,0.1,0.2,-4.6,1.5,7.6,47.9,47.9,1024,1024,1024,1024,1660,,,,,
241,25.3,0m 25.3s,-23.75889261,-46.5982756,P-GPS,125.0,38.1,,,0.5,0.2,0.0,0.0,0.8,0.2,-23.75889151,-46.59827749,10,4,89,15.183,0.025,3.79,3.809,3.8,3.784,0.1,0.2,-4.7,1.1,6.5,47.9,47.9,1024,1024,1024,1024,1661,,,,,
242,25.4,0m 25.4s,-23.75889258,-46.59827549,P-GPS,126.6,38.6,,,0.5,0.2,0.0,0.0,0.8,0.2,-23.75889151,-46.59827749,10,4,89,15.183,0.025,3.79,3.809,3.8,3.784,0.1,0.2,-4.7,1.9,7.3,48,48,1024,1024,1024,1024,1661,,,,,
243,25.5,0m 25.5s,-23.75889247,-46.59827535,P-GPS,128.3,39.1,,,0.3,0.1,0.0,0.0,0.8,0.2,-23.75889151,-46.59827749,10,4,89,15.183,0.025,3.79,3.809,3.8,3.784,0.1,0.1,-4.7,3.6,8.7,48.2,48.2,1024,1024,1024,1024,1659,,,,,
244,25.6,0m 25.6s,-23.75889245,-46.59827525,P-GPS,129.9,39.6,,,0.3,0.1,0.0,0.0,0.8,0.3,-23.75889151,-46.59827749,10,4,89,15.183,0.025,3.79,3.809,3.8,3.784,0.1,0.1,-4.7,3.6,9.1,48.3,48.3,1024,1024,1024,1024,1659,,,,,
245,25.7,0m 25.7s,-23.75889242,-46.59827517,P-GPS,131.6,40.1,,,0.3,0.1,0.0,0.0,0.8,0.2,-23.75889151,-46.59827749,10,4,89,15.183,0.025,3.79,3.809,3.8,3.784,0.1,0.1,-4.7,2.2,8.9,48,48,1024,1024,1024,1024,1661,,,,,
246,25.8,0m 25.8s,-23.75889245,-46.59827512,P-GPS,133.2,40.6,,,0.3,0.1,0.0,0.0,0.9,0.3,-23.75889151,-46.59827749,10,4,89,15.183,0.025,3.79,3.809,3.8,3.784,0.1,0.1,-4.6,1.6,8.3,48,48,1024,1024,1024,1024,1657,,,,,
247,25.9,0m 25.9s,-23.75889243,-46.59827506,P-GPS,134.8,41.1,,,0.2,0.1,0.0,0.0,0.8,0.3,-23.75889151,-46.59827749,10,4,89,15.204,0.04,3.778,3.816,3.818,3.792,0.1,0,-4.6,1.3,8.7,48,48,1024,1024,1024,1024,1656,,,,,
248,26,0m 26s,-23.75889245,-46.59827503,P-GPS,136.5,41.6,,,0.2,0.1,0.0,0.0,0.9,0.3,-23.75889151,-46.59827749,10,4,89,15.204,0.04,3.778,3.816,3.818,3.792,0.1,0,-4.6,0.8,10.2,47.9,47.9,1024,1024,1024,1024,1652,,,,,
249,26.1,0m 26.1s,-23.75889241,-46.59827497,P-GPS,137.8,42.0,,,0.3,0.1,0.0,0.0,0.9,0.3,-23.75889151,-46.59827749,10,4,89,15.204,0.04,3.778,3.816,3.818,3.792,0.1,0.1,-4.5,0.5,10.1,47.8,47.8,1024,1024,1024,1024,1641,,,,,
250,26.2,0m 26.2s,-23.75889241,-46.5982749,P-GPS,139.4,42.5,,,0.3,0.1,0.0,0.0,0.9,0.3,-23.75889151,-46.59827749,10,4,89,15.204,0.04,3.778,3.816,3.818,3.792,0.1,0.1,-4.6,1.5,9.7,47.9,47.9,1024,1024,1024,1024,1644,,,,,
251,26.3,0m 26.3s,-23.75889234,-46.59827481,P-GPS,141.1,43.0,,,0.4,0.2,0.0,0.0,0.9,0.3,-23.75889151,-46.59827749,10,4,89,15.204,0.04,3.778,3.816,3.818,3.792,0.2,0,-4.4,2.2,10.6,48.1,48.1,1024,1024,1024,1024,1651,,,,,
252,26.4,0m 26.4s,-23.75889228,-46.59827477,P-GPS,142.4,43.4,,,0.2,0.1,0.0,0.0,0.9,0.3,-23.75889151,-46.59827749,10,4,89,15.204,0.04,3.778,3.816,3.818,3.792,0.1,0,-4.2,2.5,11.4,48.1,48.1,1024,1024,1024,1024,1651,,,,,
253,26.5,0m 26.5s,-23.75889219,-46.5982747,P-GPS,144.0,43.9,,,0.2,0.1,0.0,0.0,0.9,0.3,-23.75889151,-46.59827749,10,4,89,15.204,0.04,3.778,3.816,3.818,3.792,0.1,0,-4.2,2.1,10.4,48,48,1024,1024,1024,1024,1656,,,,,
254,26.6,0m 26.6s,-23.75889213,-46.59827463,P-GPS,145.3,44.3,,,0.2,0.1,1.1,0.5,1.0,0.3,-23.75889151,-46.59827749,10,4,89,15.204,0.04,3.778,3.816,3.818,3.792,0.1,0,-4.3,1.4,9.4,47.9,47.9,1024,1024,1024,1024,1664,,,,,
255,26.7,0m 26.7s,-23.75889202,-46.59827454,P-GPS,147.0,44.8,,,0.5,0.2,0.0,0.0,1.0,0.3,-23.75889151,-46.59827749,10,4,89,15.204,0.04,3.778,3.816,3.818,3.792,0.2,0.1,-4.3,1.8,9.9,47.9,47.9,1024,1024,1024,1024,1665,,,,,
256,26.8,0m 26.8s,-23.75889193,-46.59827447,P-GPS,148.3,45.2,,,0.5,0.2,0.0,0.0,1.0,0.3,-23.75889151,-46.59827749,10,4,89,15.204,0.04,3.778,3.816,3.818,3.792,0.2,0.1,-4.3,3,11.1,48,48,1024,1024,1024,1024,1664,,,,,
257,26.9,0m 26.9s,-23.75889183,-46.59827437,P-GPS,149.9,45.7,,,0.3,0.1,0.0,0.0,1.0,0.3,-23.75889151,-46.59827749,10,4,89,15.24,0.032,3.793,3.821,3.825,3.801,0.1,0.1,-4.4,4.1,11.8,48.3,48.3,1024,1024,1024,1024,1663,,,,,
258,27,0m 27s,-23.75889181,-46.59827428,P-GPS,151.2,46.1,,,0.3,0.1,0.0,0.0,1.1,0.3,-23.75889151,-46.59827749,10,4,89,15.24,0.032,3.793,3.821,3.825,3.801,0.1,0.1,-4.3,2.9,11.7,48.1,48.1,1024,1024,1024,1024,1665,,,,,
259,27.1,0m 27.1s,-23.75889179,-46.59827414,P-GPS,152.9,46.6,,,0.2,0.1,0.0,0.0,1.1,0.3,-23.75889151,-46.59827749,10,4,89,15.24,0.032,3.793,3.821,3.825,3.801,0,0.1,-4.4,2,11.3,47.9,47.9,1024,1024,1024,1024,1665,,,,,
260,27.2,0m 27.2s,-23.75889187,-46.59827396,P-GPS,154.2,47.0,,,0.2,0.1,0.0,0.0,1.2,0.4,-23.75889151,-46.59827749,10,4,89,15.24,0.032,3.793,3.821,3.825,3.801,0,0.2,-4.4,2.3,10.3,47.8,47.8,1024,1024,1024,1024,1665,,,,,
261,27.3,0m 27.3s,-23.75889192,-46.59827372,P-GPS,155.8,47.5,,,0.4,0.2,1.1,0.5,1.2,0.4,-23.75889151,-46.59827749,10,4,89,15.24,0.032,3.793,3.821,3.825,3.801,0,0.2,-4.3,3.2,8.7,47.9,47.9,1024,1024,1024,1024,1657,,,,,
262,27.4,0m 27.4s,-23.75889208,-46.59827346,P-GPS,157.2,47.9,,,0.4,0.2,0.0,0.0,1.3,0.4,-23.75889151,-46.59827749,10,4,89,15.24,0.032,3.793,3.821,3.825,3.801,0,0.2,-4.3,4.3,8.2,48.1,48.1,1024,1024,1024,1024,1655,,,,,
263,27.5,0m 27.5s,-23.75889219,-46.59827322,P-GPS,158.5,48.3,,,0.4,0.2,0.0,0.0,1.4,0.4,-23.75889151,-46.59827749,10,4,89,15.24,0.032,3.793,3.821,3.825,3.801,0,0.2,-4.3,4.4,8.5,48.2,48.2,1024,1024,1024,1024,1646,,,,,
264,27.6,0m 27.6s,-23.75889236,-46.59827303,P-GPS,160.1,48.8,,,0.2,0.1,0.0,0.0,1.5,0.5,-23.75889151,-46.59827749,10,4,89,15.24,0.032,3.793,3.821,3.825,3.801,0,0.1,-4.3,4,7.8,48.2,48.2,1024,1024,1024,1024,1630,,,,,
265,27.7,0m 27.7s,-23.75889249,-46.59827285,P-GPS,161.4,49.2,,,0.2,0.1,0.0,0.0,1.6,0.5,-23.75889151,-46.59827749,10,4,89,15.24,0.032,3.793,3.821,3.825,3.801,0,0.1,-4.2,3.5,8.1,48.2,48.2,1024,1024,1024,1024,1622,,,,,
266,27.8,0m 27.8s,-23.75889273,-46.59827276,P-GPS,162.7,49.6,,,0.2,0.1,0.0,0.0,1.6,0.5,-23.75889151,-46.59827749,10,4,89,15.24,0.032,3.793,3.821,3.825,3.801,0,0.1,-4,3,9.1,48.2,48.2,1024,1024,1024,1024,1601,,,,,
267,27.9,0m 27.9s,-23.75889293,-46.59827265,P-GPS,164.0,50.0,,,0.2,0.1,0.0,0.0,1.7,0.5,-23.75889151,-46.59827749,10,4,89,15.219,0.017,3.801,3.814,3.807,3.797,0,0.1,-3.8,2.5,8.7,48.1,48.1,1024,1024,1024,1024,1577,,,,,
268,28,0m 28s,-23.75889318,-46.59827259,P-GPS,165.4,50.4,,,0.2,0.1,0.0,0.0,1.7,0.5,-23.75889151,-46.59827749,10,4,89,15.219,0.017,3.801,3.814,3.807,3.797,0,0.1,-3.5,2.4,8.4,48.2,48.2,1024,1024,1024,1024,1492,,,,,
269,28.1,0m 28.1s,-23.75889336,-46.5982725,P-GPS,166.3,50.7,,,0.2,0.1,1.1,0.5,1.8,0.5,-23.75889151,-46.59827749,10,4,89,15.219,0.017,3.801,3.814,3.807,3.797,0,0.1,-3.2,2.8,8.7,48.3,48.3,1024,1024,1024,1024,1221,,,,,
270,28.2,0m 28.2s,-23.75889362,-46.59827252,P-GPS,167.3,51.0,,,0.2,0.1,0.0,0.0,1.8,0.6,-23.75889151,-46.59827749,10,4,89,15.219,0.017,3.801,3.814,3.807,3.797,0,0.1,-2.6,2.7,9,48.2,48.2,1024,1024,1024,1024,1024,,,,,
271,28.3,0m 28.3s,-23.75889381,-46.59827251,P-GPS,168.0,51.2,,,0.0,0.0,0.0,0.0,1.8,0.6,-23.75889151,-46.59827749,10,4,89,15.219,0.017,3.801,3.814,3.807,3.797,0,0,-2,2.2,9.3,48.2,48.2,1024,1024,1024,1024,1024,,,,,
272,28.5,0m 28.5s,-23.75889417,-46.59827258,P-GPS,168.6,51.4,,,0.0,0.0,0.0,0.0,1.9,0.6,-23.75889151,-46.59827749,10,4,89,15.219,0.017,3.801,3.814,3.807,3.797,0,0,-0.8,1.2,7.9,48.1,48.1,1024,1024,1024,1024,1024,,,,,
273,28.6,0m 28.6s,-23.7588943,-46.59827262,P-GPS,168.6,51.4,,,0.0,0.0,0.0,0.0,1.9,0.6,-23.75889151,-46.59827749,10,4,89,15.219,0.017,3.801,3.814,3.807,3.797,0,0,-0.5,0.9,7.1,48,48,1024,1024,1024,1024,1024,,,,,
274,28.7,0m 28.7s,-23.75889435,-46.59827261,P-GPS,169.0,51.5,,,0.2,0.1,0.0,0.0,1.9,0.6,-23.75889151,-46.59827749,10,4,89,15.219,0.017,3.801,3.814,3.807,3.797,0.1,0,-0.3,0.9,7.2,48.1,48.1,1024,1024,1024,1024,1024,,,,,
275,28.8,0m 28.8s,-23.75889437,-46.5982727,P-GPS,169.0,51.5,,,0.2,0.1,1.1,0.5,1.9,0.6,-23.75889151,-46.59827749,10,4,89,15.219,0.017,3.801,3.814,3.807,3.797,0.1,0,-0.2,1,7.8,48.2,48.2,1024,1024,1024,1024,1024,,,,,
276,28.9,0m 28.9s,-23.75889433,-46.59827276,P-GPS,169.0,51.5,,,0.4,0.2,0.0,0.0,1.9,0.6,-23.75889151,-46.59827749,10,4,89,15.219,0.017,3.801,3.814,3.807,3.797,0.2,0,-0.1,1.7,8.8,48.2,48.2,1024,1024,1024,1024,1024,,,,,
277,29,0m 29s,-23.75889432,-46.59827288,P-GPS,169.3,51.6,,,0.4,0.2,1.1,0.5,1.8,0.6,-23.75889151,-46.59827749,10,4,89,15.219,0.017,3.801,3.814,3.807,3.797,0.2,0,-0.1,2,9.2,48.3,48.3,1024,1024,1024,1024,1024,,,,,
