Id,Time(seconds),Time(text),Latitude,Longitude,FlightMode,Altitude(feet),Altitude(meters),VpsAltitude(feet),VpsAltitude(meters),HSpeed(mph),HSpeed(m/s),GpsSpeed(mph),GpsSpeed(m/s),HomeDistance(feet),HomeDistance(meters),HomeLatitude,HomeLongitude,GpsCount,GpsLevel,BatteryPower(%),BatteryVoltage,BatteryVoltageDeviation,BatteryCell1Voltage,BatteryCell2Voltage,BatteryCell3Voltage,BatteryCell4Voltage,VelocityX,VelocityY,VelocityZ,Pitch,Roll,Yaw,Yaw(360),RcAileron,RcElevator,RcGyro,RcRudder,RcThrottle,NonGpsError,GoHomeStatus,AppTip,AppWarning,AppMessage
1,0.7,0m 0.7s,0,0,Starting Motors,0.0,0.0,0.3,0.1,0.0,0.0,0.0,0.0,0.0,0.0,0,0,0,0,99,17.038,0,Infinity,Infinity,0,0,0,1.7,3.2,-157.7,202.3,0,0,0,0,0,,,,,
2,0.8,0m 0.8s,0,0,Starting Motors,0.0,0.0,0.3,0.1,0.0,0.0,0.0,0.0,0.0,0.0,0,0,0,0,99,17.038,0,Infinity,Infinity,0,0,0,1.7,3.2,-157.7,202.3,0,0,0,0,0,,,,,
3,0.9,0m 0.9s,0,0,Starting Motors,0.0,0.0,0.3,0.1,0.0,0.0,0.0,0.0,0.0,0.0,0,0,0,0,99,17.038,0,Infinity,Infinity,0,0,0,1.7,3.2,-157.7,202.3,0,0,0,0,0,,,,,
4,1,0m 1s,0,0,Starting Motors,0.0,0.0,0.3,0.1,0.0,0.0,0.0,0.0,0.0,0.0,0,0,0,0,99,17.038,0,Infinity,Infinity,0,0,0,1.7,3.2,-157.7,202.3,0,0,0,0,0,,,,,
5,1.1,0m 1.1s,0,0,Starting Motors,0.0,0.0,0.3,0.1,0.0,0.0,0.0,0.0,0.0,0.0,0,0,0,0,99,17.038,0,Infinity,Infinity,0,0,0,1.8,3.2,-157.6,202.4,0,0,0,0,0,,,,,
6,1.2,0m 1.2s,0,0,Starting Motors,0.0,0.0,0.3,0.1,0.0,0.0,0.0,0.0,0.0,0.0,0,0,0,0,99,17.038,0,Infinity,Infinity,0,0,0,1.7,3.2,-157.7,202.3,0,0,0,0,0,,,,,
7,1.3,0m 1.3s,0,0,Starting Motors,0.0,0.0,0.3,0.1,0.0,0.0,0.0,0.0,0.0,0.0,0,0,0,0,99,17.038,0,Infinity,Infinity,0,0,0,1.7,3.2,-157.7,202.3,0,0,0,0,0,,,,,
8,1.4,0m 1.4s,0,0,Starting Motors,0.0,0.0,0.3,0.1,0.0,0.0,0.0,0.0,0.0,0.0,0,0,0,0,99,17.038,0,Infinity,Infinity,0,0,0,1.7,3.2,-157.7,202.3,0,0,0,0,0,,,,,
9,1.5,0m 1.5s,0,0,Starting Motors,0.0,0.0,0.3,0.1,0.0,0.0,0.0,0.0,0.0,0.0,0,0,0,0,99,17.038,0,Infinity,Infinity,0,0,0,1.8,3.2,-157.7,202.3,0,0,0,0,0,,,,,
10,1.6,0m 1.6s,0,0,Auto Takeoff,0.0,0.0,0.3,0.1,0.0,0.0,0.0,0.0,0.0,0.0,0,0,0,0,99,17.038,0,Infinity,Infinity,0,0,0,1.7,3.2,-157.7,202.3,0,0,0,0,0,,,,,
11,1.7,0m 1.7s,0,0,Auto Takeoff,0.0,0.0,0.3,0.1,0.0,0.0,0.0,0.0,0.0,0.0,0,0,0,0,99,17.131,0.002,4.282,4.284,4.283,4.282,0,0,0,1.7,3.2,-157.7,202.3,0,0,0,0,0,,,,,
12,1.8,0m 1.8s,0,0,Auto Takeoff,0.0,0.0,0.3,0.1,0.0,0.0,0.0,0.0,0.0,0.0,0,0,0,0,99,17.131,0.002,4.282,4.284,4.283,4.282,0,0,0,1.7,3.2,-157.6,202.4,0,0,0,0,0,,,,,
13,1.9,0m 1.9s,0,0,Auto Takeoff,0.0,0.0,0.3,0.1,0.0,0.0,0.0,0.0,0.0,0.0,0,0,0,0,99,17.131,0.002,4.282,4.284,4.283,4.282,0,0,0,1.8,3.2,-157.7,202.3,0,0,0,0,0,,,,,
14,2,0m 2s,0,0,Auto Takeoff,0.0,0.0,0.3,0.1,0.0,0.0,0.0,0.0,0.0,0.0,0,0,0,0,99,17.131,0.002,4.282,4.284,4.283,4.282,0,0,0,1.8,3.1,-157.7,202.3,0,0,0,0,0,,,,,
15,2.1,0m 2.1s,0,0,Auto Takeoff,0.0,0.0,0.3,0.1,0.0,0.0,0.0,0.0,0.0,0.0,0,0,0,0,99,17.131,0.002,4.282,4.284,4.283,4.282,0,0,0,2.1,3.1,-157.6,202.4,0,0,0,0,0,,,,,
16,2.2,0m 2.2s,0,0,Auto Takeoff,0.0,0.0,0.3,0.1,0.0,0.0,0.0,0.0,0.0,0.0,0,0,0,0,99,17.131,0.002,4.282,4.284,4.283,4.282,0,0,0,2.6,3.2,-157.5,202.5,0,0,0,0,0,,,,,
17,2.3,0m 2.3s,0,0,Auto Takeoff,0.0,0.0,0.3,0.1,0.0,0.0,0.0,0.0,0.0,0.0,0,0,0,0,99,17.131,0.002,4.282,4.284,4.283,4.282,0,0,0,3.1,2.7,-157.5,202.5,0,0,0,0,0,,,,,
18,2.4,0m 2.4s,0,0,Auto Takeoff,0.0,0.0,0.3,0.1,0.2,0.1,0.0,0.0,0.0,0.0,0,0,0,0,99,17.131,0.002,4.282,4.284,4.283,4.282,0.1,0,0,3,1.4,-157.4,202.6,0,0,0,0,0,,,,,
19,2.5,0m 2.5s,0,0,Auto Takeoff,0.0,0.0,0.3,0.1,0.4,0.2,0.0,0.0,0.0,0.0,0,0,0,0,99,17.131,0.002,4.282,4.284,4.283,4.282,0.2,0,-0.2,2.6,1,-157.3,202.7,0,0,0,0,0,,,,,
20,2.6,0m 2.6s,0,0,Auto Takeoff,0.0,0.0,0.3,0.1,0.7,0.3,0.0,0.0,0.0,0.0,0,0,0,0,99,17.131,0.002,4.282,4.284,4.283,4.282,0.3,0,-0.4,0.7,0.2,-157.4,202.6,0,0,0,0,0,,,,,
21,2.7,0m 2.7s,0,0,Auto Takeoff,0.0,0.0,0.7,0.2,0.7,0.3,0.0,0.0,0.0,0.0,0,0,0,0,99,17.131,0.002,4.282,4.284,4.283,4.282,0.3,0,-0.5,-1.1,-1,-157.3,202.7,0,0,0,0,0,,,,,
22,2.8,0m 2.8s,0,0,Auto Takeoff,0.3,0.1,0.7,0.2,0.7,0.3,0.0,0.0,0.0,0.0,0,0,0,0,99,17.131,0.002,4.282,4.284,4.283,4.282,0.3,0,-0.5,-2.1,-1.7,-157.3,202.7,0,0,0,0,0,,,,,
23,2.9,0m 2.9s,0,0,Auto Takeoff,0.3,0.1,1.0,0.3,0.7,0.3,0.0,0.0,0.0,0.0,0,0,0,0,99,17.131,0.002,4.282,4.284,4.283,4.282,0.3,0,-0.5,-2.6,-1.5,-157.3,202.7,0,0,0,0,0,,,,,
24,3,0m 3s,0,0,Auto Takeoff,0.7,0.2,1.3,0.4,0.4,0.2,0.0,0.0,0.0,0.0,0,0,0,0,99,17.131,0.002,4.282,4.284,4.283,4.282,0.2,0,-0.5,-2.9,-1,-157.3,202.7,0,0,0,0,0,,,,,
25,3.1,0m 3.1s,0,0,Auto Takeoff,0.7,0.2,1.3,0.4,0.4,0.2,0.0,0.0,0.0,0.0,0,0,0,0,99,17.131,0.002,4.282,4.284,4.283,4.282,0.2,0,-0.5,-3.1,-1,-157.4,202.6,0,0,0,0,0,,,,,
26,3.2,0m 3.2s,0,0,Auto Takeoff,1.0,0.3,1.6,0.5,0.4,0.2,0.0,0.0,0.0,0.0,0,0,0,0,99,17.131,0.002,4.282,4.284,4.283,4.282,0.2,0,-0.4,-3.5,-1.8,-157.3,202.7,0,0,0,0,0,,,,,
27,3.3,0m 3.3s,0,0,Auto Takeoff,1.0,0.3,1.6,0.5,0.4,0.2,0.0,0.0,0.0,0.0,0,0,0,0,99,17.131,0.002,4.282,4.284,4.283,4.282,0.2,0,-0.4,-3.5,-2,-157.3,202.7,0,0,0,0,0,,,,,
28,3.4,0m 3.4s,0,0,Auto Takeoff,1.3,0.4,2.0,0.6,0.4,0.2,0.0,0.0,0.0,0.0,0,0,0,0,99,17.131,0.002,4.282,4.284,4.283,4.282,0.2,0,-0.4,-3.3,-2,-157.3,202.7,1024,1024,1024,1024,1025,,,,,
29,3.5,0m 3.5s,0,0,Auto Takeoff,1.3,0.4,2.3,0.7,0.4,0.2,0.0,0.0,0.0,0.0,0,0,0,0,99,17.131,0.002,4.282,4.284,4.283,4.282,0.2,0,-0.5,-3.1,-1.8,-157.2,202.8,1024,1024,1024,1024,1024,,,,,
30,3.6,0m 3.6s,0,0,Auto Takeoff,1.6,0.5,2.3,0.7,0.4,0.2,0.0,0.0,0.0,0.0,0,0,0,0,99,17.131,0.002,4.282,4.284,4.283,4.282,0.2,0,-0.5,-3.2,-1.3,-157.3,202.7,1024,1024,1024,1024,1024,,,,,
31,3.7,0m 3.7s,0,0,Auto Takeoff,1.6,0.5,2.6,0.8,0.7,0.3,0.0,0.0,0.0,0.0,0,0,0,0,99,17.045,0.024,4.273,4.266,4.257,4.249,0.3,0,-0.5,-4.6,-2.5,-157.6,202.4,1024,1024,1024,1024,1024,,,,,
32,3.8,0m 3.8s,0,0,Auto Takeoff,2.0,0.6,2.6,0.8,0.4,0.2,0.0,0.0,0.0,0.0,0,0,0,0,99,17.045,0.024,4.273,4.266,4.257,4.249,0.2,0,-0.5,-4.7,-4,-157.5,202.5,1024,1024,1024,1024,1045,,,,,
33,3.9,0m 3.9s,0,0,Auto Takeoff,2.3,0.7,3.0,0.9,0.3,0.1,0.0,0.0,0.0,0.0,0,0,0,0,99,17.045,0.024,4.273,4.266,4.257,4.249,0.1,0.1,-0.5,-4.5,-2.5,-157.4,202.6,1024,1024,1024,1024,1080,,,,,
34,4,0m 4s,0,0,Auto Takeoff,2.3,0.7,3.0,0.9,0.3,0.1,0.0,0.0,0.0,0.0,0,0,0,0,99,17.045,0.024,4.273,4.266,4.257,4.249,0.1,0.1,-0.5,-4.6,-0.9,-157.4,202.6,1024,1024,1024,1024,1113,,,,,
35,4.1,0m 4.1s,0,0,Auto Takeoff,2.6,0.8,3.3,1.0,0.3,0.1,0.0,0.0,0.0,0.0,0,0,0,0,99,17.045,0.024,4.273,4.266,4.257,4.249,0.1,0.1,-0.5,-4.7,-0.2,-157.4,202.6,1024,1024,1024,1024,1220,,,,,
36,4.2,0m 4.2s,0,0,Auto Takeoff,2.6,0.8,3.6,1.1,0.3,0.1,0.0,0.0,0.0,0.0,0,0,0,0,99,17.045,0.024,4.273,4.266,4.257,4.249,0.1,0.1,-0.5,-5.5,0,-157.3,202.7,1024,1024,1024,1024,1224,,,,,
37,4.3,0m 4.3s,0,0,P-GPS,3.0,0.9,3.6,1.1,0.2,0.1,0.0,0.0,0.0,0.0,0,0,0,0,99,17.045,0.024,4.273,4.266,4.257,4.249,0,0.1,-0.5,-5.6,1.1,-157.4,202.6,1024,1024,1024,1024,1232,,,,,
38,4.4,0m 4.4s,0,0,P-GPS,3.0,0.9,3.9,1.2,0.4,0.2,0.0,0.0,0.0,0.0,0,0,8,0,99,17.045,0.024,4.273,4.266,4.257,4.249,0,0.2,-0.4,-5,2.5,-157.5,202.5,1024,1024,1024,1024,1232,,,,,
39,4.5,0m 4.5s,0,0,P-GPS,3.3,1.0,3.9,1.2,0.2,0.1,0.0,0.0,0.0,0.0,0,0,8,0,99,17.045,0.024,4.273,4.266,4.257,4.249,0,0.1,-0.3,-5,2.8,-157.9,202.1,1024,1024,1024,1024,1335,,,,,
40,4.6,0m 4.6s,0,0,P-GPS,3.3,1.0,3.9,1.2,0.2,0.1,0.0,0.0,0.0,0.0,0,0,8,0,99,17.045,0.024,4.273,4.266,4.257,4.249,0,0.1,-0.2,-5.2,2.3,-158.2,201.8,1024,1024,1024,1024,1408,,,,,
41,4.7,0m 4.7s,0,0,P-GPS,3.3,1.0,3.9,1.2,0.2,0.1,0.0,0.0,0.0,0.0,0,0,8,0,99,16.616,0.01,4.156,4.158,4.154,4.148,0,0.1,-0.1,-5.1,2.1,-158.1,201.9,1024,1024,1024,1024,1408,,,,,
42,4.8,0m 4.8s,0,0,P-GPS,3.3,1.0,3.9,1.2,0.4,0.2,0.0,0.0,0.0,0.0,0,0,8,0,99,16.616,0.01,4.156,4.158,4.154,4.148,0,0.2,-0.1,-5.3,3,-158,202,1024,1024,1024,1024,1440,,,,,
43,4.9,0m 4.9s,0,0,P-GPS,3.6,1.1,4.3,1.3,0.2,0.1,0.0,0.0,0.0,0.0,0,0,8,0,99,16.616,0.01,4.156,4.158,4.154,4.148,0,0.1,-0.3,-4.6,3,-158.1,201.9,1024,1024,1024,1024,1447,,,,,
44,5,0m 5s,0,0,P-GPS,3.6,1.1,4.3,1.3,0.0,0.0,0.0,0.0,0.0,0.0,0,0,8,0,99,16.616,0.01,4.156,4.158,4.154,4.148,0,0,-0.5,-4.2,2.3,-158.2,201.8,1024,1024,1024,1024,1448,,,,,
45,5.1,0m 5.1s,0,0,P-GPS,3.9,1.2,4.6,1.4,0.2,0.1,0.0,0.0,0.0,0.0,0,0,8,0,99,16.616,0.01,4.156,4.158,4.154,4.148,0,0.1,-0.7,-4.6,2.6,-158.3,201.7,1024,1024,1024,1024,1471,,,,,
46,5.2,0m 5.2s,0,0,P-GPS,4.3,1.3,4.9,1.5,0.0,0.0,0.0,0.0,0.0,0.0,0,0,8,0,99,16.616,0.01,4.156,4.158,4.154,4.148,0,0,-0.9,-4.9,2.9,-158.2,201.8,1024,1024,1024,1024,1494,,,,,
47,5.3,0m 5.3s,0,0,P-GPS,4.6,1.4,5.2,1.6,0.0,0.0,0.0,0.0,0.0,0.0,0,0,8,0,99,16.616,0.01,4.156,4.158,4.154,4.148,0,0,-1,-5,2.9,-158.4,201.6,1024,1024,1024,1024,1530,,,,,
48,5.4,0m 5.4s,0,0,P-GPS,4.9,1.5,5.6,1.7,0.0,0.0,0.0,0.0,0.0,0.0,0,0,8,0,99,16.616,0.01,4.156,4.158,4.154,4.148,0,0,-1.2,-4.6,3,-158.4,201.6,1024,1024,1024,1024,1555,,,,,
49,5.5,0m 5.5s,0,0,P-GPS,5.2,1.6,5.9,1.8,0.0,0.0,0.0,0.0,0.0,0.0,0,0,8,0,99,16.616,0.01,4.156,4.158,4.154,4.148,0,0,-1.5,-3.9,1.7,-158.3,201.7,1024,1024,1024,1024,1555,,,,,
50,5.6,0m 5.6s,0,0,P-GPS,5.9,1.8,6.6,2.0,0.0,0.0,0.0,0.0,0.0,0.0,0,0,8,0,99,16.616,0.01,4.156,4.158,4.154,4.148,0,0,-1.8,-3.5,0.6,-158.2,201.8,1024,1024,1024,1024,1554,,,,,
51,5.7,0m 5.7s,0,0,P-GPS,6.6,2.0,6.9,2.1,0.2,0.1,0.0,0.0,0.0,0.0,0,0,8,0,99,16.609,0.009,4.153,4.156,4.153,4.147,-0.1,0,-2,-3.2,1.3,-158.1,201.9,1024,1024,1024,1024,1555,,,,,
52,5.8,0m 5.8s,0,0,P-GPS,7.2,2.2,7.5,2.3,0.2,0.1,0.0,0.0,0.0,0.0,0,0,8,0,99,16.609,0.009,4.153,4.156,4.153,4.147,-0.1,0,-2.2,-2.5,2.2,-158.1,201.9,1024,1024,1024,1024,1556,,,,,
53,5.9,0m 5.9s,0,0,P-GPS,7.9,2.4,8.5,2.6,0.2,0.1,0.0,0.0,0.0,0.0,0,0,8,0,99,16.609,0.009,4.153,4.156,4.153,4.147,0,-0.1,-2.3,-2,1.8,-158,202,1024,1024,1024,1024,1566,,,,,
54,6,0m 6s,0,0,P-GPS,8.9,2.7,9.2,2.8,0.2,0.1,0.0,0.0,0.0,0.0,0,0,8,0,99,16.609,0.009,4.153,4.156,4.153,4.147,0,-0.1,-2.3,-2.1,1.5,-158.1,201.9,1024,1024,1024,1024,1573,,,,,
55,6.1,0m 6.1s,0,0,P-GPS,9.5,2.9,9.8,3.0,0.2,0.1,0.0,0.0,0.0,0.0,0,0,8,0,99,16.609,0.009,4.153,4.156,4.153,4.147,0,-0.1,-2.4,-2.4,0.6,-158,202,1024,1024,1024,1024,1586,,,,,
56,6.2,0m 6.2s,0,0,P-GPS,10.2,3.1,10.5,3.2,0.2,0.1,0.0,0.0,0.0,0.0,0,0,8,0,99,16.609,0.009,4.153,4.156,4.153,4.147,0,-0.1,-2.5,-2.4,0.7,-157.8,202.2,1024,1024,1024,1024,1590,,,,,
57,6.3,0m 6.3s,0,0,P-GPS,11.2,3.4,11.5,3.5,0.2,0.1,0.0,0.0,0.0,0.0,0,0,8,0,99,16.609,0.009,4.153,4.156,4.153,4.147,0,-0.1,-2.5,-1.8,0.7,-157.8,202.2,1024,1024,1024,1024,1650,,,,,
58,6.5,0m 6.5s,0,0,P-GPS,12.8,3.9,13.1,4.0,0.4,0.2,0.0,0.0,0.0,0.0,0,0,8,0,99,16.609,0.009,4.153,4.156,4.153,4.147,0,-0.2,-2.9,0,-0.2,-157.7,202.3,1024,1024,1024,1024,1684,,,,,
59,6.6,0m 6.6s,0,0,P-GPS,13.8,4.2,14.1,4.3,0.4,0.2,0.0,0.0,0.0,0.0,0,0,8,0,99,16.609,0.009,4.153,4.156,4.153,4.147,0,-0.2,-3.2,0.1,-1.3,-157.7,202.3,1024,1024,1024,1024,1684,,,,,
60,6.7,0m 6.7s,0,0,P-GPS,15.1,4.6,15.4,4.7,0.4,0.2,0.0,0.0,0.0,0.0,0,0,8,0,99,16.609,0.009,4.153,4.156,4.153,4.147,0,-0.2,-3.7,0,-3,-157.7,202.3,1024,1024,1024,1024,1684,,,,,
61,6.8,0m 6.8s,0,0,P-GPS,16.4,5.0,16.4,5.0,0.2,0.1,0.0,0.0,0.0,0.0,0,0,8,0,99,16.609,0.009,4.153,4.156,4.153,4.147,0,-0.1,-4.1,-2.8,-4.5,-157.6,202.4,1024,1024,1024,1024,1684,,,,,
62,6.9,0m 6.9s,0,0,P-GPS,17.7,5.4,17.7,5.4,0.0,0.0,0.0,0.0,0.0,0.0,0,0,8,0,99,16.609,0.009,4.153,4.156,4.153,4.147,0,0,-4.5,-3,-3,-157.8,202.2,1024,1024,1024,1024,1684,,,,,
63,7,0m 7s,0,0,P-GPS,19.4,5.9,19.4,5.9,0.3,0.1,0.0,0.0,0.0,0.0,0,0,8,0,99,16.609,0.009,4.153,4.156,4.153,4.147,-0.1,-0.1,-4.7,-1.1,0.3,-157.9,202.1,1024,1024,1024,1024,1684,,,,,
64,7.1,0m 7.1s,0,0,P-GPS,21.0,6.4,21.0,6.4,0.5,0.2,0.0,0.0,0.0,0.0,0,0,8,0,99,16.609,0.009,4.153,4.156,4.153,4.147,-0.1,-0.2,-4.8,-2.6,-0.6,-157.8,202.2,1024,1024,1024,1024,1684,,,,,
65,7.2,0m 7.2s,0,0,P-GPS,22.6,6.9,22.3,6.8,0.7,0.3,0.0,0.0,0.0,0.0,0,0,8,0,99,16.609,0.009,4.153,4.156,4.153,4.147,-0.1,-0.3,-5,-1.8,-0.6,-157.5,202.5,1024,1024,1024,1024,1684,,,,,
66,7.3,0m 7.3s,0,0,P-GPS,24.3,7.4,24.0,7.3,0.9,0.4,0.0,0.0,0.0,0.0,0,0,8,0,99,16.609,0.009,4.153,4.156,4.153,4.147,-0.1,-0.4,-5,-0.2,-1.1,-157.4,202.6,1024,1024,1024,1024,1684,,,,,
67,7.4,0m 7.4s,0,0,P-GPS,25.9,7.9,25.6,7.8,1.1,0.5,0.0,0.0,0.0,0.0,0,0,8,0,99,16.609,0.009,4.153,4.156,4.153,4.147,-0.1,-0.5,-5.1,4.2,-6.4,-157.7,202.3,1024,1024,1024,1024,1684,,,,,
68,7.5,0m 7.5s,0,0,P-GPS,27.6,8.4,27.2,8.3,0.7,0.3,0.0,0.0,0.0,0.0,0,0,8,0,99,16.609,0.009,4.153,4.156,4.153,4.147,0,-0.3,-5.1,4.8,-7.4,-158.1,201.9,1024,1024,1024,1024,1684,,,,,
69,7.6,0m 7.6s,0,0,P-GPS,29.2,8.9,28.9,8.8,0.5,0.2,0.0,0.0,0.0,0.0,0,0,8,0,99,16.609,0.009,4.153,4.156,4.153,4.147,0.1,-0.2,-5.1,0.8,-6.1,-157.7,202.3,1024,1024,1024,1024,1684,,,,,
70,7.7,0m 7.7s,0,0,P-GPS,30.8,9.4,30.5,9.3,0.5,0.2,0.0,0.0,0.0,0.0,0,0,8,0,99,16.4,0.011,4.101,4.106,4.098,4.095,0.1,-0.2,-5.1,-1.9,-7.8,-157.4,202.6,1024,1024,1024,1024,1680,,,,,
71,7.8,0m 7.8s,0,0,P-GPS,32.5,9.9,32.2,9.8,0.5,0.2,0.0,0.0,0.0,0.0,0,0,8,0,99,16.4,0.011,4.101,4.106,4.098,4.095,0.1,-0.2,-5,-3.5,-7.6,-157.1,202.9,1024,1024,1024,1024,1684,,,,,
72,7.9,0m 7.9s,0,0,P-GPS,34.1,10.4,33.8,10.3,0.5,0.2,0.0,0.0,0.0,0.0,0,0,8,0,99,16.4,0.011,4.101,4.106,4.098,4.095,0.1,-0.2,-5,-3.4,-6.7,-157.1,202.9,1024,1024,1024,1024,1684,,,,,
73,8,0m 8s,-23.75900705,-46.59811576,P-GPS,35.8,10.9,35.4,10.8,0.5,0.2,0.0,0.0,0.0,0.0,0,0,8,0,99,16.4,0.011,4.101,4.106,4.098,4.095,0.1,-0.2,-5,-2.2,-6.1,-157.3,202.7,1024,1024,1024,1024,1678,,,,,
74,8.1,0m 8.1s,-23.75900697,-46.59811601,P-GPS,37.4,11.4,36.7,11.2,0.5,0.2,0.0,0.0,0.0,0.0,0,0,8,0,99,16.4,0.011,4.101,4.106,4.098,4.095,0.1,-0.2,-5,-1.9,-7.6,-157.4,202.6,1024,1024,1024,1024,1672,,,,,
75,8.2,0m 8.2s,-23.7590069,-46.59811623,P-GPS,39.0,11.9,38.4,11.7,0.5,0.2,0.0,0.0,0.0,0.0,0,0,8,0,99,16.4,0.011,4.101,4.106,4.098,4.095,0.2,-0.1,-4.9,-1.2,-9.5,-157.6,202.4,1024,1024,1024,1024,1671,,,,,
76,8.3,0m 8.3s,-23.75900681,-46.59811637,P-GPS,40.7,12.4,40.0,12.2,0.4,0.2,0.0,0.0,0.0,0.0,0,0,8,0,99,16.4,0.011,4.101,4.106,4.098,4.095,0.2,0,-4.8,-2,-8.7,-157.5,202.5,1024,1024,1024,1024,1682,,,,,
77,8.4,0m 8.4s,-23.75900669,-46.59811646,P-GPS,42.3,12.9,41.3,12.6,0.4,0.2,0.0,0.0,0.0,0.0,0,0,8,0,99,16.4,0.011,4.101,4.106,4.098,4.095,0.2,0,-4.8,-4.1,-9,-157.2,202.8,1024,1024,1024,1024,1684,,,,,
78,8.5,0m 8.5s,-23.75900659,-46.59811654,P-GPS,44.0,13.4,43.0,13.1,0.4,0.2,0.0,0.0,0.0,0.0,0,0,8,0,99,16.4,0.011,4.101,4.106,4.098,4.095,0.2,0,-4.7,-5.5,-8.5,-156.9,203.1,1024,1024,1024,1024,1684,,,,,
79,8.6,0m 8.6s,-23.75900649,-46.59811654,P-GPS,45.6,13.9,44.3,13.5,0.2,0.1,0.0,0.0,0.0,0.0,0,0,8,0,99,16.4,0.011,4.101,4.106,4.098,4.095,0.1,0,-4.7,-4.3,-7.2,-157.3,202.7,1024,1024,1024,1024,1684,,,,,
80,8.7,0m 8.7s,-23.7590064,-46.59811656,P-GPS,47.2,14.4,45.9,14.0,0.4,0.2,0.0,0.0,0.0,0.0,0,0,8,0,99,16.178,0.028,4.029,4.049,4.057,4.043,0.2,0,-4.8,-4.8,-7,-157.2,202.8,1024,1024,1024,1024,1684,,,,,
81,8.8,0m 8.8s,-23.75900632,-46.59811659,P-GPS,48.9,14.9,47.6,14.5,0.4,0.2,0.0,0.0,0.0,0.0,0,0,8,0,99,16.178,0.028,4.029,4.049,4.057,4.043,0.2,0,-5,-5.7,-6.3,-157.1,202.9,1024,1024,1024,1024,1663,,,,,
82,8.9,0m 8.9s,-23.75900626,-46.59811672,P-GPS,50.5,15.4,48.9,14.9,0.4,0.2,0.0,0.0,0.0,0.0,0,0,8,0,99,16.178,0.028,4.029,4.049,4.057,4.043,0.2,0,-5,-6.3,-8.4,-156.9,203.1,1024,1024,1024,1024,1684,,,,,
83,9,0m 9s,-23.75900619,-46.59811691,P-GPS,52.2,15.9,50.5,15.4,0.5,0.2,0.0,0.0,0.0,0.0,0,0,8,0,99,16.178,0.028,4.029,4.049,4.057,4.043,0.2,-0.1,-5,-6.1,-10.2,-156.7,203.3,1024,1024,1024,1024,1684,,,,,
84,9.1,0m 9.1s,-23.75900617,-46.59811712,P-GPS,53.8,16.4,52.2,15.9,0.2,0.1,0.0,0.0,0.0,0.0,0,0,8,0,99,16.178,0.028,4.029,4.049,4.057,4.043,0.1,0,-4.9,-5.3,-10.4,-156.9,203.1,1024,1024,1024,1024,1684,,,,,
85,9.2,0m 9.2s,-23.75900617,-46.59811738,P-GPS,55.4,16.9,53.8,16.4,0.2,0.1,0.0,0.0,0.0,0.0,0,0,8,1,99,16.178,0.028,4.029,4.049,4.057,4.043,0.1,0,-5.1,-4.8,-9.7,-157,203,1024,1024,1024,1024,1684,,,,,
86,9.3,0m 9.3s,-23.7590062,-46.59811765,P-GPS,57.4,17.5,55.1,16.8,0.3,0.1,0.0,0.0,0.0,0.0,0,0,8,1,99,16.178,0.028,4.029,4.049,4.057,4.043,0.1,-0.1,-5.1,-4.5,-9.8,-157.1,202.9,1024,1024,1024,1024,1680,,,,,
87,9.4,0m 9.4s,-23.75900622,-46.59811795,P-GPS,59.1,18.0,,,0.3,0.1,0.0,0.0,0.0,0.0,0,0,8,4,99,16.178,0.028,4.029,4.049,4.057,4.043,0.1,-0.1,-5.1,-4.9,-10.7,-157.1,202.9,1024,1024,1024,1024,1684,,,,,
88,9.5,0m 9.5s,-23.75900626,-46.59811821,P-GPS,60.7,18.5,,,0.3,0.1,0.0,0.0,0.0,0.0,0,0,8,4,99,16.178,0.028,4.029,4.049,4.057,4.043,0.1,-0.1,-5.1,-5.6,-11.1,-156.9,203.1,1024,1024,1024,1024,1665,,,,,
89,9.6,0m 9.6s,-23.75900624,-46.59811847,P-GPS,62.7,19.1,,,0.3,0.1,0.0,0.0,0.0,0.0,0,0,8,4,99,16.178,0.028,4.029,4.049,4.057,4.043,0.1,-0.1,-5,-5.6,-11.7,-156.9,203.1,1024,1024,1024,1024,1601,,,,,
90,9.7,0m 9.7s,-23.75900625,-46.59811869,P-GPS,64.3,19.6,,,0.2,0.1,0.0,0.0,0.3,0.1,-23.75900622,-46.59811793,8,4,99,16.217,0.036,4.065,4.069,4.05,4.033,0,-0.1,-5,-5.9,-11.6,-156.8,203.2,1024,1024,1024,1024,1497,,,Home Point recorded. Return-to-Home Altitude:80M,,
91,9.8,0m 9.8s,-23.75900621,-46.5981189,P-GPS,65.9,20.1,,,0.2,0.1,0.0,0.0,0.0,0.0,-23.75900622,-46.59811793,8,4,99,16.217,0.036,4.065,4.069,4.05,4.033,0,-0.1,-4.7,-6.5,-12.9,-156.8,203.2,1024,1024,1024,1024,1361,,,,,
92,9.9,0m 9.9s,-23.75900616,-46.59811913,P-GPS,67.6,20.6,,,0.5,0.2,0.0,0.0,0.4,0.1,-23.75900622,-46.59811793,8,4,99,16.217,0.036,4.065,4.069,4.05,4.033,0.1,-0.2,-4.1,-7.2,-15.1,-156.6,203.4,1024,1024,1024,1024,1155,,,,,
93,10,0m 10s,-23.75900604,-46.59811941,P-GPS,68.9,21.0,,,0.5,0.2,0.0,0.0,0.5,0.2,-23.75900622,-46.59811793,8,4,99,16.217,0.036,4.065,4.069,4.05,4.033,0.1,-0.2,-3.4,-7.4,-16.1,-156.4,203.6,1024,1024,1024,1024,1024,,,,,
94,10.1,0m 10.1s,-23.75900592,-46.59811971,P-GPS,69.9,21.3,,,0.5,0.2,0.0,0.0,0.6,0.2,-23.75900622,-46.59811793,8,4,99,16.217,0.036,4.065,4.069,4.05,4.033,0.1,-0.2,-2.7,-7.1,-16.1,-156.5,203.5,1024,1024,1024,1024,1024,,,,,
95,10.2,0m 10.2s,-23.75900575,-46.59812004,P-GPS,70.5,21.5,,,0.5,0.2,0.0,0.0,0.7,0.2,-23.75900622,-46.59811793,8,4,99,16.217,0.036,4.065,4.069,4.05,4.033,0.1,-0.2,-2.1,-6.8,-16.6,-156.6,203.4,1024,1024,1024,1024,1024,,,,,
96,10.3,0m 10.3s,-23.75900556,-46.59812038,P-GPS,71.2,21.7,,,0.6,0.3,1.1,0.5,0.9,0.3,-23.75900622,-46.59811793,8,4,99,16.217,0.036,4.065,4.069,4.05,4.033,0.2,-0.2,-1.4,-7.1,-17,-156.6,203.4,1024,1024,1024,1024,1024,,,,,
97,10.4,0m 10.4s,-23.7590053,-46.59812067,P-GPS,71.9,21.9,,,0.6,0.3,1.1,0.5,0.9,0.3,-23.75900622,-46.59811793,8,4,99,16.217,0.036,4.065,4.069,4.05,4.033,0.2,-0.2,-0.9,-6.6,-16.3,-156.6,203.4,1024,1024,1024,1024,1024,,,,,
98,10.5,0m 10.5s,-23.75900506,-46.59812092,P-GPS,71.9,21.9,,,0.5,0.2,0.0,0.0,1.1,0.3,-23.75900622,-46.59811793,8,4,99,16.217,0.036,4.065,4.069,4.05,4.033,0.2,-0.1,-0.5,-6.7,-15.7,-156.7,203.3,1024,1024,1024,1024,1024,,,,,
99,10.6,0m 10.6s,-23.75900478,-46.59812109,P-GPS,72.2,22.0,,,0.5,0.2,1.1,0.5,1.2,0.4,-23.75900622,-46.59811793,8,4,99,16.217,0.036,4.065,4.069,4.05,4.033,0.2,-0.1,-0.4,-7.2,-15.3,-156.5,203.5,1024,1024,1024,1024,1024,,,,,
100,10.7,0m 10.7s,-23.75900454,-46.59812123,P-GPS,72.5,22.1,,,0.4,0.2,0.0,0.0,1.3,0.4,-23.75900622,-46.59811793,8,4,99,16.217,0.036,4.065,4.069,4.05,4.033,0.2,0,-0.3,-7.7,-14.9,-156.5,203.5,1024,1024,1024,1024,1024,,,,,
101,10.8,0m 10.8s,-23.7590043,-46.59812128,P-GPS,72.5,22.1,,,0.2,0.1,1.1,0.5,1.3,0.4,-23.75900622,-46.59811793,8,4,99,16.217,0.036,4.065,4.069,4.05,4.033,0.1,0,-0.3,-8.1,-14.2,-156.4,203.6,1024,1024,1024,1024,1024,,,,,
102,10.9,0m 10.9s,-23.75900413,-46.59812132,P-GPS,72.8,22.2,,,0.2,0.1,0.0,0.0,1.4,0.4,-23.75900622,-46.59811793,8,4,99,16.217,0.036,4.065,4.069,4.05,4.033,0.1,0,-0.1,-8.4,-13.9,-156.4,203.6,1024,1024,1024,1024,1024,,,,,
103,11,0m 11s,-23.75900397,-46.59812133,P-GPS,72.8,22.2,,,0.3,0.1,0.0,0.0,1.4,0.4,-23.75900622,-46.59811793,8,4,99,16.217,0.036,4.065,4.069,4.05,4.033,0.1,0.1,-0.2,-8.6,-13.2,-156.4,203.6,1024,1024,1024,1024,1024,,,,,
104,11.1,0m 11.1s,-23.75900389,-46.59812134,P-GPS,73.2,22.3,,,0.2,0.1,0.0,0.0,1.5,0.4,-23.75900622,-46.59811793,8,4,99,16.217,0.036,4.065,4.069,4.05,4.033,0,0.1,-0.2,-8.8,-12.7,-156.4,203.6,1024,1024,1024,1024,1024,,,,,
105,11.2,0m 11.2s,-23.7590038,-46.59812132,P-GPS,73.2,22.3,,,0.2,0.1,0.0,0.0,1.4,0.4,-23.75900622,-46.59811793,8,4,99,16.217,0.036,4.065,4.069,4.05,4.033,0,0.1,-0.1,-8.9,-12.4,-156.5,203.5,1024,1024,1024,1024,1024,,,,,
106,11.3,0m 11.3s,-23.75900377,-46.59812131,P-GPS,73.2,22.3,,,0.2,0.1,0.0,0.0,1.5,0.4,-23.75900622,-46.59811793,8,4,99,16.217,0.036,4.065,4.069,4.05,4.033,0,0.1,-0.1,-9,-11.9,-156.5,203.5,1024,1024,1024,1024,1024,,,,,
107,11.4,0m 11.4s,-23.75900382,-46.59812136,P-GPS,73.5,22.4,,,0.4,0.2,0.0,0.0,1.5,0.4,-23.75900622,-46.59811793,8,4,99,16.217,0.036,4.065,4.069,4.05,4.033,0,0.2,-0.1,-8.6,-11.4,-156.6,203.4,1024,1024,1024,1024,1024,,,,,
108,11.5,0m 11.5s,-23.75900392,-46.59812143,P-GPS,73.5,22.4,,,0.2,0.1,0.0,0.0,1.4,0.4,-23.75900622,-46.59811793,8,4,99,16.217,0.036,4.065,4.069,4.05,4.033,0,0.1,0,-8.4,-11.2,-156.7,203.3,1024,1024,1024,1024,1024,,,,,
109,11.6,0m 11.6s,-23.75900404,-46.59812149,P-GPS,73.5,22.4,,,0.4,0.2,0.0,0.0,1.5,0.4,-23.75900622,-46.59811793,8,4,99,16.217,0.036,4.065,4.069,4.05,4.033,0,0.2,0,-8.3,-10.9,-156.6,203.4,1024,1024,1024,1024,1024,,,,,
110,11.7,0m 11.7s,-23.7590042,-46.59812154,P-GPS,73.5,22.4,,,0.3,0.1,0.0,0.0,1.4,0.4,-23.75900622,-46.59811793,8,4,99,16.538,0.019,4.121,4.14,4.137,4.14,-0.1,0.1,0,-8.7,-10.8,-156.6,203.4,1024,1024,1024,1024,1024,,,,,
111,11.8,0m 11.8s,-23.75900443,-46.59812168,P-GPS,73.5,22.4,,,0.3,0.1,0.0,0.0,1.4,0.4,-23.75900622,-46.59811793,8,4,99,16.538,0.019,4.121,4.14,4.137,4.14,-0.1,0.1,0,-7.3,-10.3,-156.9,203.1,1024,1024,1024,1024,1024,,,,,
112,11.9,0m 11.9s,-23.75900467,-46.59812182,P-GPS,73.5,22.4,,,0.3,0.1,0.0,0.0,1.4,0.4,-23.75900622,-46.59811793,8,4,99,16.538,0.019,4.121,4.14,4.137,4.14,-0.1,0.1,0,-6.8,-10.3,-157.2,202.8,1024,1024,1024,1024,1024,,,,,
113,12,0m 12s,-23.75900492,-46.59812197,P-GPS,73.5,22.4,,,0.3,0.1,1.1,0.5,1.4,0.4,-23.75900622,-46.59811793,8,4,99,16.538,0.019,4.121,4.14,4.137,4.14,-0.1,0.1,0.1,-7.4,-10.3,-157.1,202.9,1024,1024,1024,1024,1024,,,,,
114,12.1,0m 12.1s,-23.75900517,-46.59812206,P-GPS,73.5,22.4,,,0.5,0.2,0.0,0.0,1.4,0.4,-23.75900622,-46.59811793,8,4,99,16.538,0.019,4.121,4.14,4.137,4.14,-0.1,0.2,0.2,-8.1,-9.1,-156.9,203.1,1024,1024,1024,1024,1024,,,,,
115,12.2,0m 12.2s,-23.75900539,-46.59812214,P-GPS,73.2,22.3,,,0.3,0.1,1.1,0.5,1.5,0.4,-23.75900622,-46.59811793,8,4,99,16.538,0.019,4.121,4.14,4.137,4.14,-0.1,0.1,0.2,-7.9,-8.9,-157,203,1024,1024,1024,1024,1024,,,,,
116,12.3,0m 12.3s,-23.75900561,-46.59812223,P-GPS,73.2,22.3,,,0.3,0.1,0.0,0.0,1.5,0.4,-23.75900622,-46.59811793,8,4,99,16.538,0.019,4.121,4.14,4.137,4.14,-0.1,0.1,0.3,-7.5,-9.3,-156.9,203.1,1024,1024,1024,1024,1024,,,,,
117,12.4,0m 12.4s,-23.75900585,-46.59812231,P-GPS,72.8,22.2,,,0.5,0.2,1.1,0.5,1.5,0.5,-23.75900622,-46.59811793,8,4,99,16.538,0.019,4.121,4.14,4.137,4.14,-0.2,0.1,0.3,-6.8,-8.6,-157.1,202.9,1024,1024,1024,1024,1024,,,,,
118,12.5,0m 12.5s,-23.7590061,-46.59812236,P-GPS,72.5,22.1,,,0.3,0.1,0.0,0.0,1.5,0.5,-23.75900622,-46.59811793,8,4,99,16.538,0.019,4.121,4.14,4.137,4.14,-0.1,0.1,0.3,-7,-8.1,-157.1,202.9,1024,1024,1024,1024,1024,,,,,
119,12.6,0m 12.6s,-23.75900634,-46.59812246,P-GPS,72.5,22.1,,,0.3,0.1,0.0,0.0,1.5,0.5,-23.75900622,-46.59811793,8,4,99,16.538,0.019,4.121,4.14,4.137,4.14,-0.1,0.1,0.2,-7.5,-7.7,-157.1,202.9,1024,1024,1024,1024,1024,,,,,
120,12.7,0m 12.7s,-23.75900659,-46.59812258,P-GPS,72.2,22.0,,,0.3,0.1,1.1,0.5,1.6,0.5,-23.75900622,-46.59811793,8,4,98,16.51,0.011,4.128,4.133,4.127,4.122,-0.1,0.1,0.2,-7.3,-7.9,-157,203,1024,1024,1024,1024,1024,,,,,
121,12.8,0m 12.8s,-23.75900682,-46.59812274,P-GPS,72.2,22.0,,,0.2,0.1,0.0,0.0,1.6,0.5,-23.75900622,-46.59811793,8,4,98,16.51,0.011,4.128,4.133,4.127,4.122,-0.1,0,0.2,-7.2,-8.4,-157,203,1024,1024,1024,1024,1024,,,,,
122,12.9,0m 12.9s,-23.75900705,-46.59812288,P-GPS,71.9,21.9,,,0.2,0.1,0.0,0.0,1.7,0.5,-23.75900622,-46.59811793,8,4,98,16.51,0.011,4.128,4.133,4.127,4.122,-0.1,0,0.1,-7.6,-8.7,-156.9,203.1,1024,1024,1024,1024,1024,,,,,
123,13,0m 13s,-23.75900731,-46.59812312,P-GPS,71.9,21.9,,,0.2,0.1,0.0,0.0,1.8,0.5,-23.75900622,-46.59811793,8,4,98,16.51,0.011,4.128,4.133,4.127,4.122,-0.1,0,0.1,-7.1,-9.5,-156.9,203.1,1024,1024,1024,1024,1024,,,,,
124,13.1,0m 13.1s,-23.75900758,-46.59812333,P-GPS,71.9,21.9,,,0.4,0.2,0.0,0.0,1.9,0.6,-23.75900622,-46.59811793,8,4,98,16.51,0.011,4.128,4.133,4.127,4.122,-0.2,0,0,-6.7,-9.7,-157,203,1024,1024,1024,1024,1069,,,,,
125,13.2,0m 13.2s,-23.75900788,-46.59812357,P-GPS,71.9,21.9,,,0.4,0.2,0.0,0.0,2.0,0.6,-23.75900622,-46.59811793,8,4,98,16.51,0.011,4.128,4.133,4.127,4.122,-0.2,0,0,-6.3,-9,-156.9,203.1,1024,1024,1024,1024,1254,,,,,
126,13.3,0m 13.3s,-23.75900816,-46.59812379,P-GPS,71.9,21.9,,,0.2,0.1,1.5,0.7,2.1,0.6,-23.75900622,-46.59811793,8,4,98,16.51,0.011,4.128,4.133,4.127,4.122,-0.1,0,-0.2,-5.8,-10.6,-157,203,1024,1024,1024,1024,1414,,,,,
127,13.4,0m 13.4s,-23.75900841,-46.59812408,P-GPS,72.2,22.0,,,0.2,0.1,0.0,0.0,2.2,0.7,-23.75900622,-46.59811793,8,4,98,16.51,0.011,4.128,4.133,4.127,4.122,-0.1,0,-0.2,-6.5,-11.4,-156.8,203.2,1024,1024,1024,1024,1470,,,,,
128,13.5,0m 13.5s,-23.75900868,-46.59812431,P-GPS,72.2,22.0,,,0.4,0.2,1.1,0.5,2.3,0.7,-23.75900622,-46.59811793,8,4,98,16.51,0.011,4.128,4.133,4.127,4.122,-0.2,0,-0.5,-6.2,-9.4,-156.8,203.2,1024,1024,1024,1024,1521,,,,,
129,13.6,0m 13.6s,-23.75900894,-46.59812462,P-GPS,72.5,22.1,,,0.4,0.2,1.1,0.5,2.5,0.7,-23.75900622,-46.59811793,8,4,98,16.51,0.011,4.128,4.133,4.127,4.122,-0.2,0,-0.7,-3.7,-10.2,-157.1,202.9,1024,1024,1024,1024,1605,,,,,
130,13.7,0m 13.7s,-23.75900916,-46.59812487,P-GPS,72.8,22.2,,,0.2,0.1,0.0,0.0,2.6,0.8,-23.75900622,-46.59811793,8,4,98,16.418,0.021,4.111,4.113,4.102,4.092,-0.1,0,-1,-2.9,-10.8,-157.5,202.5,1024,1024,1024,1024,1615,,,,,
131,13.8,0m 13.8s,-23.75900937,-46.5981251,P-GPS,73.5,22.4,,,0.2,0.1,0.0,0.0,2.7,0.8,-23.75900622,-46.59811793,8,4,98,16.418,0.021,4.111,4.113,4.102,4.092,-0.1,0,-1.5,-3.5,-8.6,-157.1,202.9,1024,1024,1024,1024,1573,,,,,
132,13.9,0m 13.9s,-23.75900959,-46.59812522,P-GPS,74.1,22.6,,,0.2,0.1,1.1,0.5,2.7,0.8,-23.75900622,-46.59811793,8,4,98,16.418,0.021,4.111,4.113,4.102,4.092,-0.1,0,-2.1,-4.7,-6.2,-156.8,203.2,1024,1024,1024,1024,1557,,,,,
133,14,0m 14s,-23.75900981,-46.59812543,P-GPS,74.8,22.8,,,0.4,0.2,0.0,0.0,2.8,0.9,-23.75900622,-46.59811793,8,4,98,16.418,0.021,4.111,4.113,4.102,4.092,-0.2,0,-2.3,-6,-11.1,-156.6,203.4,1024,1024,1024,1024,1601,,,,,
134,14.1,0m 14.1s,-23.75901007,-46.59812562,P-GPS,75.5,23.0,,,0.7,0.3,1.1,0.5,2.9,0.9,-23.75900622,-46.59811793,8,4,98,16.418,0.021,4.111,4.113,4.102,4.092,-0.3,0,-2.2,-5.4,-13.9,-156.4,203.6,1024,1024,1024,1024,1621,,,,,
135,14.2,0m 14.2s,-23.7590104,-46.59812582,P-GPS,76.4,23.3,,,0.7,0.3,0.0,0.0,3.0,0.9,-23.75900622,-46.59811793,8,4,98,16.418,0.021,4.111,4.113,4.102,4.092,-0.3,0,-2.6,-2.9,-10.8,-156.7,203.3,1024,1024,1024,1024,1629,,,,,
136,14.3,0m 14.3s,-23.75901076,-46.59812596,P-GPS,77.4,23.6,,,0.9,0.4,0.0,0.0,3.1,1.0,-23.75900622,-46.59811793,8,4,98,16.418,0.021,4.111,4.113,4.102,4.092,-0.4,0,-3,0,-9.2,-157.2,202.8,1024,1024,1024,1024,1651,,,,,
137,14.4,0m 14.4s,-23.75901106,-46.59812609,P-GPS,78.4,23.9,,,0.4,0.2,0.0,0.0,3.2,1.0,-23.75900622,-46.59811793,11,4,98,16.418,0.021,4.111,4.113,4.102,4.092,-0.2,0,-3.3,2.3,-10.5,-157.8,202.2,1024,1024,1024,1024,1683,,,,,
138,14.5,0m 14.5s,-23.75901123,-46.59812611,P-GPS,79.7,24.3,,,0.2,0.1,0.0,0.0,3.3,1.0,-23.75900622,-46.59811793,11,4,98,16.418,0.021,4.111,4.113,4.102,4.092,-0.1,0,-3.4,1.3,-12.1,-157.7,202.3,1024,1024,1024,1024,1684,,,,,
139,14.6,0m 14.6s,-23.75901121,-46.59812598,P-GPS,80.7,24.6,,,0.3,0.1,0.0,0.0,3.3,1.0,-23.75900622,-46.59811793,11,4,98,16.418,0.021,4.111,4.113,4.102,4.092,-0.1,0.1,-3.7,-3,-10,-156.7,203.3,1024,1024,1024,1024,1684,,,,,
140,14.7,0m 14.7s,-23.75901122,-46.59812577,P-GPS,82.3,25.1,,,0.2,0.1,0.0,0.0,3.2,1.0,-23.75900622,-46.59811793,11,4,98,16.418,0.021,4.111,4.113,4.102,4.092,-0.1,0,-4.2,-2.7,-8.1,-156.7,203.3,1024,1024,1024,1024,1671,,,,,
141,14.8,0m 14.8s,-23.75901114,-46.5981256,P-GPS,83.7,25.5,,,0.2,0.1,0.0,0.0,3.1,1.0,-23.75900622,-46.59811793,11,4,98,16.418,0.021,4.111,4.113,4.102,4.092,-0.1,0,-4.6,-1.1,-11,-157.2,202.8,1024,1024,1024,1024,1676,,,,,
142,14.9,0m 14.9s,-23.75901102,-46.5981254,P-GPS,85.3,26.0,,,0.0,0.0,0.0,0.0,3.1,0.9,-23.75900622,-46.59811793,11,4,98,16.418,0.021,4.111,4.113,4.102,4.092,0,0,-4.7,-2.2,-14,-156.8,203.2,1024,1024,1024,1024,1665,,,,,
143,15,0m 15s,-23.7590108,-46.59812521,P-GPS,86.9,26.5,,,0.2,0.1,0.0,0.0,3.0,0.9,-23.75900622,-46.59811793,11,4,98,16.418,0.021,4.111,4.113,4.102,4.092,0,0.1,-4.9,-3,-13,-156.8,203.2,1024,1024,1024,1024,1643,,,,,
144,15.1,0m 15.1s,-23.7590106,-46.59812501,P-GPS,88.9,27.1,,,0.0,0.0,0.0,0.0,2.9,0.9,-23.75900622,-46.59811793,11,4,98,16.418,0.021,4.111,4.113,4.102,4.092,0,0,-4.9,-3.6,-13.3,-156.8,203.2,1024,1024,1024,1024,1645,,,,,
145,15.3,0m 15.3s,-23.75901017,-46.59812477,P-GPS,91.9,28.0,,,0.0,0.0,0.7,0.3,2.7,0.8,-23.75900622,-46.59811793,11,4,98,16.418,0.021,4.111,4.113,4.102,4.092,0,0,-4.2,-3.6,-15,-156.7,203.3,1024,1024,1024,1024,1563,,,,,
146,15.4,0m 15.4s,-23.75900996,-46.59812472,P-GPS,93.2,28.4,,,0.0,0.0,0.0,0.0,2.6,0.8,-23.75900622,-46.59811793,11,4,98,16.418,0.021,4.111,4.113,4.102,4.092,0,0,-4.2,-2.7,-13.3,-157,203,1024,1024,1024,1024,1472,,,,,
147,15.5,0m 15.5s,-23.75900976,-46.59812463,P-GPS,94.5,28.8,,,0.0,0.0,0.0,0.0,2.6,0.8,-23.75900622,-46.59811793,11,4,98,16.418,0.021,4.111,4.113,4.102,4.092,0,0,-3.8,-3.2,-14.8,-157,203,1024,1024,1024,1024,1349,,,,,
148,15.6,0m 15.6s,-23.75900951,-46.59812471,P-GPS,95.5,29.1,,,0.0,0.0,0.0,0.0,2.6,0.8,-23.75900622,-46.59811793,11,4,98,16.418,0.021,4.111,4.113,4.102,4.092,0,0,-3.2,-4.3,-17.5,-156.6,203.4,1024,1024,1024,1024,1250,,,,,
149,15.7,0m 15.7s,-23.75900926,-46.59812477,P-GPS,96.1,29.3,,,0.2,0.1,0.0,0.0,2.5,0.8,-23.75900622,-46.59811793,11,4,98,16.148,0.04,4.017,4.057,4.055,4.019,0.1,0,-2.4,-4.3,-17.9,-156.7,203.3,1024,1024,1024,1024,1201,,,,,
150,15.8,0m 15.8s,-23.75900898,-46.59812497,P-GPS,96.8,29.5,,,0.2,0.1,0.0,0.0,2.6,0.8,-23.75900622,-46.59811793,11,4,98,16.148,0.04,4.017,4.057,4.055,4.019,0.1,0,-1.6,-4,-17.9,-156.7,203.3,1024,1024,1024,1024,1108,,,,,
151,15.9,0m 15.9s,-23.75900871,-46.5981251,P-GPS,96.8,29.5,,,0.2,0.1,1.1,0.5,2.5,0.8,-23.75900622,-46.59811793,11,4,98,16.148,0.04,4.017,4.057,4.055,4.019,0.1,0,-0.8,-3.7,-19.1,-156.8,203.2,1024,1024,1024,1024,1024,,,,,
152,16,0m 16s,-23.75900847,-46.59812533,P-GPS,96.8,29.5,,,0.2,0.1,1.1,0.5,2.6,0.8,-23.75900622,-46.59811793,11,4,98,16.148,0.04,4.017,4.057,4.055,4.019,0.1,0,-0.5,-3.1,-17.4,-156.9,203.1,1024,1024,1024,1024,1024,,,,,
153,16.1,0m 16.1s,-23.75900827,-46.59812543,P-GPS,96.8,29.5,,,0.2,0.1,0.0,0.0,2.6,0.8,-23.75900622,-46.59811793,11,4,98,16.148,0.04,4.017,4.057,4.055,4.019,0.1,0,-0.3,-2.5,-15.7,-157.2,202.8,1024,1024,1024,1024,1024,,,,,
154,16.2,0m 16.2s,-23.75900809,-46.59812555,P-GPS,97.1,29.6,,,0.2,0.1,0.0,0.0,2.6,0.8,-23.75900622,-46.59811793,11,4,98,16.148,0.04,4.017,4.057,4.055,4.019,0.1,0,-0.2,-3.2,-15.5,-157.3,202.7,1024,1024,1024,1024,1024,,,,,
155,16.3,0m 16.3s,-23.75900791,-46.59812556,P-GPS,97.1,29.6,,,0.3,0.1,0.0,0.0,2.6,0.8,-23.75900622,-46.59811793,11,4,98,16.148,0.04,4.017,4.057,4.055,4.019,0.1,0.1,-0.1,-3.6,-14.6,-157,203,1024,1024,1024,1024,1024,,,,,
156,16.4,0m 16.4s,-23.75900772,-46.59812552,P-GPS,97.1,29.6,,,0.5,0.2,1.1,0.5,2.6,0.8,-23.75900622,-46.59811793,11,4,98,16.148,0.04,4.017,4.057,4.055,4.019,0.1,0.2,0,-4.1,-14,-157,203,1024,1024,1024,1024,1024,,,,,
157,16.5,0m 16.5s,-23.75900753,-46.59812538,P-GPS,97.1,29.6,,,0.7,0.3,0.0,0.0,2.5,0.8,-23.75900622,-46.59811793,11,4,98,16.148,0.04,4.017,4.057,4.055,4.019,0.1,0.3,0.1,-5.3,-13.4,-157,203,1024,1024,1024,1024,1024,,,,,
158,16.6,0m 16.6s,-23.7590073,-46.5981252,P-GPS,96.8,29.5,,,0.9,0.4,1.1,0.5,2.5,0.7,-23.75900622,-46.59811793,11,4,98,16.148,0.04,4.017,4.057,4.055,4.019,0.1,0.4,0.1,-7.2,-11.6,-156.8,203.2,1024,1024,1024,1024,1024,,,,,
159,16.7,0m 16.7s,-23.75900712,-46.59812493,P-GPS,96.8,29.5,,,0.9,0.4,0.0,0.0,2.4,0.7,-23.75900622,-46.59811793,11,4,98,16.361,0.018,4.091,4.099,4.09,4.081,0.1,0.4,0.1,-7.7,-10.8,-156.8,203.2,1024,1024,700,1024,1024,,,,,
160,16.8,0m 16.8s,-23.75900695,-46.59812464,P-GPS,96.5,29.4,,,0.9,0.4,1.1,0.5,2.3,0.7,-23.75900622,-46.59811793,11,4,98,16.361,0.018,4.091,4.099,4.09,4.081,0.1,0.4,0,-8,-9.5,-156.8,203.2,1024,1024,384,1024,1024,,,,,
161,16.9,0m 16.9s,-23.75900681,-46.59812435,P-GPS,96.5,29.4,,,0.9,0.4,1.1,0.5,2.2,0.7,-23.75900622,-46.59811793,11,4,98,16.361,0.018,4.091,4.099,4.09,4.081,0.1,0.4,0,-8.5,-9.4,-156.7,203.3,1024,1024,364,1024,1024,,,,,
162,17,0m 17s,-23.75900668,-46.59812419,P-GPS,96.8,29.5,,,0.7,0.3,0.0,0.0,2.1,0.6,-23.75900622,-46.59811793,11,4,98,16.361,0.018,4.091,4.099,4.09,4.081,0,0.3,-0.1,-9.1,-10,-156.7,203.3,1024,1024,364,1024,1024,,,,,
163,17.1,0m 17.1s,-23.7590066,-46.59812408,P-GPS,96.8,29.5,,,0.7,0.3,0.0,0.0,2.1,0.6,-23.75900622,-46.59811793,11,4,98,16.361,0.018,4.091,4.099,4.09,4.081,0,0.3,-0.2,-8.3,-10.2,-156.7,203.3,1024,1024,364,1024,1024,,,,,
164,17.2,0m 17.2s,-23.75900651,-46.59812408,P-GPS,96.8,29.5,,,0.4,0.2,0.0,0.0,2.1,0.6,-23.75900622,-46.59811793,11,4,98,16.361,0.018,4.091,4.099,4.09,4.081,0,0.2,-0.2,-8.2,-10.9,-156.7,203.3,1024,1024,364,1024,1024,,,,,
165,17.3,0m 17.3s,-23.75900647,-46.59812408,P-GPS,97.1,29.6,,,0.4,0.2,0.0,0.0,2.1,0.6,-23.75900622,-46.59811793,11,4,98,16.361,0.018,4.091,4.099,4.09,4.081,0,0.2,-0.3,-8.2,-11,-156.6,203.4,1024,1024,364,1024,1024,,,,,
166,17.4,0m 17.4s,-23.75900639,-46.59812417,P-GPS,97.4,29.7,,,0.4,0.2,0.0,0.0,2.1,0.6,-23.75900622,-46.59811793,11,4,98,16.361,0.018,4.091,4.099,4.09,4.081,0,0.2,-0.3,-7.6,-11,-156.6,203.4,1024,1024,364,1024,1024,,,,,
167,17.5,0m 17.5s,-23.75900638,-46.59812426,P-GPS,97.4,29.7,,,0.2,0.1,0.0,0.0,2.1,0.7,-23.75900622,-46.59811793,11,4,98,16.361,0.018,4.091,4.099,4.09,4.081,0,0.1,-0.2,-6.6,-11.1,-156.7,203.3,1024,1024,364,1024,1024,,,,,
168,17.6,0m 17.6s,-23.75900632,-46.59812442,P-GPS,97.4,29.7,,,0.2,0.1,0.0,0.0,2.2,0.7,-23.75900622,-46.59811793,11,4,98,16.361,0.018,4.091,4.099,4.09,4.081,0,0.1,-0.1,-6.1,-11.4,-156.8,203.2,1024,1024,364,1024,1024,,,,,
169,17.7,0m 17.7s,-23.75900631,-46.5981245,P-GPS,97.4,29.7,,,0.4,0.2,0.0,0.0,2.2,0.7,-23.75900622,-46.59811793,11,4,98,16.417,0.01,4.106,4.11,4.101,4.1,0,0.2,0,-5.7,-11,-156.9,203.1,1024,1024,364,1024,1024,,,,,
170,17.8,0m 17.8s,-23.75900625,-46.59812456,P-GPS,97.1,29.6,,,0.4,0.2,0.0,0.0,2.2,0.7,-23.75900622,-46.59811793,11,4,98,16.417,0.01,4.106,4.11,4.101,4.1,0,0.2,0,-5.5,-10.5,-157,203,1024,1024,364,1024,1024,,,,,
171,17.9,0m 17.9s,-23.75900625,-46.59812452,P-GPS,96.8,29.5,,,0.7,0.3,0.0,0.0,2.2,0.7,-23.75900622,-46.59811793,11,4,98,16.417,0.01,4.106,4.11,4.101,4.1,0,0.3,0,-5.3,-9.9,-157.2,202.8,1024,1024,364,1024,1024,,,,,
172,18,0m 18s,-23.75900622,-46.59812439,P-GPS,96.8,29.5,,,0.7,0.3,0.0,0.0,2.2,0.7,-23.75900622,-46.59811793,11,4,98,16.417,0.01,4.106,4.11,4.101,4.1,-0.1,0.3,0,-6.6,-8.4,-157.2,202.8,1024,1024,364,1024,1024,,,,,
173,18.1,0m 18.1s,-23.75900627,-46.59812419,P-GPS,96.5,29.4,,,0.7,0.3,0.0,0.0,2.1,0.6,-23.75900622,-46.59811793,11,4,98,16.417,0.01,4.106,4.11,4.101,4.1,-0.1,0.4,0,-7.2,-7.5,-157.2,202.8,1024,1024,364,1024,1024,,,,,
174,18.2,0m 18.2s,-23.75900632,-46.59812396,P-GPS,96.1,29.3,,,0.9,0.4,0.0,0.0,2.0,0.6,-23.75900622,-46.59811793,11,4,98,16.417,0.01,4.106,4.11,4.101,4.1,-0.1,0.4,0,-6.9,-5.7,-157.1,202.9,1024,1024,1024,1024,1024,,,,,
175,18.3,0m 18.3s,-23.75900641,-46.59812374,P-GPS,96.1,29.3,,,0.9,0.4,1.1,0.5,2.0,0.6,-23.75900622,-46.59811793,11,4,98,16.417,0.01,4.106,4.11,4.101,4.1,-0.1,0.3,0,-7.1,-5,-157.2,202.8,1024,1024,1024,1024,1024,,,,,
176,18.4,0m 18.4s,-23.75900648,-46.59812358,P-GPS,95.8,29.2,,,0.7,0.3,0.0,0.0,1.9,0.6,-23.75900622,-46.59811793,11,4,98,16.417,0.01,4.106,4.11,4.101,4.1,-0.1,0.3,0,-6.9,-4.7,-157.1,202.9,1024,1024,961,1024,1024,,,,,
177,18.5,0m 18.5s,-23.75900657,-46.59812348,P-GPS,95.8,29.2,,,0.5,0.2,1.1,0.5,1.8,0.6,-23.75900622,-46.59811793,11,4,98,16.417,0.01,4.106,4.11,4.101,4.1,-0.1,0.2,-0.1,-6.5,-5.2,-157.2,202.8,1024,1024,439,1024,1024,,,,,
178,18.6,0m 18.6s,-23.75900663,-46.59812349,P-GPS,95.8,29.2,,,0.5,0.2,0.0,0.0,1.9,0.6,-23.75900622,-46.59811793,11,4,98,16.417,0.01,4.106,4.11,4.101,4.1,-0.1,0.2,-0.1,-6.1,-6.7,-157.1,202.9,1024,1024,439,1024,1024,,,,,
179,18.7,0m 18.7s,-23.75900671,-46.59812349,P-GPS,95.8,29.2,,,0.5,0.2,NaN,NaN,1.8,0.6,-23.75900622,-46.59811793,11,4,98,16.417,0.01,4.106,4.11,4.101,4.1,-0.1,0.1,-0.2,-7.5,-6.6,-157,203,1024,1024,439,1024,1024,,,,,
180,18.8,0m 18.8s,-23.75900677,-46.59812362,P-GPS,95.8,29.2,,,0.2,0.1,0.0,0.0,1.9,0.6,-23.75900622,-46.59811793,11,4,98,16.417,0.01,4.106,4.11,4.101,4.1,-0.1,0,-0.1,-7.4,-7.3,-156.7,203.3,1024,1024,1024,1024,1024,,,,,
181,18.9,0m 18.9s,-23.75900688,-46.5981238,P-GPS,95.8,29.2,,,0.4,0.2,0.0,0.0,2.0,0.6,-23.75900622,-46.59811793,11,4,98,16.417,0.01,4.106,4.11,4.101,4.1,-0.2,0,-0.2,-6.5,-8.9,-156.7,203.3,1024,1024,1024,1024,1024,,,,,
182,19,0m 19s,-23.759007,-46.59812412,P-GPS,95.8,29.2,,,0.5,0.2,1.1,0.5,2.1,0.6,-23.75900622,-46.59811793,11,4,98,16.417,0.01,4.106,4.11,4.101,4.1,-0.2,-0.1,-0.3,-5.6,-9.1,-156.8,203.2,1024,1024,1024,1024,1024,,,,,
183,19.1,0m 19.1s,-23.75900713,-46.59812448,P-GPS,96.1,29.3,,,0.5,0.2,1.1,0.5,2.2,0.7,-23.75900622,-46.59811793,11,4,98,16.417,0.01,4.106,4.11,4.101,4.1,-0.2,-0.1,-0.3,-4.4,-11,-156.8,203.2,1024,1024,1024,1024,1024,,,,,
184,19.2,0m 19.2s,-23.75900726,-46.59812492,P-GPS,96.5,29.4,,,0.6,0.3,1.5,0.7,2.4,0.7,-23.75900622,-46.59811793,11,4,98,16.417,0.01,4.106,4.11,4.101,4.1,-0.2,-0.2,-0.3,-3.1,-12.5,-157,203,1024,1024,1024,1024,1024,,,,,
185,19.3,0m 19.3s,-23.7590074,-46.59812535,P-GPS,96.5,29.4,,,0.6,0.3,1.1,0.5,2.5,0.8,-23.75900622,-46.59811793,11,4,98,16.417,0.01,4.106,4.11,4.101,4.1,-0.1,-0.2,-0.3,-3.2,-14.5,-157,203,1024,1024,1024,1024,1024,,,,,
186,19.4,0m 19.4s,-23.75900755,-46.59812581,P-GPS,96.8,29.5,,,0.5,0.2,1.1,0.5,2.7,0.8,-23.75900622,-46.59811793,11,4,98,16.417,0.01,4.106,4.11,4.101,4.1,-0.1,-0.2,-0.3,-2.9,-15.2,-156.9,203.1,1024,1024,1024,1024,1024,,,,,
187,19.5,0m 19.5s,-23.75900771,-46.59812622,P-GPS,96.8,29.5,,,0.6,0.3,1.1,0.5,2.8,0.9,-23.75900622,-46.59811793,11,4,98,16.417,0.01,4.106,4.11,4.101,4.1,-0.2,-0.2,-0.2,-1.8,-14.7,-157.2,202.8,1024,1024,1024,1024,1024,,,,,
188,19.6,0m 19.6s,-23.75900786,-46.59812662,P-GPS,97.1,29.6,,,0.5,0.2,1.5,0.7,3.0,0.9,-23.75900622,-46.59811793,11,4,98,16.417,0.01,4.106,4.11,4.101,4.1,-0.1,-0.2,-0.2,-1.4,-15.2,-157.4,202.6,1024,1024,1024,1024,1024,,,,,
189,19.7,0m 19.7s,-23.75900799,-46.59812693,P-GPS,97.1,29.6,,,0.3,0.1,1.1,0.5,3.1,0.9,-23.75900622,-46.59811793,11,4,98,16.474,0.01,4.121,4.123,4.117,4.113,-0.1,-0.1,-0.2,-1.7,-15.7,-157.3,202.7,1024,1024,1024,1024,1024,,,,,
190,19.8,0m 19.8s,-23.75900804,-46.59812722,P-GPS,97.4,29.7,,,0.3,0.1,0.0,0.0,3.2,1.0,-23.75900622,-46.59811793,11,4,98,16.474,0.01,4.121,4.123,4.117,4.113,0,-0.1,-0.1,-1.5,-15.3,-157.5,202.5,1024,1024,1024,1024,1024,,,,,
191,19.9,0m 19.9s,-23.75900805,-46.59812742,P-GPS,97.4,29.7,,,0.0,0.0,0.0,0.0,3.2,1.0,-23.75900622,-46.59811793,11,4,98,16.474,0.01,4.121,4.123,4.117,4.113,0,0,0,-1.9,-14.9,-157.6,202.4,1024,1024,1024,1024,1024,,,,,
192,20,0m 20s,-23.75900794,-46.59812752,P-GPS,97.4,29.7,,,0.0,0.0,0.0,0.0,3.3,1.0,-23.75900622,-46.59811793,11,4,98,16.474,0.01,4.121,4.123,4.117,4.113,0,0,0,-3.7,-13.8,-157.2,202.8,1024,1024,1024,1024,1024,,,,,
193,20.1,0m 20.1s,-23.75900783,-46.59812752,P-GPS,97.4,29.7,,,0.2,0.1,0.0,0.0,3.3,1.0,-23.75900622,-46.59811793,11,4,98,16.474,0.01,4.121,4.123,4.117,4.113,0,0.1,0,-4.5,-13,-157.2,202.8,1024,1024,1024,1024,1024,,,,,
194,20.2,0m 20.2s,-23.75900769,-46.5981275,P-GPS,97.4,29.7,,,0.2,0.1,0.0,0.0,3.3,1.0,-23.75900622,-46.59811793,11,4,98,16.474,0.01,4.121,4.123,4.117,4.113,0,0.1,0.1,-5.8,-12.7,-157,203,1024,1024,1024,1024,1024,,,,,
195,20.3,0m 20.3s,-23.75900756,-46.5981274,P-GPS,97.1,29.6,,,0.2,0.1,0.0,0.0,3.2,1.0,-23.75900622,-46.59811793,11,4,98,16.474,0.01,4.121,4.123,4.117,4.113,0,0.2,0,-6.8,-12,-157,203,1024,1024,1024,1024,1024,,,,,
196,20.4,0m 20.4s,-23.75900743,-46.59812734,P-GPS,97.1,29.6,,,0.4,0.2,0.0,0.0,3.2,1.0,-23.75900622,-46.59811793,11,4,98,16.474,0.01,4.121,4.123,4.117,4.113,0,0.2,0.1,-6.8,-11.8,-157,203,1024,1024,1024,1024,1024,,,,,
197,20.5,0m 20.5s,-23.75900729,-46.59812723,P-GPS,97.1,29.6,,,0.5,0.2,0.0,0.0,3.1,1.0,-23.75900622,-46.59811793,11,4,98,16.474,0.01,4.121,4.123,4.117,4.113,0.1,0.2,0,-8.8,-10.9,-156.6,203.4,1024,1024,1024,1024,1024,,,,,
198,20.6,0m 20.6s,-23.7590071,-46.59812719,P-GPS,97.1,29.6,,,0.2,0.1,1.1,0.5,3.1,1.0,-23.75900622,-46.59811793,11,4,98,16.474,0.01,4.121,4.123,4.117,4.113,0,0.1,0,-10.2,-10.1,-156.3,203.7,1024,1024,1024,1024,1033,,,,,
199,20.7,0m 20.7s,-23.75900698,-46.59812722,P-GPS,97.1,29.6,,,0.0,0.0,0.0,0.0,3.1,0.9,-23.75900622,-46.59811793,11,4,98,16.509,0.015,4.13,4.134,4.126,4.119,0,0,0,-8.8,-11.1,-156.3,203.7,1024,1024,1024,1024,1225,,,,,
200,20.8,0m 20.8s,-23.7590069,-46.59812743,P-GPS,97.4,29.7,,,0.0,0.0,0.0,0.0,3.2,1.0,-23.75900622,-46.59811793,11,4,98,16.509,0.015,4.13,4.134,4.126,4.119,0,0,-0.1,-6.7,-12.4,-156.6,203.4,1024,1024,1024,1024,1426,,,,,
201,20.9,0m 20.9s,-23.75900685,-46.59812762,P-GPS,97.4,29.7,,,0.0,0.0,0.0,0.0,3.3,1.0,-23.75900622,-46.59811793,11,4,98,16.509,0.015,4.13,4.134,4.126,4.119,0,0,0,-6,-13,-156.6,203.4,1024,1024,1024,1024,1473,,,,,
202,21,0m 21s,-23.75900678,-46.59812791,P-GPS,97.4,29.7,,,0.0,0.0,0.0,0.0,3.4,1.0,-23.75900622,-46.59811793,11,4,98,16.509,0.015,4.13,4.134,4.126,4.119,0,0,-0.1,-5.6,-13.3,-156.6,203.4,1024,1024,1024,1024,1510,,,,,
203,21.1,0m 21.1s,-23.75900675,-46.5981281,P-GPS,98.1,29.9,,,0.0,0.0,0.0,0.0,3.4,1.0,-23.75900622,-46.59811793,11,4,98,16.509,0.015,4.13,4.134,4.126,4.119,0,0,-0.8,-4.6,-11.9,-156.8,203.2,1024,1024,1024,1024,1528,,,,,
204,21.2,0m 21.2s,-23.75900669,-46.59812836,P-GPS,98.4,30.0,,,0.0,0.0,0.0,0.0,3.5,1.1,-23.75900622,-46.59811793,11,4,98,16.509,0.015,4.13,4.134,4.126,4.119,0,0,-1.1,-4.9,-12.2,-156.8,203.2,1024,1024,1024,1024,1528,,,,,
205,21.3,0m 21.3s,-23.75900664,-46.59812855,P-GPS,99.1,30.2,,,0.0,0.0,0.0,0.0,3.6,1.1,-23.75900622,-46.59811793,11,4,98,16.509,0.015,4.13,4.134,4.126,4.119,0,0,-1.4,-5.8,-13.3,-156.5,203.5,1024,1024,1024,1024,1566,,,,,
206,21.4,0m 21.4s,-23.75900658,-46.59812877,P-GPS,99.7,30.4,,,0.0,0.0,0.0,0.0,3.6,1.1,-23.75900622,-46.59811793,11,4,98,16.509,0.015,4.13,4.134,4.126,4.119,0,0,-1.6,-6.2,-14.7,-156.5,203.5,1024,1024,1024,1024,1571,,,,,
207,21.5,0m 21.5s,-23.7590066,-46.5981289,P-GPS,100.4,30.6,,,0.2,0.1,0.0,0.0,3.7,1.1,-23.75900622,-46.59811793,11,4,98,16.509,0.015,4.13,4.134,4.126,4.119,-0.1,0,-1.9,-5.1,-14.4,-156.6,203.4,1024,1024,1024,1024,1580,,,,,
208,21.6,0m 21.6s,-23.75900662,-46.59812902,P-GPS,101.0,30.8,,,0.2,0.1,0.0,0.0,3.7,1.1,-23.75900622,-46.59811793,11,4,98,16.509,0.015,4.13,4.134,4.126,4.119,-0.1,0,-2.1,-4,-14.1,-156.8,203.2,1024,1024,1024,1024,1607,,,,,
209,21.7,0m 21.7s,-23.75900668,-46.59812906,P-GPS,101.7,31.0,,,0.3,0.1,0.0,0.0,3.7,1.1,-23.75900622,-46.59811793,11,4,98,16.509,0.015,4.13,4.134,4.126,4.119,-0.1,0.1,-2.3,-3.8,-13.8,-156.9,203.1,1024,1024,1024,1024,1641,,,,,
210,21.9,0m 21.9s,-23.75900677,-46.59812901,P-GPS,103.3,31.5,,,0.3,0.1,0.7,0.3,3.7,1.1,-23.75900622,-46.59811793,11,4,98,16.509,0.015,4.13,4.134,4.126,4.119,-0.1,0.1,-3,-2.9,-11.5,-157,203,1024,1024,1024,1024,1648,,,,,
211,22,0m 22s,-23.75900673,-46.59812899,P-GPS,104.3,31.8,,,0.3,0.1,0.0,0.0,3.7,1.1,-23.75900622,-46.59811793,11,4,98,16.509,0.015,4.13,4.134,4.126,4.119,-0.1,0.1,-3.3,-2.8,-11.2,-157.1,202.9,1024,1024,1024,1024,1644,,,,,
212,22.1,0m 22.1s,-23.75900669,-46.5981289,P-GPS,105.6,32.2,,,0.2,0.1,1.1,0.5,3.7,1.1,-23.75900622,-46.59811793,11,4,98,16.509,0.015,4.13,4.134,4.126,4.119,0,0.1,-3.5,-5,-12.5,-156.8,203.2,1024,1024,1024,1024,1644,,,,,
213,22.2,0m 22.2s,-23.75900657,-46.59812884,P-GPS,106.6,32.5,,,0.2,0.1,0.0,0.0,3.6,1.1,-23.75900622,-46.59811793,11,4,98,16.509,0.015,4.13,4.134,4.126,4.119,0,0.1,-3.6,-5.8,-14.6,-156.6,203.4,1024,1024,1024,1024,1632,,,,,
214,22.3,0m 22.3s,-23.75900652,-46.59812873,P-GPS,107.9,32.9,,,0.5,0.2,0.0,0.0,3.6,1.1,-23.75900622,-46.59811793,11,4,98,16.509,0.015,4.13,4.134,4.126,4.119,-0.1,0.2,-3.6,-5.3,-15.3,-156.5,203.5,1024,1024,1024,1024,1624,,,,,
215,22.4,0m 22.4s,-23.75900642,-46.59812861,P-GPS,108.9,33.2,,,0.5,0.2,0.0,0.0,3.6,1.1,-23.75900622,-46.59811793,11,4,98,16.509,0.015,4.13,4.134,4.126,4.119,-0.1,0.2,-3.5,-5.1,-14.8,-156.6,203.4,1024,1024,1024,1024,1614,,,,,
216,22.5,0m 22.5s,-23.7590064,-46.59812841,P-GPS,109.9,33.5,,,0.5,0.2,0.0,0.0,3.5,1.1,-23.75900622,-46.59811793,11,4,98,16.509,0.015,4.13,4.134,4.126,4.119,-0.1,0.2,-3.3,-4.5,-13.3,-156.7,203.3,1024,1024,1024,1024,1548,,,,,
217,22.6,0m 22.6s,-23.75900631,-46.59812824,P-GPS,110.9,33.8,,,0.5,0.2,0.0,0.0,3.4,1.0,-23.75900622,-46.59811793,11,4,98,16.509,0.015,4.13,4.134,4.126,4.119,-0.1,0.2,-3.2,-4.5,-11.9,-156.8,203.2,1024,1024,1024,1024,1307,,,,,
218,22.7,0m 22.7s,-23.75900625,-46.59812808,P-GPS,111.9,34.1,,,0.2,0.1,0.0,0.0,3.4,1.0,-23.75900622,-46.59811793,11,4,98,16.246,0.103,4.066,4.045,4.016,4.119,0,0.1,-2.9,-4.4,-13.2,-157,203,1024,1024,1024,1024,1110,,,,,
219,22.8,0m 22.8s,-23.75900601,-46.59812805,P-GPS,112.9,34.4,,,0.0,0.0,0.0,0.0,3.4,1.0,-23.75900622,-46.59811793,11,4,98,16.246,0.103,4.066,4.045,4.016,4.119,0,0,-2.3,-5.5,-16.1,-156.8,203.2,1024,1024,1024,1024,1024,,,,,
220,22.9,0m 22.9s,-23.75900577,-46.59812802,P-GPS,113.2,34.5,,,0.0,0.0,0.0,0.0,3.4,1.0,-23.75900622,-46.59811793,11,4,98,16.246,0.103,4.066,4.045,4.016,4.119,0,0,-1.7,-6.7,-17.2,-156.4,203.6,1024,1024,1024,1024,1083,,,,,
221,23,0m 23s,-23.75900533,-46.59812808,P-GPS,113.5,34.6,,,0.2,0.1,1.1,0.5,3.4,1.0,-23.75900622,-46.59811793,11,4,98,16.246,0.103,4.066,4.045,4.016,4.119,0.1,0,-0.9,-6.3,-17.2,-156.5,203.5,1024,1024,1024,1024,1300,,,,,
222,23.1,0m 23.1s,-23.75900494,-46.5981281,P-GPS,113.8,34.7,,,0.2,0.1,1.5,0.7,3.4,1.0,-23.75900622,-46.59811793,11,4,98,16.246,0.103,4.066,4.045,4.016,4.119,0.1,0,-0.7,-5.7,-16.9,-156.9,203.1,1024,1024,1024,1024,1395,,,,,
223,23.2,0m 23.2s,-23.75900441,-46.59812814,P-GPS,113.8,34.7,,,0.4,0.2,1.1,0.5,3.5,1.1,-23.75900622,-46.59811793,11,4,98,16.246,0.103,4.066,4.045,4.016,4.119,0.2,0,-0.5,-7.2,-15,-156.7,203.3,1024,1024,1024,1024,1335,,,,,
224,23.3,0m 23.3s,-23.75900397,-46.59812811,P-GPS,114.2,34.8,,,0.5,0.2,1.1,0.5,3.5,1.1,-23.75900622,-46.59811793,11,4,98,16.246,0.103,4.066,4.045,4.016,4.119,0.2,0.1,-0.7,-7.7,-14.5,-156.5,203.5,1024,1024,1024,1024,1351,,,,,
225,23.4,0m 23.4s,-23.75900347,-46.59812805,P-GPS,114.2,34.8,,,0.5,0.2,1.5,0.7,3.5,1.1,-23.75900622,-46.59811793,11,4,98,16.246,0.103,4.066,4.045,4.016,4.119,0.2,0.1,-0.4,-9.3,-16.6,-156.2,203.8,1024,1024,1024,1024,1327,,,,,
226,23.5,0m 23.5s,-23.75900308,-46.59812791,P-GPS,114.5,34.9,,,0.3,0.1,1.1,0.5,3.5,1.1,-23.75900622,-46.59811793,11,4,98,16.246,0.103,4.066,4.045,4.016,4.119,0.1,0.1,-0.5,-9.8,-15.7,-156,204,1024,1024,1024,1024,1328,,,,,
227,23.6,0m 23.6s,-23.7590027,-46.59812773,P-GPS,114.5,34.9,,,0.5,0.2,1.1,0.5,3.5,1.1,-23.75900622,-46.59811793,11,4,98,16.246,0.103,4.066,4.045,4.016,4.119,0.1,0.2,-0.5,-10,-15.1,-156.1,203.9,1024,1024,1024,1024,1332,,,,,
228,23.7,0m 23.7s,-23.75900243,-46.59812754,P-GPS,114.8,35.0,,,0.5,0.2,0.0,0.0,3.5,1.1,-23.75900622,-46.59811793,11,4,98,16.039,0.041,3.995,3.998,4.01,4.036,0.1,0.2,-0.6,-10.5,-15.4,-156,204,1024,1024,1024,1024,1354,,,,,
229,23.8,0m 23.8s,-23.75900214,-46.59812736,P-GPS,115.2,35.1,,,0.5,0.2,0.0,0.0,3.5,1.1,-23.75900622,-46.59811793,11,4,98,16.039,0.041,3.995,3.998,4.01,4.036,0.1,0.2,-0.5,-10.3,-15.3,-156,204,1024,1024,1024,1024,1356,,,,,
230,23.9,0m 23.9s,-23.75900194,-46.59812717,P-GPS,115.5,35.2,,,0.4,0.2,1.5,0.7,3.5,1.1,-23.75900622,-46.59811793,11,4,98,16.039,0.041,3.995,3.998,4.01,4.036,0,0.2,-0.6,-9.9,-15,-156.2,203.8,1024,1024,1024,1024,1347,,,,,
231,24,0m 24s,-23.7590017,-46.59812698,P-GPS,115.5,35.2,,,0.7,0.3,0.0,0.0,3.4,1.0,-23.75900622,-46.59811793,11,4,98,16.039,0.041,3.995,3.998,4.01,4.036,0,0.3,-0.5,-10.4,-14.6,-156.1,203.9,1024,1024,1024,1024,1340,,,,,
232,24.1,0m 24.1s,-23.75900152,-46.59812678,P-GPS,115.8,35.3,,,0.7,0.3,0.0,0.0,3.4,1.0,-23.75900622,-46.59811793,11,4,98,16.039,0.041,3.995,3.998,4.01,4.036,0,0.3,-0.6,-11,-14.1,-156.1,203.9,1024,1024,1024,1024,1311,,,,,
233,24.2,0m 24.2s,-23.75900131,-46.59812663,P-GPS,116.1,35.4,,,0.4,0.2,0.0,0.0,3.4,1.0,-23.75900622,-46.59811793,11,4,98,16.039,0.041,3.995,3.998,4.01,4.036,0,0.2,-0.5,-11,-13.9,-156.1,203.9,1024,1024,1024,1024,1263,,,,,
234,24.3,0m 24.3s,-23.75900118,-46.59812646,P-GPS,116.1,35.4,,,0.4,0.2,1.1,0.5,3.4,1.0,-23.75900622,-46.59811793,11,4,98,16.039,0.041,3.995,3.998,4.01,4.036,0,0.2,-0.3,-11.2,-13.6,-156.1,203.9,1024,1024,1024,1024,1132,,,,,
235,24.5,0m 24.5s,-23.75900097,-46.59812616,P-GPS,116.1,35.4,,,0.4,0.2,0.0,0.0,3.4,1.0,-23.75900622,-46.59811793,11,4,98,16.039,0.041,3.995,3.998,4.01,4.036,0,0.2,-0.1,-11.9,-13.8,-156,204,1024,1024,1024,1024,1196,,,,,
236,24.6,0m 24.6s,-23.75900088,-46.59812605,P-GPS,116.1,35.4,,,0.5,0.2,0.0,0.0,3.3,1.0,-23.75900622,-46.59811793,11,4,98,16.039,0.041,3.995,3.998,4.01,4.036,-0.1,0.2,0,-11.3,-13.2,-156,204,1024,1024,1024,1024,1229,,,,,
237,24.7,0m 24.7s,-23.75900089,-46.59812592,P-GPS,115.8,35.3,,,0.5,0.2,0.0,0.0,3.3,1.0,-23.75900622,-46.59811793,11,4,98,16.279,0.013,4.061,4.072,4.074,4.072,-0.1,0.2,0.1,-11.7,-12.6,-156,204,1024,1024,1024,1024,1263,,,,,
238,24.8,0m 24.8s,-23.75900092,-46.59812585,P-GPS,115.8,35.3,,,0.6,0.3,0.0,0.0,3.3,1.0,-23.75900622,-46.59811793,11,4,98,16.279,0.013,4.061,4.072,4.074,4.072,-0.2,0.2,0.1,-10,-11.5,-156.2,203.8,1024,1024,1024,1024,1213,,,,,
239,24.9,0m 24.9s,-23.75900106,-46.5981258,P-GPS,115.5,35.2,,,0.5,0.2,0.0,0.0,3.2,1.0,-23.75900622,-46.59811793,11,4,98,16.279,0.013,4.061,4.072,4.074,4.072,-0.2,0.1,0,-8,-11.4,-156.6,203.4,1024,1024,1024,1024,1229,,,,,
240,25,0m 25s,-23.75900116,-46.59812582,P-GPS,115.5,35.2,,,0.5,0.2,0.0,0.0,3.2,1.0,-23.75900622,-46.59811793,11,4,98,16.279,0.013,4.061,4.072,4.074,4.072,-0.2,0.1,0,-8,-11.9,-156.7,203.3,1024,1024,1024,1024,1267,,,,,
241,25.1,0m 25.1s,-23.75900132,-46.59812582,P-GPS,115.5,35.2,,,0.5,0.2,0.0,0.0,3.2,1.0,-23.75900622,-46.59811793,11,4,98,16.279,0.013,4.061,4.072,4.074,4.072,-0.2,0.1,0,-8.6,-12,-156.5,203.5,1024,1024,1024,1024,1273,,,,,
242,25.2,0m 25.2s,-23.75900141,-46.59812584,P-GPS,115.5,35.2,,,0.5,0.2,0.0,0.0,3.2,1.0,-23.75900622,-46.59811793,11,4,98,16.279,0.013,4.061,4.072,4.074,4.072,-0.2,0.1,0,-8.7,-11.8,-156.4,203.6,1024,1024,1024,1024,1297,,,,,
243,25.3,0m 25.3s,-23.75900156,-46.59812586,P-GPS,115.5,35.2,,,0.5,0.2,0.0,0.0,3.1,1.0,-23.75900622,-46.59811793,11,4,98,16.279,0.013,4.061,4.072,4.074,4.072,-0.2,0.1,-0.1,-8,-11.8,-156.5,203.5,1024,1024,1024,1024,1270,,,,,
244,25.4,0m 25.4s,-23.75900166,-46.59812593,P-GPS,115.5,35.2,,,0.7,0.3,0.0,0.0,3.2,1.0,-23.75900622,-46.59811793,11,4,98,16.279,0.013,4.061,4.072,4.074,4.072,-0.3,0.1,-0.2,-7.7,-12,-156.5,203.5,1024,1024,1024,1024,1270,,,,,
245,25.5,0m 25.5s,-23.75900184,-46.59812599,P-GPS,115.8,35.3,,,0.7,0.3,0.0,0.0,3.1,1.0,-23.75900622,-46.59811793,11,4,98,16.279,0.013,4.061,4.072,4.074,4.072,-0.3,0,-0.3,-7,-12,-156.6,203.4,1024,1024,1024,1024,1283,,,,,
246,25.6,0m 25.6s,-23.75900193,-46.5981261,P-GPS,115.8,35.3,,,0.7,0.3,0.0,0.0,3.2,1.0,-23.75900622,-46.59811793,11,4,98,16.279,0.013,4.061,4.072,4.074,4.072,-0.3,0,-0.2,-6.8,-12.7,-156.6,203.4,1024,1024,1024,1024,1295,,,,,
247,25.7,0m 25.7s,-23.75900208,-46.59812619,P-GPS,115.8,35.3,,,0.4,0.2,0.0,0.0,3.2,1.0,-23.75900622,-46.59811793,11,4,98,16.279,0.013,4.061,4.072,4.074,4.072,-0.2,0,0,-6.8,-12.8,-156.6,203.4,1024,1024,1024,1024,1303,,,,,
248,25.8,0m 25.8s,-23.75900216,-46.59812625,P-GPS,115.8,35.3,,,0.7,0.3,0.0,0.0,3.2,1.0,-23.75900622,-46.59811793,11,4,98,16.279,0.013,4.061,4.072,4.074,4.072,-0.3,0,-0.1,-6.9,-12.9,-156.6,203.4,1024,1024,1024,1024,1372,,,,,
249,25.9,0m 25.9s,-23.75900231,-46.59812628,P-GPS,115.8,35.3,,,0.7,0.3,0.0,0.0,3.1,1.0,-23.75900622,-46.59811793,11,4,98,16.279,0.013,4.061,4.072,4.074,4.072,-0.3,0,-0.2,-6.4,-12.8,-156.7,203.3,1024,1024,1024,1024,1546,,,,,
250,26,0m 26s,-23.7590024,-46.59812633,P-GPS,115.8,35.3,,,0.5,0.2,0.0,0.0,3.1,1.0,-23.75900622,-46.59811793,11,4,98,16.279,0.013,4.061,4.072,4.074,4.072,-0.2,0.1,-0.3,-6.1,-12.2,-156.8,203.2,1024,1024,1024,1024,1530,,,,,
251,26.1,0m 26.1s,-23.75900256,-46.59812633,P-GPS,116.1,35.4,,,0.5,0.2,0.0,0.0,3.1,0.9,-23.75900622,-46.59811793,11,4,98,16.279,0.013,4.061,4.072,4.074,4.072,-0.2,0.1,-0.7,-4.4,-9.8,-157.1,202.9,1024,1024,1024,1024,1503,,,,,
252,26.2,0m 26.2s,-23.75900262,-46.59812634,P-GPS,116.5,35.5,,,0.5,0.2,0.0,0.0,3.1,0.9,-23.75900622,-46.59811793,11,4,98,16.279,0.013,4.061,4.072,4.074,4.072,-0.2,0.1,-1.1,-5.4,-9.5,-157,203,1024,1024,1024,1024,1471,,,,,
253,26.3,0m 26.3s,-23.75900271,-46.59812635,P-GPS,116.8,35.6,,,0.4,0.2,0.0,0.0,3.1,0.9,-23.75900622,-46.59811793,11,4,98,16.279,0.013,4.061,4.072,4.074,4.072,-0.2,0,-1.2,-7.4,-12.6,-156.6,203.4,1024,1024,1024,1024,1484,,,,,
254,26.4,0m 26.4s,-23.75900273,-46.59812636,P-GPS,117.1,35.7,,,0.5,0.2,0.0,0.0,3.1,0.9,-23.75900622,-46.59811793,11,4,98,16.279,0.013,4.061,4.072,4.074,4.072,-0.2,0.1,-1.1,-8.5,-14.7,-156.2,203.8,1024,1024,1024,1024,1468,,,,,
255,26.5,0m 26.5s,-23.75900287,-46.59812628,P-GPS,117.5,35.8,,,0.8,0.4,0.0,0.0,3.1,0.9,-23.75900622,-46.59811793,11,4,98,16.279,0.013,4.061,4.072,4.074,4.072,-0.3,0.2,-1,-7.9,-12.7,-156.3,203.7,1024,1024,1024,1024,1440,,,,,
256,26.6,0m 26.6s,-23.75900302,-46.59812615,P-GPS,117.8,35.9,,,0.8,0.4,0.0,0.0,3.0,0.9,-23.75900622,-46.59811793,11,4,98,16.279,0.013,4.061,4.072,4.074,4.072,-0.3,0.2,-1.1,-6.9,-10.1,-156.7,203.3,1024,1024,1024,1024,1309,,,,,
257,26.7,0m 26.7s,-23.75900325,-46.598126,P-GPS,117.8,35.9,,,0.8,0.4,1.1,0.5,2.9,0.9,-23.75900622,-46.59811793,11,4,98,16.231,0.009,4.063,4.059,4.055,4.054,-0.3,0.2,-1.1,-6,-9.2,-156.8,203.2,1024,1024,1024,1024,1330,,,,,
258,26.8,0m 26.8s,-23.75900343,-46.59812592,P-GPS,118.4,36.1,,,0.7,0.3,0.0,0.0,2.9,0.9,-23.75900622,-46.59811793,11,4,98,16.231,0.009,4.063,4.059,4.055,4.054,-0.3,0.1,-1.1,-6.7,-11.5,-156.8,203.2,1024,1024,1024,1024,1394,,,,,
259,26.9,0m 26.9s,-23.75900363,-46.59812584,P-GPS,118.4,36.1,,,0.5,0.2,0.0,0.0,2.8,0.9,-23.75900622,-46.59811793,11,4,98,16.231,0.009,4.063,4.059,4.055,4.054,-0.2,0.1,-0.6,-6.6,-12,-156.8,203.2,1024,1024,1024,1024,1394,,,,,
260,27,0m 27s,-23.75900374,-46.59812577,P-GPS,118.4,36.1,,,0.5,0.2,0.0,0.0,2.8,0.8,-23.75900622,-46.59811793,11,4,98,16.231,0.009,4.063,4.059,4.055,4.054,-0.2,0.1,-0.5,-5.2,-10.1,-157.1,202.9,1024,1024,1024,1024,1453,,,,,
261,27.1,0m 27.1s,-23.75900385,-46.59812564,P-GPS,118.8,36.2,,,0.6,0.3,1.1,0.5,2.7,0.8,-23.75900622,-46.59811793,11,4,98,16.231,0.009,4.063,4.059,4.055,4.054,-0.2,0.2,-0.7,-5,-9.2,-157.2,202.8,1024,1024,1024,1024,1472,,,,,
262,27.2,0m 27.2s,-23.75900385,-46.59812556,P-GPS,118.8,36.2,,,0.5,0.2,0.0,0.0,2.7,0.8,-23.75900622,-46.59811793,11,4,98,16.231,0.009,4.063,4.059,4.055,4.054,-0.1,0.2,-0.7,-6,-8.6,-157.2,202.8,1024,1024,1024,1024,1480,,,,,
263,27.3,0m 27.3s,-23.75900388,-46.59812546,P-GPS,119.1,36.3,,,0.3,0.1,0.0,0.0,2.7,0.8,-23.75900622,-46.59811793,11,4,98,16.231,0.009,4.063,4.059,4.055,4.054,-0.1,0.1,-0.9,-7.3,-9.1,-157,203,1024,1024,1024,1024,1419,,,,,
264,27.4,0m 27.4s,-23.75900384,-46.5981254,P-GPS,119.4,36.4,,,0.3,0.1,0.0,0.0,2.7,0.8,-23.75900622,-46.59811793,11,4,98,16.231,0.009,4.063,4.059,4.055,4.054,-0.1,0.1,-0.9,-7.6,-9.2,-156.8,203.2,1024,1024,1024,1024,1255,,,,,
265,27.5,0m 27.5s,-23.75900385,-46.5981253,P-GPS,119.4,36.4,,,0.3,0.1,0.0,0.0,2.6,0.8,-23.75900622,-46.59811793,11,4,98,16.231,0.009,4.063,4.059,4.055,4.054,-0.1,0.1,-0.7,-9.2,-11.6,-156.5,203.5,1024,1024,1024,1024,1222,,,,,
266,27.6,0m 27.6s,-23.75900381,-46.59812526,P-GPS,119.4,36.4,,,0.3,0.1,0.0,0.0,2.6,0.8,-23.75900622,-46.59811793,11,4,98,16.231,0.009,4.063,4.059,4.055,4.054,-0.1,0.1,-0.3,-9.4,-12.2,-156.4,203.6,1024,1024,1024,1024,1540,,,,,
267,27.7,0m 27.7s,-23.75900387,-46.59812518,P-GPS,119.4,36.4,,,0.5,0.2,0.0,0.0,2.5,0.8,-23.75900622,-46.59811793,11,4,97,16.304,0.031,4.059,4.09,4.088,4.067,-0.2,0.1,-0.2,-7.7,-9.6,-156.7,203.3,1024,1024,1024,1024,1540,,,,,
268,27.8,0m 27.8s,-23.75900388,-46.59812513,P-GPS,119.4,36.4,,,0.5,0.2,0.0,0.0,2.5,0.8,-23.75900622,-46.59811793,11,4,97,16.304,0.031,4.059,4.09,4.088,4.067,-0.2,0.1,-0.3,-6,-8.6,-156.9,203.1,1024,1024,1024,1030,1684,,,,,
269,27.9,0m 27.9s,-23.75900394,-46.59812506,P-GPS,119.8,36.5,,,0.3,0.1,0.0,0.0,2.5,0.8,-23.75900622,-46.59811793,11,4,97,16.304,0.031,4.059,4.09,4.088,4.067,-0.1,0.1,-0.7,-4.3,-7.4,-157.2,202.8,1024,1024,1024,1024,1684,,,,,
270,28,0m 28s,-23.75900395,-46.59812502,P-GPS,120.1,36.6,,,0.3,0.1,0.0,0.0,2.5,0.8,-23.75900622,-46.59811793,11,4,97,16.304,0.031,4.059,4.09,4.088,4.067,-0.1,0.1,-1.2,-4.2,-6.3,-157.3,202.7,1024,1024,1024,1024,1684,,,,,
271,28.1,0m 28.1s,-23.75900396,-46.59812497,P-GPS,120.7,36.8,,,0.2,0.1,0.0,0.0,2.5,0.8,-23.75900622,-46.59811793,11,4,97,16.304,0.031,4.059,4.09,4.088,4.067,0,0.1,-1.8,-5.4,-7.2,-157.1,202.9,1024,1024,1024,1024,1684,,,,,
272,28.2,0m 28.2s,-23.75900386,-46.59812499,P-GPS,121.4,37.0,,,0.2,0.1,0.0,0.0,2.5,0.8,-23.75900622,-46.59811793,11,4,97,16.304,0.031,4.059,4.09,4.088,4.067,0,0.1,-2.3,-6.3,-8.6,-157,203,1024,1024,1024,1024,1684,,,,,
273,28.3,0m 28.3s,-23.75900381,-46.59812496,P-GPS,122.4,37.3,,,0.3,0.1,0.0,0.0,2.5,0.8,-23.75900622,-46.59811793,11,4,97,16.304,0.031,4.059,4.09,4.088,4.067,-0.1,0.1,-2.9,-6.6,-9.6,-156.8,203.2,1024,1024,1024,1024,1610,,,,,
274,28.4,0m 28.4s,-23.75900373,-46.59812493,P-GPS,123.4,37.6,,,0.3,0.1,0.0,0.0,2.5,0.8,-23.75900622,-46.59811793,11,4,97,16.304,0.031,4.059,4.09,4.088,4.067,-0.1,0.1,-3.4,-8.5,-9.8,-156.4,203.6,1024,1024,1024,1024,1506,,,,,
275,28.5,0m 28.5s,-23.75900374,-46.59812489,P-GPS,124.7,38.0,,,0.4,0.2,0.0,0.0,2.5,0.8,-23.75900622,-46.59811793,11,4,97,16.304,0.031,4.059,4.09,4.088,4.067,-0.2,0,-3.4,-10.3,-12.9,-156,204,1024,1024,1024,1024,1603,,,,,
276,28.6,0m 28.6s,-23.75900376,-46.59812492,P-GPS,125.7,38.3,,,0.4,0.2,0.0,0.0,2.5,0.8,-23.75900622,-46.59811793,11,4,97,16.304,0.031,4.059,4.09,4.088,4.067,-0.2,0,-3,-9.5,-15.4,-156,204,1024,1024,1024,1024,1684,,,,,
277,28.7,0m 28.7s,-23.75900389,-46.59812488,P-GPS,126.6,38.6,,,0.7,0.3,0.0,0.0,2.5,0.8,-23.75900622,-46.59811793,11,4,97,15.962,0.076,4.022,4.009,3.985,3.946,-0.3,0.1,-2.8,-6.6,-12.6,-156.5,203.5,1024,1024,1024,1024,1684,,,,,
278,28.8,0m 28.8s,-23.75900404,-46.59812478,P-GPS,127.6,38.9,,,1.0,0.5,0.0,0.0,2.5,0.7,-23.75900622,-46.59811793,11,4,97,15.962,0.076,4.022,4.009,3.985,3.946,-0.4,0.2,-3.3,-1.9,-7.3,-157.3,202.7,1024,1024,1024,1024,1443,,,,,
279,28.9,0m 28.9s,-23.75900419,-46.59812461,P-GPS,128.9,39.3,,,0.6,0.3,0.0,0.0,2.4,0.7,-23.75900622,-46.59811793,11,4,97,15.962,0.076,4.022,4.009,3.985,3.946,-0.2,0.2,-3.9,-1.1,-4.2,-157.5,202.5,1024,1024,1024,1024,1443,,,,,
280,29,0m 29s,-23.75900409,-46.5981245,P-GPS,130.2,39.7,,,0.6,0.3,0.0,0.0,2.3,0.7,-23.75900622,-46.59811793,11,4,97,15.962,0.076,4.022,4.009,3.985,3.946,0,0,-4.2,-4.9,-6.9,-157.1,202.9,1024,1024,1024,1024,1359,,,,,
281,29.1,0m 29.1s,-23.75900393,-46.59812446,P-GPS,131.6,40.1,,,0.0,0.0,0.0,0.0,2.3,0.7,-23.75900622,-46.59811793,11,4,97,15.962,0.076,4.022,4.009,3.985,3.946,0,0,-3.7,-9.7,-13.5,-156.2,203.8,1024,1024,1024,1024,1366,,,,,
282,29.2,0m 29.2s,-23.75900361,-46.59812449,P-GPS,132.9,40.5,,,0.0,0.0,1.1,0.5,2.4,0.7,-23.75900622,-46.59811793,11,4,97,15.962,0.076,4.022,4.009,3.985,3.946,0,0,-3.2,-10.7,-16.2,-155.7,204.3,1024,1024,1024,1024,1296,,,,,
283,29.3,0m 29.3s,-23.75900342,-46.59812448,P-GPS,133.9,40.8,,,0.2,0.1,0.0,0.0,2.4,0.7,-23.75900622,-46.59811793,11,4,97,15.962,0.076,4.022,4.009,3.985,3.946,-0.1,0,-2.6,-9.4,-14.8,-156.1,203.9,1024,1024,1024,1024,1233,,,,,
284,29.4,0m 29.4s,-23.75900315,-46.59812446,P-GPS,134.5,41.0,,,0.2,0.1,1.1,0.5,2.5,0.7,-23.75900622,-46.59811793,11,4,97,15.962,0.076,4.022,4.009,3.985,3.946,-0.1,0,-2,-7.7,-13.7,-156.5,203.5,1024,1024,1024,1024,1226,,,,,
285,29.5,0m 29.5s,-23.75900296,-46.59812443,P-GPS,134.8,41.1,,,0.0,0.0,1.1,0.5,2.5,0.8,-23.75900622,-46.59811793,11,4,97,15.962,0.076,4.022,4.009,3.985,3.946,0,0,-1.4,-7,-13.4,-156.6,203.4,1024,1024,1024,1024,1291,,,,,
286,29.6,0m 29.6s,-23.75900263,-46.59812445,P-GPS,135.2,41.2,,,0.0,0.0,1.1,0.5,2.5,0.8,-23.75900622,-46.59811793,11,4,97,15.962,0.076,4.022,4.009,3.985,3.946,0,0,-0.9,-6.9,-12.8,-156.6,203.4,1024,1024,1024,1024,1507,,,,,
