Id,Time(seconds),Time(text),Latitude,Longitude,FlightMode,Altitude(feet),Altitude(meters),VpsAltitude(feet),VpsAltitude(meters),HSpeed(mph),HSpeed(m/s),GpsSpeed(mph),GpsSpeed(m/s),HomeDistance(feet),HomeDistance(meters),HomeLatitude,HomeLongitude,GpsCount,GpsLevel,BatteryPower(%),BatteryVoltage,BatteryVoltageDeviation,BatteryCell1Voltage,BatteryCell2Voltage,BatteryCell3Voltage,BatteryCell4Voltage,VelocityX,VelocityY,VelocityZ,Pitch,Roll,Yaw,Yaw(360),RcAileron,RcElevator,RcGyro,RcRudder,RcThrottle,NonGpsError,GoHomeStatus,AppTip,AppWarning,AppMessage
1,0.3,0m 0.3s,-23.74729853,-46.57527084,Starting Motors,0.0,0.0,0.7,0.2,0.0,0.0,0.0,0.0,9.0,2.8,-23.74728216,-46.57525059,12,4,76,16.261,0.017,4.066,4.055,4.072,4.068,0,0,0,-0.2,-2,-98.2,261.8,0,0,0,0,0,,,,Your aircraft is flying in an Altitude Zone (150 m). Please fly with caution.,
2,0.4,0m 0.4s,-23.74729861,-46.57527091,Starting Motors,0.0,0.0,0.7,0.2,0.0,0.0,0.0,0.0,9.1,2.8,-23.74728216,-46.57525059,12,4,76,16.261,0.017,4.066,4.055,4.072,4.068,0,0,0,-0.2,-2.1,-98.2,261.8,0,0,0,0,0,,,,,
3,0.5,0m 0.5s,-23.74729867,-46.57527098,Starting Motors,0.0,0.0,0.3,0.1,0.0,0.0,0.0,0.0,9.1,2.8,-23.74728216,-46.57525059,12,4,76,16.261,0.017,4.066,4.055,4.072,4.068,0,0,0,-0.1,-2,-98.2,261.8,0,0,0,0,0,,,,,
4,0.6,0m 0.6s,-23.74729875,-46.57527099,Starting Motors,0.0,0.0,0.7,0.2,0.0,0.0,0.0,0.0,9.1,2.8,-23.74728216,-46.57525059,12,4,76,16.261,0.017,4.066,4.055,4.072,4.068,0,0,0,-0.2,-2.1,-98.2,261.8,0,0,0,0,0,,,,,
5,0.7,0m 0.7s,-23.74729882,-46.57527103,Starting Motors,0.0,0.0,0.7,0.2,0.0,0.0,0.0,0.0,9.1,2.8,-23.74728216,-46.57525059,12,4,76,16.261,0.017,4.066,4.055,4.072,4.068,0,0,0,-0.2,-2,-98.2,261.8,0,0,0,0,0,,,,,
6,0.8,0m 0.8s,-23.74729889,-46.575271,Starting Motors,0.0,0.0,0.7,0.2,0.0,0.0,0.0,0.0,9.1,2.8,-23.74728216,-46.57525059,12,4,76,16.261,0.017,4.066,4.055,4.072,4.068,0,0,0,-0.2,-2.1,-98.2,261.8,0,0,0,0,0,,,,,
7,0.9,0m 0.9s,-23.74729897,-46.57527099,Starting Motors,0.0,0.0,0.7,0.2,0.0,0.0,0.0,0.0,9.2,2.8,-23.74728216,-46.57525059,12,4,76,16.261,0.017,4.066,4.055,4.072,4.068,0,0,0,-0.2,-2,-98.2,261.8,0,0,0,0,0,,,,,
8,1,0m 1s,-23.74729903,-46.57527101,Starting Motors,0.0,0.0,0.7,0.2,0.0,0.0,0.0,0.0,9.2,2.8,-23.74728216,-46.57525059,12,4,76,16.261,0.017,4.066,4.055,4.072,4.068,0,0,0,-0.1,-2.1,-98.2,261.8,0,0,0,0,0,,,,,
9,1.1,0m 1.1s,-23.7472991,-46.57527103,Starting Motors,0.0,0.0,0.7,0.2,0.0,0.0,0.0,0.0,9.2,2.8,-23.74728216,-46.57525059,12,4,76,16.261,0.017,4.066,4.055,4.072,4.068,0,0,0,-0.1,-2.1,-98.1,261.9,0,0,0,0,0,,,,,
10,1.2,0m 1.2s,-23.74729916,-46.57527106,Starting Motors,0.0,0.0,0.7,0.2,0.0,0.0,0.0,0.0,9.2,2.8,-23.74728216,-46.57525059,12,4,76,16.261,0.017,4.066,4.055,4.072,4.068,0,0,0,-0.2,-2,-98.2,261.8,0,0,0,0,0,,,,,
11,1.3,0m 1.3s,-23.74729922,-46.57527108,Starting Motors,0.0,0.0,0.7,0.2,0.0,0.0,0.0,0.0,9.2,2.8,-23.74728216,-46.57525059,12,4,76,16.261,0.017,4.066,4.055,4.072,4.068,0,0,0,-0.2,-2,-98.2,261.8,0,0,0,0,0,,,,,
12,1.4,0m 1.4s,-23.74729928,-46.57527109,Starting Motors,0.0,0.0,0.7,0.2,0.0,0.0,0.0,0.0,9.3,2.8,-23.74728216,-46.57525059,12,4,76,16.261,0.017,4.066,4.055,4.072,4.068,0,0,0,-0.1,-2.1,-98.2,261.8,0,0,0,0,0,,,,,
13,1.5,0m 1.5s,-23.74729934,-46.5752711,Starting Motors,0.0,0.0,0.7,0.2,0.0,0.0,0.0,0.0,9.3,2.8,-23.74728216,-46.57525059,12,4,76,16.261,0.017,4.066,4.055,4.072,4.068,0,0,0,-0.1,-2.1,-98.1,261.9,0,0,0,0,0,,,,,
14,1.6,0m 1.6s,-23.74729939,-46.57527113,Auto Takeoff,0.0,0.0,0.3,0.1,0.0,0.0,1.1,0.5,9.3,2.8,-23.74728216,-46.57525059,12,4,76,16.261,0.017,4.066,4.055,4.072,4.068,0,0,0,-0.1,-2.1,-98.1,261.9,0,0,0,0,0,,,,,
15,1.7,0m 1.7s,-23.74729943,-46.57527116,Auto Takeoff,0.0,0.0,0.3,0.1,0.0,0.0,0.0,0.0,9.3,2.8,-23.74728216,-46.57525059,12,4,76,16.261,0.017,4.066,4.055,4.072,4.068,0,0,0,-0.2,-2,-98.2,261.8,0,0,0,0,0,,,,,
16,1.8,0m 1.8s,-23.74729945,-46.57527121,Auto Takeoff,0.0,0.0,0.3,0.1,0.0,0.0,0.0,0.0,9.3,2.8,-23.74728216,-46.57525059,12,4,76,16.261,0.017,4.066,4.055,4.072,4.068,0,0,0,-0.1,-2,-98.1,261.9,0,0,0,0,0,,,,,
17,1.9,0m 1.9s,-23.74729947,-46.57527125,Auto Takeoff,0.0,0.0,0.3,0.1,0.0,0.0,0.0,0.0,9.4,2.9,-23.74728216,-46.57525059,12,4,76,16.261,0.017,4.066,4.055,4.072,4.068,0,0,0,-0.2,-2,-98.1,261.9,0,0,0,0,0,,,,,
18,2,0m 2s,-23.7472995,-46.5752713,Auto Takeoff,0.0,0.0,0.3,0.1,0.0,0.0,0.0,0.0,9.4,2.9,-23.74728216,-46.57525059,12,4,76,16.261,0.017,4.066,4.055,4.072,4.068,0,0,0,-0.1,-2,-98.2,261.8,0,0,0,0,0,,,,,
19,2.1,0m 2.1s,-23.74729953,-46.57527135,Auto Takeoff,0.0,0.0,0.3,0.1,0.0,0.0,0.0,0.0,9.4,2.9,-23.74728216,-46.57525059,12,4,76,16.261,0.017,4.066,4.055,4.072,4.068,0,0,0,0,-2.1,-98.3,261.7,0,0,0,0,0,,,,,
20,2.2,0m 2.2s,-23.74729958,-46.57527141,Auto Takeoff,0.0,0.0,0.3,0.1,0.0,0.0,0.0,0.0,9.4,2.9,-23.74728216,-46.57525059,12,4,76,16.261,0.017,4.066,4.055,4.072,4.068,0,0,0,0,-2,-98.1,261.9,0,0,0,0,0,,,,,
21,2.3,0m 2.3s,-23.7472996,-46.57527145,Auto Takeoff,0.0,0.0,0.3,0.1,0.0,0.0,0.0,0.0,9.4,2.9,-23.74728216,-46.57525059,12,4,76,16.181,0.018,4.038,4.041,4.056,4.046,0,0,0,0.2,-2,-98.3,261.7,0,0,0,0,0,,,,,
22,2.4,0m 2.4s,-23.74729963,-46.57527147,Auto Takeoff,0.0,0.0,0.3,0.1,0.0,0.0,0.0,0.0,9.4,2.9,-23.74728216,-46.57525059,12,4,76,16.181,0.018,4.038,4.041,4.056,4.046,0,0,0,0.8,-1.5,-98.3,261.7,0,0,0,0,0,,,,,
23,2.5,0m 2.5s,-23.74729967,-46.57527145,Auto Takeoff,0.0,0.0,0.3,0.1,0.0,0.0,0.0,0.0,9.5,2.9,-23.74728216,-46.57525059,12,4,76,16.181,0.018,4.038,4.041,4.056,4.046,0,0,-0.1,1.2,-0.4,-98.1,261.9,0,0,0,0,0,,,,,
24,2.6,0m 2.6s,-23.74729973,-46.57527139,Auto Takeoff,0.0,0.0,0.3,0.1,0.0,0.0,1.1,0.5,9.5,2.9,-23.74728216,-46.57525059,12,4,76,16.181,0.018,4.038,4.041,4.056,4.046,0,0,-0.2,1.3,0,-98.1,261.9,0,0,0,0,0,,,,,
25,2.7,0m 2.7s,-23.74729977,-46.57527127,Auto Takeoff,0.0,0.0,0.7,0.2,0.2,0.1,0.0,0.0,9.4,2.9,-23.74728216,-46.57525059,12,4,76,16.181,0.018,4.038,4.041,4.056,4.046,0,0.1,-0.4,0.2,0.3,-98.2,261.8,0,0,0,0,0,,,,,
26,2.8,0m 2.8s,-23.7472998,-46.57527115,Auto Takeoff,0.0,0.0,0.7,0.2,0.2,0.1,0.0,0.0,9.4,2.9,-23.74728216,-46.57525059,12,4,76,16.181,0.018,4.038,4.041,4.056,4.046,0,0.1,-0.5,-0.3,0.4,-98.1,261.9,0,0,0,0,0,,,,,
27,2.9,0m 2.9s,-23.74729979,-46.575271,Auto Takeoff,0.3,0.1,1.0,0.3,0.2,0.1,0.0,0.0,9.4,2.9,-23.74728216,-46.57525059,12,4,76,16.181,0.018,4.038,4.041,4.056,4.046,0,0.1,-0.6,-0.7,0.3,-98.2,261.8,0,0,0,0,0,,,,,
28,3,0m 3s,-23.74729973,-46.57527084,Auto Takeoff,0.7,0.2,1.0,0.3,0.2,0.1,0.0,0.0,9.3,2.8,-23.74728216,-46.57525059,12,4,76,16.181,0.018,4.038,4.041,4.056,4.046,0,0.1,-0.6,-1.1,0,-98.2,261.8,0,0,0,0,0,,,,,
29,3.1,0m 3.1s,-23.74729968,-46.57527065,Auto Takeoff,0.7,0.2,1.3,0.4,0.2,0.1,0.0,0.0,9.3,2.8,-23.74728216,-46.57525059,12,4,76,16.181,0.018,4.038,4.041,4.056,4.046,0,0.1,-0.6,-1.4,-0.1,-98.2,261.8,0,0,0,0,0,,,,,
30,3.2,0m 3.2s,-23.74729968,-46.57527049,Auto Takeoff,1.0,0.3,1.3,0.4,0.2,0.1,1.1,0.5,9.2,2.8,-23.74728216,-46.57525059,12,4,76,16.181,0.018,4.038,4.041,4.056,4.046,0,0.1,-0.5,-1.9,-0.1,-98.2,261.8,0,0,0,0,0,,,,,
31,3.3,0m 3.3s,-23.74729969,-46.57527034,Auto Takeoff,1.0,0.3,1.6,0.5,0.0,0.0,0.0,0.0,0.4,0.1,-23.74729968,-46.57527144,12,4,76,16.181,0.018,4.038,4.041,4.056,4.046,0,0,-0.4,-2.1,-0.3,-98.1,261.9,0,0,0,0,0,,,Home Point recorded. Return-to-Home Altitude:80M,,Home Point Updated
32,3.4,0m 3.4s,-23.74729972,-46.57527026,Auto Takeoff,1.3,0.4,2.0,0.6,0.0,0.0,0.0,0.0,0.4,0.1,-23.74729968,-46.57527144,12,4,76,16.181,0.018,4.038,4.041,4.056,4.046,0,0,-0.4,-1.9,-0.5,-98.2,261.8,0,0,0,0,0,,,,,
33,3.5,0m 3.5s,-23.74729975,-46.57527019,Auto Takeoff,1.3,0.4,2.0,0.6,0.0,0.0,0.0,0.0,0.4,0.1,-23.74729968,-46.57527144,12,4,76,16.181,0.018,4.038,4.041,4.056,4.046,0,0,-0.4,-1.9,-0.5,-98.2,261.8,0,0,0,0,0,,,,,
34,3.6,0m 3.6s,-23.74729978,-46.57527013,Auto Takeoff,1.6,0.5,2.3,0.7,0.0,0.0,0.0,0.0,0.4,0.1,-23.74729968,-46.57527144,13,4,76,16.181,0.018,4.038,4.041,4.056,4.046,0,0,-0.4,-1.9,-0.5,-98.2,261.8,0,0,0,0,0,,,,,
35,3.7,0m 3.7s,-23.74729982,-46.57527009,Auto Takeoff,1.6,0.5,2.3,0.7,0.0,0.0,1.1,0.5,0.4,0.1,-23.74729968,-46.57527144,12,4,76,16.181,0.018,4.038,4.041,4.056,4.046,0,0,-0.4,-1.9,-0.4,-98.2,261.8,0,0,0,0,0,,,,,
36,3.8,0m 3.8s,-23.7472999,-46.57527002,Auto Takeoff,2.0,0.6,2.6,0.8,0.0,0.0,0.0,0.0,0.5,0.2,-23.74729968,-46.57527144,12,4,76,16.181,0.018,4.038,4.041,4.056,4.046,0,0,-0.5,-2.2,-0.6,-98.3,261.7,0,0,0,0,0,,,,,
37,3.9,0m 3.9s,-23.74729997,-46.57526998,Auto Takeoff,2.0,0.6,2.6,0.8,0.0,0.0,0.0,0.0,0.5,0.2,-23.74729968,-46.57527144,12,4,76,16.181,0.018,4.038,4.041,4.056,4.046,0,0,-0.5,-2.3,-0.5,-98.2,261.8,0,0,0,0,0,,,,,
38,4,0m 4s,-23.74730007,-46.57526993,Auto Takeoff,2.3,0.7,3.0,0.9,0.0,0.0,0.0,0.0,0.5,0.2,-23.74729968,-46.57527144,12,4,76,16.181,0.018,4.038,4.041,4.056,4.046,0,0,-0.5,-2.1,-0.1,-98.3,261.7,0,0,0,0,0,,,,,
39,4.1,0m 4.1s,-23.74730016,-46.57526991,Auto Takeoff,2.3,0.7,3.0,0.9,0.0,0.0,0.0,0.0,0.5,0.2,-23.74729968,-46.57527144,12,4,76,16.181,0.018,4.038,4.041,4.056,4.046,0,0,-0.5,-1.8,-0.1,-98.3,261.7,1024,1024,1024,1024,1025,,,,,
40,4.2,0m 4.2s,-23.74730024,-46.57526994,Auto Takeoff,2.6,0.8,3.3,1.0,0.0,0.0,0.0,0.0,0.5,0.2,-23.74729968,-46.57527144,12,4,76,16.181,0.018,4.038,4.041,4.056,4.046,0,0,-0.5,-1.5,-0.4,-98.3,261.7,1024,1024,1024,1024,1079,,,,,
41,4.3,0m 4.3s,-23.74730032,-46.57526998,Auto Takeoff,2.6,0.8,3.3,1.0,0.0,0.0,0.0,0.0,0.5,0.2,-23.74729968,-46.57527144,12,4,76,15.919,0.022,3.976,3.971,3.993,3.979,0,0,-0.5,-1.5,-0.5,-98.2,261.8,1024,1024,1024,1024,1222,,,,,
42,4.4,0m 4.4s,-23.74730039,-46.57527003,Auto Takeoff,3.0,0.9,3.6,1.1,0.0,0.0,0.0,0.0,0.5,0.2,-23.74729968,-46.57527144,12,4,76,15.919,0.022,3.976,3.971,3.993,3.979,0,0,-0.5,-1.5,-0.1,-98.3,261.7,1024,1024,1024,1024,1343,,,,,
43,4.5,0m 4.5s,-23.74730046,-46.5752701,P-GPS,3.3,1.0,3.6,1.1,0.0,0.0,0.0,0.0,0.4,0.1,-23.74729968,-46.57527144,12,4,76,15.919,0.022,3.976,3.971,3.993,3.979,0,0,-0.4,-1.5,0,-98.2,261.8,1024,1024,1024,1024,1413,,,,,
44,4.6,0m 4.6s,-23.74730052,-46.57527019,P-GPS,3.3,1.0,3.9,1.2,0.0,0.0,0.0,0.0,0.5,0.2,-23.74729968,-46.57527144,12,4,76,15.919,0.022,3.976,3.971,3.993,3.979,0,0,-0.4,-1.1,-0.2,-98.4,261.6,1024,1024,1024,1024,1471,,,,,
45,4.7,0m 4.7s,-23.74730059,-46.57527031,P-GPS,3.3,1.0,3.9,1.2,0.0,0.0,0.0,0.0,0.5,0.2,-23.74729968,-46.57527144,11,4,76,15.919,0.022,3.976,3.971,3.993,3.979,0,0,-0.5,-0.9,-0.4,-98.5,261.5,1024,1024,1024,1024,1474,,,,,
46,4.8,0m 4.8s,-23.7473006,-46.57527038,P-GPS,3.6,1.1,4.3,1.3,0.0,0.0,0.0,0.0,0.5,0.2,-23.74729968,-46.57527144,11,4,76,15.919,0.022,3.976,3.971,3.993,3.979,0,0,-0.7,-1,-0.6,-98.7,261.3,1024,1024,1024,1024,1447,,,,,
47,4.9,0m 4.9s,-23.74730063,-46.57527044,P-GPS,3.9,1.2,4.6,1.4,0.0,0.0,1.1,0.5,0.4,0.1,-23.74729968,-46.57527144,10,4,76,15.919,0.022,3.976,3.971,3.993,3.979,0,0,-0.8,-1.3,-0.5,-98.7,261.3,1024,1024,1024,1024,1464,,,,,
48,5,0m 5s,-23.7473007,-46.57527052,P-GPS,4.3,1.3,4.9,1.5,0.0,0.0,0.0,0.0,0.5,0.2,-23.74729968,-46.57527144,10,4,76,15.919,0.022,3.976,3.971,3.993,3.979,0,0,-1,-1.1,0.3,-98.7,261.3,1024,1024,1024,1024,1494,,,,,
49,5.1,0m 5.1s,-23.74730077,-46.57527062,P-GPS,4.6,1.4,5.2,1.6,0.0,0.0,0.0,0.0,0.5,0.2,-23.74729968,-46.57527144,12,4,76,15.919,0.022,3.976,3.971,3.993,3.979,0,0,-1.1,-0.4,0.8,-98.7,261.3,1024,1024,1024,1024,1602,,,,,
50,5.4,0m 5.4s,-23.74730095,-46.57527084,P-GPS,5.9,1.8,6.6,2.0,0.0,0.0,0.5,0.2,0.4,0.1,-23.74729968,-46.57527144,12,4,76,15.919,0.022,3.976,3.971,3.993,3.979,0,0,-1.8,-0.3,-0.6,-98.7,261.3,1024,1024,1024,1024,1684,,,,,
51,5.5,0m 5.5s,-23.74730101,-46.5752709,P-GPS,6.6,2.0,7.2,2.2,0.0,0.0,0.0,0.0,0.4,0.1,-23.74729968,-46.57527144,11,4,76,15.919,0.022,3.976,3.971,3.993,3.979,0,0,-2.3,-0.5,0,-98.7,261.3,1024,1024,1024,1024,1684,,,,,
52,5.6,0m 5.6s,-23.74730104,-46.57527096,P-GPS,7.5,2.3,8.2,2.5,0.0,0.0,0.0,0.0,0.5,0.2,-23.74729968,-46.57527144,11,4,76,15.919,0.022,3.976,3.971,3.993,3.979,0,0,-2.9,0,0.5,-98.5,261.5,1024,1024,1024,1024,1684,,,,,
53,5.7,0m 5.7s,-23.74730105,-46.57527096,P-GPS,8.5,2.6,9.2,2.8,0.0,0.0,0.0,0.0,0.5,0.2,-23.74729968,-46.57527144,10,4,76,15.919,0.022,3.976,3.971,3.993,3.979,0,0,-3.6,0.2,0.2,-98.2,261.8,1024,1024,1024,1024,1684,,,,,
54,5.8,0m 5.8s,-23.74730104,-46.57527094,P-GPS,9.8,3.0,10.2,3.1,0.0,0.0,1.5,0.7,0.5,0.2,-23.74729968,-46.57527144,10,4,76,15.919,0.022,3.976,3.971,3.993,3.979,0,0,-4.1,-0.8,-0.1,-98,262,1024,1024,1024,1024,1684,,,,,
55,5.9,0m 5.9s,-23.74730102,-46.5752709,P-GPS,11.5,3.5,11.8,3.6,0.0,0.0,1.1,0.5,0.4,0.1,-23.74729968,-46.57527144,11,4,76,15.919,0.022,3.976,3.971,3.993,3.979,0,0,-4.5,-1.4,-1.2,-97.8,262.2,1024,1024,1024,1024,1684,,,,,
56,6,0m 6s,-23.74730103,-46.57527097,P-GPS,12.8,3.9,13.1,4.0,0.2,0.1,1.1,0.5,0.4,0.1,-23.74729968,-46.57527144,11,4,76,15.919,0.022,3.976,3.971,3.993,3.979,0,-0.1,-4.8,-0.5,-2.3,-97.9,262.1,1024,1024,1024,1024,1684,,,,,
57,6.1,0m 6.1s,-23.74730109,-46.57527107,P-GPS,14.4,4.4,14.8,4.5,0.2,0.1,0.0,0.0,0.4,0.1,-23.74729968,-46.57527144,13,4,76,15.919,0.022,3.976,3.971,3.993,3.979,0,-0.1,-5,0.6,-1,-97.9,262.1,1024,1024,1024,1024,1684,,,,,
58,6.2,0m 6.2s,-23.74730127,-46.57527148,P-GPS,16.1,4.9,16.1,4.9,0.2,0.1,0.0,0.0,0.5,0.2,-23.74729968,-46.57527144,13,4,76,15.919,0.022,3.976,3.971,3.993,3.979,0,-0.1,-5.1,2.1,-0.1,-98,262,1024,1024,1024,1008,1684,,,,,
59,6.3,0m 6.3s,-23.74730142,-46.57527179,P-GPS,18.0,5.5,17.7,5.4,0.0,0.0,1.5,0.7,0.6,0.2,-23.74729968,-46.57527144,13,4,76,15.592,0.022,3.9,3.89,3.912,3.89,0,0,-5.1,1.9,-0.4,-98,262,1024,1024,1024,1008,1667,,,,,
60,6.4,0m 6.4s,-23.74730159,-46.57527214,P-GPS,19.7,6.0,19.4,5.9,0.0,0.0,0.0,0.0,0.8,0.2,-23.74729968,-46.57527144,13,4,76,15.592,0.022,3.9,3.89,3.912,3.89,0,0,-5.1,0.7,1,-98.1,261.9,1024,1024,1024,1007,1664,,,,,
61,6.5,0m 6.5s,-23.7473017,-46.57527245,P-GPS,21.3,6.5,21.0,6.4,0.0,0.0,1.5,0.7,0.8,0.3,-23.74729968,-46.57527144,13,4,76,15.592,0.022,3.9,3.89,3.912,3.89,0,0,-5.1,0.7,0.2,-98.1,261.9,1024,1024,1024,1024,1627,,,,,
62,6.6,0m 6.6s,-23.74730183,-46.57527277,P-GPS,23.0,7.0,22.6,6.9,0.2,0.1,0.0,0.0,0.9,0.3,-23.74729968,-46.57527144,13,4,76,15.592,0.022,3.9,3.89,3.912,3.89,0.1,0,-4.8,0.8,-2.1,-98.2,261.8,1024,1024,1024,1024,1604,,,,,
63,6.7,0m 6.7s,-23.74730192,-46.57527306,P-GPS,24.6,7.5,24.3,7.4,0.0,0.0,1.5,0.7,1.0,0.3,-23.74729968,-46.57527144,13,4,76,15.592,0.022,3.9,3.89,3.912,3.89,0,0,-4.7,0.4,-3,-98,262,1024,1024,1024,1024,1531,,,,,
64,6.8,0m 6.8s,-23.74730197,-46.57527336,P-GPS,25.9,7.9,25.6,7.8,0.0,0.0,0.0,0.0,1.0,0.3,-23.74729968,-46.57527144,13,4,76,15.592,0.022,3.9,3.89,3.912,3.89,0,0,-4.2,-0.6,-3.3,-98,262,1024,1024,1024,1024,1496,,,,,
65,6.9,0m 6.9s,-23.74730201,-46.57527365,P-GPS,27.2,8.3,26.9,8.2,0.0,0.0,1.1,0.5,1.2,0.4,-23.74729968,-46.57527144,13,4,76,15.592,0.022,3.9,3.89,3.912,3.89,0,0,-3.7,-0.1,-2.8,-97.9,262.1,1024,1024,1024,1024,1471,,,,,
66,7,0m 7s,-23.74730204,-46.57527377,P-GPS,28.5,8.7,27.9,8.5,0.0,0.0,0.0,0.0,1.2,0.4,-23.74729968,-46.57527144,13,4,76,15.592,0.022,3.9,3.89,3.912,3.89,0,0,-3.1,-0.2,-3.3,-98,262,1024,1024,1024,1024,1475,,,,,
67,7.1,0m 7.1s,-23.74730204,-46.57527394,P-GPS,29.5,9.0,28.9,8.8,0.2,0.1,0.0,0.0,1.2,0.4,-23.74729968,-46.57527144,13,4,76,15.592,0.022,3.9,3.89,3.912,3.89,0.1,0,-2.4,0,-3.9,-98,262,1024,1024,1024,1024,1505,,,,,
68,7.2,0m 7.2s,-23.74730197,-46.57527392,P-GPS,30.2,9.2,29.5,9.0,0.2,0.1,0.0,0.0,1.2,0.4,-23.74729968,-46.57527144,13,4,76,15.592,0.022,3.9,3.89,3.912,3.89,0.1,0,-1.9,0.3,-3.8,-98,262,1024,1024,1024,1024,1552,,,,,
69,7.3,0m 7.3s,-23.74730191,-46.57527401,P-GPS,30.5,9.3,29.9,9.1,0.2,0.1,0.0,0.0,1.2,0.4,-23.74729968,-46.57527144,13,4,76,15.592,0.022,3.9,3.89,3.912,3.89,0.1,0,-1.6,0,-3.3,-97.9,262.1,1024,1024,1024,1024,1586,,,,,
70,7.4,0m 7.4s,-23.7473018,-46.57527406,P-GPS,31.2,9.5,30.5,9.3,0.3,0.1,1.1,0.5,1.2,0.4,-23.74729968,-46.57527144,13,4,76,15.592,0.022,3.9,3.89,3.912,3.89,0.1,-0.1,-1.6,0.2,-3.4,-97.7,262.3,1024,1024,1024,1024,1594,,,,,
71,7.5,0m 7.5s,-23.74730172,-46.57527423,P-GPS,31.5,9.6,30.8,9.4,0.3,0.1,0.0,0.0,1.2,0.4,-23.74729968,-46.57527144,13,4,76,15.592,0.022,3.9,3.89,3.912,3.89,0.1,-0.1,-1.7,1.6,-3,-97.7,262.3,1024,1024,1024,1024,1619,,,,,
72,7.6,0m 7.6s,-23.7473016,-46.57527429,P-GPS,32.2,9.8,31.5,9.6,0.5,0.2,0.0,0.0,1.2,0.4,-23.74729968,-46.57527144,13,4,76,15.592,0.022,3.9,3.89,3.912,3.89,0.2,-0.1,-2,2.6,-3.3,-97.7,262.3,1024,1024,1024,1024,1641,,,,,
73,7.7,0m 7.7s,-23.74730145,-46.57527433,P-GPS,33.1,10.1,32.5,9.9,0.5,0.2,1.1,0.5,1.2,0.4,-23.74729968,-46.57527144,13,4,76,15.592,0.022,3.9,3.89,3.912,3.89,0.2,-0.1,-2.3,2.2,-5.5,-97.7,262.3,1024,1024,1024,1024,1661,,,,,
74,7.8,0m 7.8s,-23.74730133,-46.57527439,P-GPS,33.8,10.3,33.1,10.1,0.2,0.1,0.0,0.0,1.2,0.4,-23.74729968,-46.57527144,13,4,76,15.592,0.022,3.9,3.89,3.912,3.89,0.1,0,-2.8,0.6,-6.5,-98,262,1024,1024,1024,1024,1651,,,,,
75,7.9,0m 7.9s,-23.74730129,-46.57527436,P-GPS,34.8,10.6,34.1,10.4,0.2,0.1,0.0,0.0,1.1,0.3,-23.74729968,-46.57527144,13,4,76,15.592,0.022,3.9,3.89,3.912,3.89,0,-0.1,-3.3,0.7,-5.6,-98.2,261.8,1024,1024,1024,1024,1646,,,,,
76,8,0m 8s,-23.74730137,-46.5752744,P-GPS,36.1,11.0,35.1,10.7,0.2,0.1,0.0,0.0,1.1,0.3,-23.74729968,-46.57527144,13,4,76,15.592,0.022,3.9,3.89,3.912,3.89,0,-0.1,-3.7,2.2,-5,-98.2,261.8,1024,1024,1024,1024,1627,,,,,
77,8.1,0m 8.1s,-23.7473015,-46.57527444,P-GPS,37.4,11.4,36.4,11.1,0.2,0.1,0.0,0.0,1.2,0.4,-23.74729968,-46.57527144,13,4,76,15.592,0.022,3.9,3.89,3.912,3.89,0,-0.1,-3.9,3.3,-6.4,-98.3,261.7,1024,1024,1024,1024,1628,,,,,
78,8.2,0m 8.2s,-23.74730179,-46.57527433,P-GPS,38.7,11.8,37.4,11.4,0.2,0.1,0.0,0.0,1.2,0.4,-23.74729968,-46.57527144,13,4,76,15.592,0.022,3.9,3.89,3.912,3.89,-0.1,0,-4,2.9,-4.4,-98.2,261.8,1024,1024,1024,1024,1653,,,,,
79,8.3,0m 8.3s,-23.74730213,-46.57527427,P-GPS,40.0,12.2,38.7,11.8,0.2,0.1,0.0,0.0,1.2,0.4,-23.74729968,-46.57527144,13,4,76,15.855,0.05,3.939,3.941,3.989,3.986,-0.1,0,-3.9,2.6,-1.7,-98.2,261.8,1024,1024,1024,1024,1660,,,,,
80,8.4,0m 8.4s,-23.74730246,-46.57527405,P-GPS,41.3,12.6,40.0,12.2,0.0,0.0,0.0,0.0,1.4,0.4,-23.74729968,-46.57527144,13,4,76,15.855,0.05,3.939,3.941,3.989,3.986,0,0,-3.9,1.3,-1.3,-98.1,261.9,1024,1024,1024,1024,1660,,,,,
81,8.5,0m 8.5s,-23.74730276,-46.57527393,P-GPS,42.7,13.0,41.3,12.6,0.0,0.0,0.0,0.0,1.4,0.4,-23.74729968,-46.57527144,13,4,76,15.855,0.05,3.939,3.941,3.989,3.986,0,0,-4.1,0.7,-1.2,-98.1,261.9,1024,1024,1024,1024,1669,,,,,
82,8.6,0m 8.6s,-23.74730306,-46.57527374,P-GPS,44.0,13.4,42.7,13.0,0.0,0.0,0.0,0.0,1.4,0.4,-23.74729968,-46.57527144,13,4,76,15.855,0.05,3.939,3.941,3.989,3.986,0,0,-4.3,0.8,-2,-98,262,1024,1024,1024,1024,1668,,,,,
83,8.7,0m 8.7s,-23.74730335,-46.57527367,P-GPS,45.6,13.9,44.0,13.4,0.2,0.1,1.1,0.5,1.5,0.5,-23.74729968,-46.57527144,13,4,76,15.855,0.05,3.939,3.941,3.989,3.986,0,-0.1,-4.4,1.8,-2.9,-98.1,261.9,1024,1024,1024,1024,1668,,,,,
84,8.8,0m 8.8s,-23.74730363,-46.57527361,P-GPS,46.9,14.3,45.3,13.8,0.2,0.1,0.0,0.0,1.6,0.5,-23.74729968,-46.57527144,13,4,76,15.855,0.05,3.939,3.941,3.989,3.986,0,-0.1,-4.5,2.6,-1.6,-98.1,261.9,1024,1024,1024,1024,1648,,,,,
85,8.9,0m 8.9s,-23.74730392,-46.57527357,P-GPS,48.6,14.8,46.9,14.3,0.2,0.1,0.0,0.0,1.6,0.5,-23.74729968,-46.57527144,13,4,76,15.855,0.05,3.939,3.941,3.989,3.986,0,-0.1,-4.6,2.8,-1.5,-98.2,261.8,1024,1024,1024,1024,1640,,,,,
86,9,0m 9s,-23.74730418,-46.57527359,P-GPS,50.2,15.3,48.2,14.7,0.2,0.1,1.1,0.5,1.8,0.5,-23.74729968,-46.57527144,13,4,76,15.855,0.05,3.939,3.941,3.989,3.986,0,-0.1,-4.5,4.1,-2.2,-98.2,261.8,1024,1024,1024,1024,1634,,,,,
87,9.2,0m 9.2s,-23.74730457,-46.57527361,P-GPS,53.1,16.2,50.9,15.5,0.2,0.1,0.0,0.0,1.9,0.6,-23.74729968,-46.57527144,13,4,76,15.855,0.05,3.939,3.941,3.989,3.986,0,-0.1,-4.2,5.3,-3.7,-98.3,261.7,1024,1024,1024,1024,1639,,,,,
88,9.3,0m 9.3s,-23.74730473,-46.57527359,P-GPS,54.5,16.6,,,0.2,0.1,0.7,0.3,2.0,0.6,-23.74729968,-46.57527144,13,4,76,15.559,0.066,3.858,3.863,3.924,3.914,0,-0.1,-4.1,4.3,-4,-98.3,261.7,1024,1024,1024,1024,1628,,,,,
89,9.4,0m 9.4s,-23.7473049,-46.57527352,P-GPS,55.8,17.0,,,0.2,0.1,0.0,0.0,2.0,0.6,-23.74729968,-46.57527144,13,4,76,15.559,0.066,3.858,3.863,3.924,3.914,0,-0.1,-4,3.6,-4.6,-98.2,261.8,1024,1024,1024,1024,1620,,,,,
90,9.5,0m 9.5s,-23.74730508,-46.57527349,P-GPS,57.1,17.4,,,0.2,0.1,1.1,0.5,2.1,0.6,-23.74729968,-46.57527144,13,4,76,15.559,0.066,3.858,3.863,3.924,3.914,0,-0.1,-3.9,4,-4.8,-98.1,261.9,1024,1024,1024,1024,1612,,,,,
91,9.6,0m 9.6s,-23.74730529,-46.57527341,P-GPS,58.4,17.8,,,0.2,0.1,0.0,0.0,2.1,0.7,-23.74729968,-46.57527144,13,4,76,15.559,0.066,3.858,3.863,3.924,3.914,0,-0.1,-3.8,4.2,-4.6,-98.2,261.8,1024,1024,1024,1024,1606,,,,,
92,9.7,0m 9.7s,-23.74730552,-46.57527334,P-GPS,59.4,18.1,,,0.2,0.1,1.1,0.5,2.2,0.7,-23.74729968,-46.57527144,13,4,76,15.559,0.066,3.858,3.863,3.924,3.914,0,-0.1,-3.6,4.4,-3.7,-98.3,261.7,1024,1024,1024,1024,1607,,,,,
93,9.8,0m 9.8s,-23.74730576,-46.57527331,P-GPS,60.7,18.5,,,0.0,0.0,1.1,0.5,2.3,0.7,-23.74729968,-46.57527144,13,4,76,15.559,0.066,3.858,3.863,3.924,3.914,0,0,-3.5,3.5,-2.2,-98.3,261.7,1024,1024,1024,1024,1609,,,,,
94,9.9,0m 9.9s,-23.74730599,-46.57527326,P-GPS,61.7,18.8,,,0.0,0.0,0.0,0.0,2.4,0.7,-23.74729968,-46.57527144,13,4,76,15.559,0.066,3.858,3.863,3.924,3.914,0,-0.1,-3.5,3.9,-2.5,-98.3,261.7,1024,1024,1024,1024,1607,,,,,
95,10,0m 10s,-23.7473062,-46.57527329,P-GPS,63.0,19.2,,,0.2,0.1,0.0,0.0,2.5,0.7,-23.74729968,-46.57527144,13,4,76,15.559,0.066,3.858,3.863,3.924,3.914,0,-0.1,-3.4,5.5,-3.6,-98.3,261.7,1024,1024,1024,1024,1591,,,,,
96,10.1,0m 10.1s,-23.7473064,-46.57527332,P-GPS,64.0,19.5,,,0.2,0.1,0.0,0.0,2.5,0.8,-23.74729968,-46.57527144,13,4,76,15.559,0.066,3.858,3.863,3.924,3.914,0,-0.1,-3.3,6.4,-3.9,-98.3,261.7,1024,1024,1024,1024,1559,,,,,
97,10.2,0m 10.2s,-23.74730656,-46.57527338,P-GPS,65.0,19.8,,,0.2,0.1,0.0,0.0,2.6,0.8,-23.74729968,-46.57527144,13,4,76,15.559,0.066,3.858,3.863,3.924,3.914,0,-0.1,-3.1,7.5,-4.6,-98.5,261.5,1024,1024,1024,1024,1563,,,,,
98,10.3,0m 10.3s,-23.7473067,-46.57527343,P-GPS,65.9,20.1,,,0.2,0.1,0.0,0.0,2.6,0.8,-23.74729968,-46.57527144,13,4,76,15.68,0.065,3.89,3.907,3.955,3.928,0,-0.1,-2.7,8.4,-4.4,-98.4,261.6,1024,1024,1024,1024,1568,,,,,
99,10.4,0m 10.4s,-23.74730687,-46.57527334,P-GPS,66.9,20.4,,,0.0,0.0,0.0,0.0,2.7,0.8,-23.74729968,-46.57527144,13,4,76,15.68,0.065,3.89,3.907,3.955,3.928,0,0,-2.5,5.6,-3.8,-98.3,261.7,1024,1024,1024,1024,1561,,,,,
100,10.5,0m 10.5s,-23.74730704,-46.57527319,P-GPS,67.6,20.6,,,0.0,0.0,1.1,0.5,2.7,0.8,-23.74729968,-46.57527144,13,4,76,15.68,0.065,3.89,3.907,3.955,3.928,0,0,-2.5,4.1,-2.7,-98.1,261.9,1024,1024,1024,1024,1572,,,,,
101,10.6,0m 10.6s,-23.7473072,-46.57527304,P-GPS,68.6,20.9,,,0.0,0.0,0.0,0.0,2.8,0.9,-23.74729968,-46.57527144,13,4,76,15.68,0.065,3.89,3.907,3.955,3.928,0,0,-2.4,4.3,-1.9,-98.2,261.8,1024,1024,1024,1024,1574,,,,,
102,10.7,0m 10.7s,-23.74730731,-46.57527291,P-GPS,69.2,21.1,,,0.0,0.0,1.1,0.5,2.8,0.9,-23.74729968,-46.57527144,13,4,76,15.68,0.065,3.89,3.907,3.955,3.928,0,0,-2.4,3.9,-1.9,-98.3,261.7,1024,1024,364,1024,1574,,,,,
103,10.8,0m 10.8s,-23.7473074,-46.57527266,P-GPS,70.2,21.4,,,0.0,0.0,0.0,0.0,2.9,0.9,-23.74729968,-46.57527144,13,4,76,15.68,0.065,3.89,3.907,3.955,3.928,0,0,-2.4,3.4,-1.8,-98.3,261.7,1024,1024,364,1024,1565,,,,,
104,10.9,0m 10.9s,-23.74730741,-46.57527251,P-GPS,70.9,21.6,,,0.0,0.0,0.0,0.0,2.8,0.9,-23.74729968,-46.57527144,13,4,76,15.68,0.065,3.89,3.907,3.955,3.928,0,0,-2.5,3.4,-2.6,-98.3,261.7,1024,1024,364,1024,1566,,,,,
105,11,0m 11s,-23.74730745,-46.57527225,P-GPS,71.9,21.9,,,0.0,0.0,0.0,0.0,2.9,0.9,-23.74729968,-46.57527144,13,4,76,15.68,0.065,3.89,3.907,3.955,3.928,0,0,-2.4,4,-3.8,-98.3,261.7,1024,1024,364,1024,1566,,,,,
106,11.1,0m 11.1s,-23.74730743,-46.57527208,P-GPS,72.5,22.1,,,0.0,0.0,0.0,0.0,2.9,0.9,-23.74729968,-46.57527144,13,4,76,15.68,0.065,3.89,3.907,3.955,3.928,0,0,-2.4,3.5,-3.7,-98.2,261.8,1024,1024,364,1024,1565,,,,,
107,11.2,0m 11.2s,-23.74730743,-46.57527185,P-GPS,73.5,22.4,,,0.0,0.0,0.0,0.0,2.8,0.9,-23.74729968,-46.57527144,13,4,76,15.68,0.065,3.89,3.907,3.955,3.928,0,0,-2.5,2.6,-4.3,-98.3,261.7,1024,1024,364,1024,1567,,,,,
108,11.3,0m 11.3s,-23.7473074,-46.57527171,P-GPS,74.5,22.7,,,0.0,0.0,0.0,0.0,2.8,0.9,-23.74729968,-46.57527144,13,4,76,15.68,0.065,3.89,3.907,3.955,3.928,0,0,-2.5,2.6,-4.7,-98.1,261.9,1024,1024,364,1024,1563,,,,,
109,11.4,0m 11.4s,-23.74730742,-46.57527149,P-GPS,75.1,22.9,,,0.0,0.0,1.1,0.5,2.8,0.9,-23.74729968,-46.57527144,13,4,76,15.68,0.065,3.89,3.907,3.955,3.928,0,0,-2.4,3,-4.1,-98.3,261.7,1024,1024,364,1024,1561,,,,,
110,11.5,0m 11.5s,-23.74730741,-46.57527136,P-GPS,76.1,23.2,,,0.0,0.0,0.0,0.0,2.8,0.9,-23.74729968,-46.57527144,13,4,76,15.68,0.065,3.89,3.907,3.955,3.928,0,0,-2.4,2.8,-3.9,-98.2,261.8,1024,1024,364,1024,1560,,,,,
111,11.6,0m 11.6s,-23.7473075,-46.57527108,P-GPS,77.1,23.5,,,0.0,0.0,0.0,0.0,2.9,0.9,-23.74729968,-46.57527144,13,4,76,15.68,0.065,3.89,3.907,3.955,3.928,0,0,-2.4,2.6,-3.7,-98.2,261.8,1024,1024,364,1024,1559,,,,,
112,11.7,0m 11.7s,-23.74730754,-46.57527092,P-GPS,78.1,23.8,,,0.0,0.0,0.0,0.0,2.9,0.9,-23.74729968,-46.57527144,13,4,76,15.68,0.065,3.89,3.907,3.955,3.928,0,0,-2.5,2.5,-3.2,-98.2,261.8,1024,1024,364,1024,1556,,,,,
113,11.8,0m 11.8s,-23.7473076,-46.57527068,P-GPS,78.7,24.0,,,0.0,0.0,0.0,0.0,2.9,0.9,-23.74729968,-46.57527144,13,4,76,15.68,0.065,3.89,3.907,3.955,3.928,0,0,-2.5,2.5,-3.2,-98.1,261.9,1024,1024,364,1024,1554,,,,,
114,11.9,0m 11.9s,-23.74730761,-46.57527054,P-GPS,79.7,24.3,,,0.0,0.0,0.0,0.0,2.9,0.9,-23.74729968,-46.57527144,13,4,76,15.68,0.065,3.89,3.907,3.955,3.928,0,0,-2.4,2.6,-3.3,-98.2,261.8,1024,1024,364,1024,1554,,,,,
115,12,0m 12s,-23.74730763,-46.57527036,P-GPS,80.7,24.6,,,0.0,0.0,0.0,0.0,2.9,0.9,-23.74729968,-46.57527144,13,4,76,15.68,0.065,3.89,3.907,3.955,3.928,0,0,-2.4,2.7,-3.5,-98.2,261.8,1024,1024,364,1024,1551,,,,,
116,12.1,0m 12.1s,-23.74730762,-46.57527028,P-GPS,81.4,24.8,,,0.0,0.0,0.0,0.0,2.9,0.9,-23.74729968,-46.57527144,13,4,76,15.68,0.065,3.89,3.907,3.955,3.928,0,0,-2.3,2.9,-3.5,-98.3,261.7,1024,1024,364,1024,1549,,,,,
117,12.2,0m 12.2s,-23.74730762,-46.57527002,P-GPS,82.3,25.1,,,0.0,0.0,0.0,0.0,3.0,0.9,-23.74729968,-46.57527144,13,4,76,15.68,0.065,3.89,3.907,3.955,3.928,0,0,-2.3,2.6,-4,-98.2,261.8,1024,1024,364,1024,1529,,,,,
118,12.3,0m 12.3s,-23.74730759,-46.57526987,P-GPS,83.0,25.3,,,0.0,0.0,0.0,0.0,2.9,0.9,-23.74729968,-46.57527144,13,4,76,15.666,0.035,3.909,3.9,3.935,3.922,0,0,-2.3,2.4,-4,-98.3,261.7,1024,1024,364,1024,1522,,,,,
119,12.4,0m 12.4s,-23.74730759,-46.57526959,P-GPS,84.0,25.6,,,0.0,0.0,0.0,0.0,3.0,0.9,-23.74729968,-46.57527144,13,4,76,15.666,0.035,3.909,3.9,3.935,3.922,0,0,-2.2,2.4,-3.9,-98.2,261.8,1024,1024,364,1024,1507,,,,,
120,12.5,0m 12.5s,-23.74730757,-46.57526941,P-GPS,84.6,25.8,,,0.2,0.1,0.0,0.0,3.0,0.9,-23.74729968,-46.57527144,13,4,76,15.666,0.035,3.909,3.9,3.935,3.922,0.1,0,-2.1,2.2,-4.1,-98.3,261.7,1024,1024,1024,1030,1496,,,,,
121,12.6,0m 12.6s,-23.74730752,-46.57526912,P-GPS,85.3,26.0,,,0.2,0.1,0.0,0.0,3.0,0.9,-23.74729968,-46.57527144,13,4,76,15.666,0.035,3.909,3.9,3.935,3.922,0.1,0,-2,1.3,-4.4,-98.2,261.8,1024,1024,1024,1039,1480,,,,,
122,12.7,0m 12.7s,-23.74730746,-46.57526895,P-GPS,86.3,26.3,,,0.2,0.1,0.0,0.0,3.0,0.9,-23.74729968,-46.57527144,13,4,76,15.666,0.035,3.909,3.9,3.935,3.922,0.1,0,-1.8,1,-5.2,-98.2,261.8,1024,1024,1024,1026,1407,,,,,
123,12.8,0m 12.8s,-23.74730742,-46.57526866,P-GPS,86.9,26.5,,,0.2,0.1,0.0,0.0,3.0,0.9,-23.74729968,-46.57527144,13,4,76,15.666,0.035,3.909,3.9,3.935,3.922,0,0,-1.7,0.8,-5.1,-98.2,261.8,1024,1024,1024,1049,1357,,,,,
124,12.9,0m 12.9s,-23.7473074,-46.57526851,P-GPS,87.3,26.6,,,0.0,0.0,1.1,0.5,3.0,0.9,-23.74729968,-46.57527144,13,4,76,15.666,0.035,3.909,3.9,3.935,3.922,0,0,-1.5,1.2,-4.8,-98.3,261.7,1024,1024,1024,1051,1353,,,,,
125,13,0m 13s,-23.74730741,-46.5752683,P-GPS,87.9,26.8,,,0.0,0.0,0.0,0.0,3.0,0.9,-23.74729968,-46.57527144,13,4,76,15.666,0.035,3.909,3.9,3.935,3.922,0,0,-1.1,1.5,-4.4,-98.4,261.6,1024,1024,1024,1070,1258,,,,,
126,13.1,0m 13.1s,-23.74730742,-46.5752682,P-GPS,88.3,26.9,,,0.0,0.0,0.0,0.0,3.0,0.9,-23.74729968,-46.57527144,13,4,76,15.666,0.035,3.909,3.9,3.935,3.922,0,0,-0.8,1.1,-3.5,-98.3,261.7,1024,1024,1024,1080,1171,,,,,
127,13.2,0m 13.2s,-23.74730745,-46.57526804,P-GPS,88.6,27.0,,,0.2,0.1,0.0,0.0,3.1,0.9,-23.74729968,-46.57527144,13,4,76,15.666,0.035,3.909,3.9,3.935,3.922,0,-0.1,-0.6,1.3,-3.5,-98.3,261.7,1024,1024,1024,1063,1084,,,,,
128,13.3,0m 13.3s,-23.74730747,-46.575268,P-GPS,88.6,27.0,,,0.2,0.1,0.0,0.0,3.1,0.9,-23.74729968,-46.57527144,13,4,75,15.691,0.031,3.912,3.916,3.943,3.92,0,-0.1,-0.4,1.6,-3.4,-98.2,261.8,1024,1024,1024,1024,1024,,,,,
129,13.4,0m 13.4s,-23.7473075,-46.57526792,P-GPS,88.9,27.1,,,0.2,0.1,0.0,0.0,3.1,0.9,-23.74729968,-46.57527144,13,4,75,15.691,0.031,3.912,3.916,3.943,3.92,0,-0.1,-0.2,1.6,-3.2,-98.1,261.9,1129,1024,1024,1024,1024,,,,,
130,13.5,0m 13.5s,-23.74730753,-46.57526794,P-GPS,88.9,27.1,,,0.2,0.1,0.0,0.0,3.1,0.9,-23.74729968,-46.57527144,13,4,75,15.691,0.031,3.912,3.916,3.943,3.92,0,-0.1,-0.1,2.1,-2.3,-97.9,262.1,1129,1024,1024,1024,1024,,,,,
131,13.6,0m 13.6s,-23.74730756,-46.57526789,P-GPS,88.9,27.1,,,0.2,0.1,0.0,0.0,3.1,0.9,-23.74729968,-46.57527144,13,4,75,15.691,0.031,3.912,3.916,3.943,3.92,0,-0.1,0,2.1,-1.6,-97.8,262.2,1586,1024,1024,1024,1024,,,,,
132,13.7,0m 13.7s,-23.74730757,-46.57526794,P-GPS,88.9,27.1,,,0.2,0.1,0.0,0.0,3.1,0.9,-23.74729968,-46.57527144,13,4,75,15.691,0.031,3.912,3.916,3.943,3.92,0,-0.1,0,1.6,-2.1,-97.7,262.3,1586,1024,1024,1024,1024,,,,,
133,13.8,0m 13.8s,-23.74730761,-46.57526791,P-GPS,88.9,27.1,,,0.2,0.1,0.0,0.0,3.1,0.9,-23.74729968,-46.57527144,13,4,75,15.691,0.031,3.912,3.916,3.943,3.92,0,-0.1,0,1.3,0,-97.7,262.3,1684,1024,1024,1024,1024,,,,,
134,13.9,0m 13.9s,-23.74730764,-46.57526798,P-GPS,88.9,27.1,,,0.2,0.1,1.1,0.5,3.1,0.9,-23.74729968,-46.57527144,13,4,75,15.691,0.031,3.912,3.916,3.943,3.92,0,-0.1,0,2.3,9.6,-97.4,262.6,1684,1024,1024,1024,1024,,,,,
135,14,0m 14s,-23.7473075,-46.57526796,P-GPS,89.2,27.2,,,0.6,0.3,0.0,0.0,3.1,0.9,-23.74729968,-46.57527144,13,4,75,15.691,0.031,3.912,3.916,3.943,3.92,0.2,-0.2,0,2.4,20.4,-97.3,262.7,1684,1024,1024,1024,1024,,,,,
136,14.1,0m 14.1s,-23.74730697,-46.57526799,P-GPS,89.2,27.2,,,1.4,0.6,1.1,0.5,2.9,0.9,-23.74729968,-46.57527144,13,4,75,15.691,0.031,3.912,3.916,3.943,3.92,0.6,-0.2,0,0.7,25.1,-98.1,261.9,1684,1024,1024,1024,1024,,,,,
137,14.2,0m 14.2s,-23.74730596,-46.57526818,P-GPS,89.2,27.2,,,2.8,1.3,1.8,0.8,2.5,0.8,-23.74729968,-46.57527144,13,4,75,15.691,0.031,3.912,3.916,3.943,3.92,1.2,-0.4,0,0.8,28.1,-98,262,1684,1024,1024,1024,1024,,,,,
138,14.3,0m 14.3s,-23.74730447,-46.57526851,P-GPS,89.6,27.3,,,4.0,1.8,3.2,1.4,2.0,0.6,-23.74729968,-46.57527144,13,4,75,15.744,0.028,3.932,3.924,3.952,3.936,1.7,-0.5,0,2.2,27.8,-97.6,262.4,1454,1024,1024,1024,1024,,,,,
139,14.4,0m 14.4s,-23.74730223,-46.57526888,P-GPS,89.6,27.3,,,5.3,2.4,4.7,2.1,1.3,0.4,-23.74729968,-46.57527144,13,4,75,15.744,0.028,3.932,3.924,3.952,3.936,2.3,-0.6,0,3.1,25,-97.2,262.8,1155,1024,1024,1024,1024,,,,,
140,14.5,0m 14.5s,-23.74729965,-46.5752694,P-GPS,89.6,27.3,,,6.4,2.9,6.1,2.7,0.6,0.2,-23.74729968,-46.57527144,13,4,75,15.744,0.028,3.932,3.924,3.952,3.936,2.8,-0.6,0,4.7,17.2,-97,263,1024,1024,1024,1024,1024,,,,,
141,14.6,0m 14.6s,-23.74729653,-46.57526985,P-GPS,89.9,27.4,,,7.1,3.2,7.2,3.2,1.2,0.4,-23.74729968,-46.57527144,13,4,75,15.744,0.028,3.932,3.924,3.952,3.936,3.1,-0.6,0,5.2,9.4,-97.2,262.8,1024,1024,1024,1024,1024,,,,,
142,14.7,0m 14.7s,-23.74729335,-46.57527034,P-GPS,89.9,27.4,,,7.5,3.4,7.9,3.5,2.3,0.7,-23.74729968,-46.57527144,13,4,75,15.744,0.028,3.932,3.924,3.952,3.936,3.3,-0.6,0,4.9,-0.2,-98,262,1024,1024,1024,1024,1024,,,,,
143,14.8,0m 14.8s,-23.74729001,-46.57527075,P-GPS,89.9,27.4,,,7.2,3.2,8.2,3.6,3.5,1.1,-23.74729968,-46.57527144,13,4,75,15.744,0.028,3.932,3.924,3.952,3.936,3.2,-0.5,0,4.7,-13.8,-98.4,261.6,1024,1024,1024,1024,1024,,,,,
144,14.9,0m 14.9s,-23.74728692,-46.57527116,P-GPS,89.9,27.4,,,6.6,2.9,8.0,3.6,4.7,1.4,-23.74729968,-46.57527144,13,4,75,15.744,0.028,3.932,3.924,3.952,3.936,2.9,-0.4,0,3.7,-21.9,-98.6,261.4,1024,1024,1024,1024,1024,,,,,
145,15,0m 15s,-23.74728445,-46.57527134,P-GPS,89.9,27.4,,,5.4,2.4,7.0,3.1,5.6,1.7,-23.74729968,-46.57527144,13,4,75,15.744,0.028,3.932,3.924,3.952,3.936,2.4,-0.3,0,2.8,-23.2,-98.5,261.5,1024,1024,1024,1024,1024,,,,,
146,15.1,0m 15.1s,-23.74728234,-46.57527154,P-GPS,89.9,27.4,,,4.5,2.0,5.8,2.6,6.3,1.9,-23.74729968,-46.57527144,13,4,75,15.744,0.028,3.932,3.924,3.952,3.936,2,-0.2,0,2.4,-23,-98.5,261.5,1024,1024,1024,1239,1024,,,,,
147,15.2,0m 15.2s,-23.74728093,-46.57527153,P-GPS,89.9,27.4,,,3.6,1.6,4.4,2.0,6.8,2.1,-23.74729968,-46.57527144,13,4,75,15.744,0.028,3.932,3.924,3.952,3.936,1.6,-0.2,0.1,3,-21.9,-98.9,261.1,1024,1024,1024,1412,1006,,,,,
148,15.3,0m 15.3s,-23.74727973,-46.57527156,P-GPS,89.9,27.4,,,2.7,1.2,3.2,1.4,7.3,2.2,-23.74729968,-46.57527144,13,4,75,15.744,0.028,3.932,3.924,3.952,3.936,1.2,-0.1,0.1,3.5,-20.1,-98.6,261.4,1024,1024,1024,1527,1007,,,,,
149,15.4,0m 15.4s,-23.74727916,-46.57527139,P-GPS,89.9,27.4,,,2.0,0.9,2.1,0.9,7.5,2.3,-23.74729968,-46.57527144,13,4,75,15.744,0.028,3.932,3.924,3.952,3.936,0.9,0,0.1,3.9,-17.4,-96.2,263.8,1024,1024,1024,1556,1022,,,,,
150,15.5,0m 15.5s,-23.74727866,-46.57527127,P-GPS,89.9,27.4,,,1.3,0.6,1.5,0.7,7.7,2.3,-23.74729968,-46.57527144,13,4,75,15.744,0.028,3.932,3.924,3.952,3.936,0.6,0,0.1,4.9,-14.3,-90.6,269.4,1024,1024,1024,1572,1024,,,,,
151,15.6,0m 15.6s,-23.74727846,-46.57527092,P-GPS,89.9,27.4,,,0.9,0.4,1.1,0.5,7.7,2.4,-23.74729968,-46.57527144,13,4,75,15.744,0.028,3.932,3.924,3.952,3.936,0.4,0,0.1,4.9,-10.7,-83.3,276.7,1024,1024,1024,1538,1024,,,,,
152,15.7,0m 15.7s,-23.74727835,-46.57527054,P-GPS,89.9,27.4,,,0.7,0.3,1.5,0.7,7.8,2.4,-23.74729968,-46.57527144,13,4,75,15.744,0.028,3.932,3.924,3.952,3.936,0.3,0,0.1,5.2,-8.2,-75.2,284.8,1024,1024,1024,1526,1024,,,,,
153,15.8,0m 15.8s,-23.7472782,-46.57527022,P-GPS,89.9,27.4,,,0.7,0.3,0.0,0.0,7.8,2.4,-23.74729968,-46.57527144,13,4,75,15.744,0.028,3.932,3.924,3.952,3.936,0.2,0,0.1,5.6,-6.7,-67.6,292.4,1024,1024,1024,1486,1024,,,,,
154,15.9,0m 15.9s,-23.7472781,-46.57526993,P-GPS,89.9,27.4,,,0.4,0.2,1.1,0.5,7.9,2.4,-23.74729968,-46.57527144,13,4,75,15.744,0.028,3.932,3.924,3.952,3.936,0.2,0,0.2,5.6,-5.9,-61,299,1024,1024,1024,1407,1024,,,,,
155,16,0m 16s,-23.74727794,-46.57526952,P-GPS,89.9,27.4,,,0.2,0.1,1.1,0.5,8.0,2.4,-23.74729968,-46.57527144,13,4,75,15.744,0.028,3.932,3.924,3.952,3.936,0.1,0,0.2,5.4,-5.6,-56.1,303.9,1024,1024,1024,1028,1024,,,,,
156,16.1,0m 16.1s,-23.74727785,-46.57526925,P-GPS,89.9,27.4,,,0.2,0.1,1.1,0.5,8.0,2.4,-23.74729968,-46.57527144,13,4,75,15.744,0.028,3.932,3.924,3.952,3.936,0.1,0,0.2,5.2,-4,-53.3,306.7,1024,1024,1024,1024,1024,,,,,
157,16.2,0m 16.2s,-23.74727769,-46.57526878,P-GPS,89.9,27.4,,,0.0,0.0,1.1,0.5,8.1,2.5,-23.74729968,-46.57527144,13,4,75,15.744,0.028,3.932,3.924,3.952,3.936,0,0,0.2,5.1,-2.6,-53.1,306.9,1024,1024,1024,1024,1024,,,,,
158,16.3,0m 16.3s,-23.74727759,-46.57526845,P-GPS,89.9,27.4,,,0.0,0.0,1.1,0.5,8.1,2.5,-23.74729968,-46.57527144,13,4,75,15.645,0.027,3.909,3.9,3.927,3.909,0,0,0.1,4.7,-1.4,-53.2,306.8,1024,1024,1024,1024,1024,,,,,
159,16.4,0m 16.4s,-23.74727746,-46.57526797,P-GPS,89.9,27.4,,,0.2,0.1,1.1,0.5,8.2,2.5,-23.74729968,-46.57527144,13,4,75,15.645,0.027,3.909,3.9,3.927,3.909,0,0.1,0.1,4.4,-0.9,-53.2,306.8,1024,1024,1024,1024,1024,,,,,
160,16.5,0m 16.5s,-23.74727736,-46.57526759,P-GPS,89.9,27.4,,,0.3,0.1,0.0,0.0,8.2,2.5,-23.74729968,-46.57527144,13,4,75,15.645,0.027,3.909,3.9,3.927,3.909,0.1,0.1,0.1,4.1,-1.4,-53.2,306.8,1024,1024,1024,1024,1024,,,,,
161,16.6,0m 16.6s,-23.74727711,-46.575267,P-GPS,89.9,27.4,,,0.3,0.1,1.1,0.5,8.4,2.6,-23.74729968,-46.57527144,13,4,75,15.645,0.027,3.909,3.9,3.927,3.909,0.1,0.1,0,3.9,-2.1,-53.1,306.9,1024,1024,1024,1204,1015,,,,,
162,16.7,0m 16.7s,-23.74727692,-46.57526655,P-GPS,89.9,27.4,,,0.3,0.1,1.1,0.5,8.5,2.6,-23.74729968,-46.57527144,13,4,75,15.645,0.027,3.909,3.9,3.927,3.909,0.1,0.1,0,3.9,-2.4,-53.2,306.8,1024,1024,1024,1407,974,,,,,
163,16.8,0m 16.8s,-23.74727669,-46.57526603,P-GPS,89.9,27.4,,,0.3,0.1,1.1,0.5,8.6,2.6,-23.74729968,-46.57527144,13,4,75,15.645,0.027,3.909,3.9,3.927,3.909,0.1,0.1,0,3.7,-2.8,-53.1,306.9,1024,1024,1024,1219,1024,,,,,
164,16.9,0m 16.9s,-23.74727652,-46.57526561,P-GPS,89.9,27.4,,,0.3,0.1,1.1,0.5,8.7,2.6,-23.74729968,-46.57527144,13,4,75,15.645,0.027,3.909,3.9,3.927,3.909,0.1,0.1,0.1,3.1,-3.5,-51.8,308.2,1024,1024,1024,1065,1024,,,,,
165,17,0m 17s,-23.74727633,-46.57526508,P-GPS,89.9,27.4,,,0.2,0.1,0.0,0.0,8.8,2.7,-23.74729968,-46.57527144,13,4,75,15.645,0.027,3.909,3.9,3.927,3.909,0,0.1,0,2.3,-4,-50.9,309.1,1024,1024,1024,1024,1024,,,,,
166,17.1,0m 17.1s,-23.74727621,-46.5752647,P-GPS,89.9,27.4,,,0.2,0.1,1.1,0.5,8.9,2.7,-23.74729968,-46.57527144,13,4,75,15.645,0.027,3.909,3.9,3.927,3.909,0,0.1,0,1.9,-3.3,-50.9,309.1,1024,1024,1024,1024,1024,,,,,
167,17.2,0m 17.2s,-23.74727607,-46.57526424,P-GPS,89.9,27.4,,,0.3,0.1,1.5,0.7,8.9,2.7,-23.74729968,-46.57527144,13,4,75,15.645,0.027,3.909,3.9,3.927,3.909,0.1,0.1,0,2,-3.6,-50.8,309.2,1024,1024,1024,1024,1024,,,,,
168,17.3,0m 17.3s,-23.74727594,-46.57526391,P-GPS,89.9,27.4,,,0.3,0.1,1.1,0.5,9.0,2.7,-23.74729968,-46.57527144,13,4,75,15.67,0.03,3.912,3.905,3.935,3.918,0.1,0,0,2.7,-5.2,-50.8,309.2,1024,1024,1024,1024,1024,,,,,
169,17.4,0m 17.4s,-23.7472758,-46.57526352,P-GPS,90.2,27.5,,,0.0,0.0,1.1,0.5,9.1,2.8,-23.74729968,-46.57527144,13,4,75,15.67,0.03,3.912,3.905,3.935,3.918,0,0,0,3.1,-4.9,-50.8,309.2,1024,1024,1024,1024,1024,,,,,
170,17.5,0m 17.5s,-23.74727571,-46.57526328,P-GPS,90.2,27.5,,,0.0,0.0,1.1,0.5,9.2,2.8,-23.74729968,-46.57527144,13,4,75,15.67,0.03,3.912,3.905,3.935,3.918,0,0,0,2.9,-3.9,-50.8,309.2,1024,1024,1024,1024,1024,,,,,
171,17.6,0m 17.6s,-23.7472756,-46.57526299,P-GPS,90.2,27.5,,,0.0,0.0,0.0,0.0,9.2,2.8,-23.74729968,-46.57527144,13,4,75,15.67,0.03,3.912,3.905,3.935,3.918,0,0,0,2.5,-3.7,-50.8,309.2,1024,1024,1024,1024,1024,,,,,
172,17.7,0m 17.7s,-23.74727549,-46.57526279,P-GPS,90.2,27.5,,,0.2,0.1,0.0,0.0,9.3,2.8,-23.74729968,-46.57527144,13,4,75,15.67,0.03,3.912,3.905,3.935,3.918,0.1,0,0,2.6,-4.9,-50.8,309.2,1024,1024,1024,1024,1024,,,,,
173,17.8,0m 17.8s,-23.74727541,-46.5752625,P-GPS,90.2,27.5,,,0.0,0.0,NaN,NaN,9.3,2.8,-23.74729968,-46.57527144,13,4,75,15.67,0.03,3.912,3.905,3.935,3.918,0,0,0,3,-5.8,-50.7,309.3,1024,1024,1024,1024,1024,,,,,
174,17.9,0m 17.9s,-23.74727534,-46.57526234,P-GPS,90.6,27.6,,,0.0,0.0,1.1,0.5,9.4,2.9,-23.74729968,-46.57527144,13,4,75,15.67,0.03,3.912,3.905,3.935,3.918,0,0,0,2.9,-5.4,-50.7,309.3,1024,1024,1024,1024,1024,,,,,
175,18,0m 18s,-23.74727531,-46.57526208,P-GPS,90.6,27.6,,,0.0,0.0,0.0,0.0,9.4,2.9,-23.74729968,-46.57527144,13,4,75,15.67,0.03,3.912,3.905,3.935,3.918,0,0,0,2.9,-5.2,-50.8,309.2,1024,1024,1024,1024,1156,,,,,
176,18.1,0m 18.1s,-23.74727529,-46.57526194,P-GPS,90.6,27.6,,,0.0,0.0,0.0,0.0,9.4,2.9,-23.74729968,-46.57527144,13,4,75,15.67,0.03,3.912,3.905,3.935,3.918,0,0,0,3.8,-3.8,-51,309,1024,1024,1024,1024,1341,,,,,
177,18.2,0m 18.2s,-23.74727532,-46.57526173,P-GPS,90.6,27.6,,,0.0,0.0,0.0,0.0,9.5,2.9,-23.74729968,-46.57527144,13,4,75,15.67,0.03,3.912,3.905,3.935,3.918,0,0,0,3.6,-3.8,-51.1,308.9,1024,1024,1024,1024,1619,,,,,
178,18.3,0m 18.3s,-23.74727536,-46.57526149,P-GPS,90.6,27.6,,,0.0,0.0,0.0,0.0,9.5,2.9,-23.74729968,-46.57527144,13,4,75,15.682,0.03,3.912,3.908,3.938,3.924,0,0,0,2.6,-4.8,-50.8,309.2,1024,1024,1024,1024,1684,,,,,
179,18.4,0m 18.4s,-23.7472754,-46.57526132,P-GPS,90.6,27.6,,,0.0,0.0,NaN,NaN,9.5,2.9,-23.74729968,-46.57527144,13,4,75,15.682,0.03,3.912,3.908,3.938,3.924,0,0,-0.3,1.2,-4.3,-50.3,309.7,1024,1024,1024,1024,1504,,,,,
180,18.6,0m 18.6s,-23.74727553,-46.57526111,P-GPS,91.5,27.9,,,0.4,0.2,0.0,0.0,9.5,2.9,-23.74729968,-46.57527144,13,4,75,15.682,0.03,3.912,3.908,3.938,3.924,0,-0.2,-1.4,2.2,-4.3,-50.2,309.8,1024,1024,1024,1024,1313,,,,,
181,18.7,0m 18.7s,-23.74727559,-46.57526118,P-GPS,92.2,28.1,,,0.4,0.2,0.0,0.0,9.4,2.9,-23.74729968,-46.57527144,13,4,75,15.682,0.03,3.912,3.908,3.938,3.924,0,-0.2,-2,5.7,-2.8,-50.9,309.1,1024,1024,1024,1024,1313,,,,,
182,18.8,0m 18.8s,-23.74727565,-46.57526116,P-GPS,92.8,28.3,,,0.4,0.2,0.0,0.0,9.4,2.9,-23.74729968,-46.57527144,13,4,75,15.682,0.03,3.912,3.908,3.938,3.924,0,-0.2,-1.9,8.6,-4.4,-51.3,308.7,1024,1024,1024,1024,1215,,,,,
183,18.9,0m 18.9s,-23.7472757,-46.57526117,P-GPS,93.8,28.6,,,0.2,0.1,0.0,0.0,9.4,2.9,-23.74729968,-46.57527144,13,4,75,15.682,0.03,3.912,3.908,3.938,3.924,0,-0.1,-1.5,8.1,-5.3,-51.3,308.7,1024,1024,1024,1024,1121,,,,,
184,19,0m 19s,-23.74727582,-46.575261,P-GPS,94.2,28.7,,,0.2,0.1,0.0,0.0,9.4,2.9,-23.74729968,-46.57527144,13,4,75,15.682,0.03,3.912,3.908,3.938,3.924,0,-0.1,-1.1,6,-4.9,-51.1,308.9,1024,1024,1024,1024,1024,,,,,
185,19.1,0m 19.1s,-23.74727592,-46.57526092,P-GPS,94.5,28.8,,,0.2,0.1,0.0,0.0,9.4,2.9,-23.74729968,-46.57527144,13,4,75,15.682,0.03,3.912,3.908,3.938,3.924,0,-0.1,-0.7,4.5,-4.6,-51.1,308.9,1024,1024,1024,1024,1024,,,,,
186,19.2,0m 19.2s,-23.7472761,-46.57526067,P-GPS,94.5,28.8,,,0.0,0.0,0.0,0.0,9.3,2.8,-23.74729968,-46.57527144,13,4,75,15.682,0.03,3.912,3.908,3.938,3.924,0,0,-0.4,3.5,-4.5,-50.9,309.1,1024,1024,1024,1024,1024,,,,,
187,19.4,0m 19.4s,-23.74727632,-46.57526028,P-GPS,94.5,28.8,,,0.2,0.1,0.7,0.3,9.3,2.8,-23.74729968,-46.57527144,13,4,75,15.682,0.03,3.912,3.908,3.938,3.924,0,-0.1,0,1.4,-5.1,-50.7,309.3,1024,1024,1024,1024,1024,,,,,
188,19.5,0m 19.5s,-23.74727639,-46.57526018,P-GPS,94.5,28.8,,,0.2,0.1,0.0,0.0,9.3,2.8,-23.74729968,-46.57527144,13,4,75,15.682,0.03,3.912,3.908,3.938,3.924,0,-0.1,0,2,-5.1,-50.6,309.4,1024,1024,1024,1024,1024,,,,,
189,19.6,0m 19.6s,-23.74727644,-46.57526006,P-GPS,94.2,28.7,,,0.2,0.1,0.0,0.0,9.3,2.8,-23.74729968,-46.57527144,13,4,75,15.682,0.03,3.912,3.908,3.938,3.924,0,-0.1,0,2,-5.1,-50.6,309.4,1024,1024,1024,1024,1024,,,,,
190,19.7,0m 19.7s,-23.74727648,-46.57526005,P-GPS,94.2,28.7,,,0.2,0.1,0.0,0.0,9.3,2.8,-23.74729968,-46.57527144,13,4,75,15.682,0.03,3.912,3.908,3.938,3.924,0,-0.1,0.1,1.6,-5.1,-50.4,309.6,1024,1024,1024,1024,1024,,,,,
191,19.8,0m 19.8s,-23.74727661,-46.57526001,P-GPS,94.2,28.7,,,0.4,0.2,0.0,0.0,9.2,2.8,-23.74729968,-46.57527144,13,4,75,15.682,0.03,3.912,3.908,3.938,3.924,0,-0.2,0.1,2.4,-4.1,-50.6,309.4,1024,1024,1024,1024,1024,,,,,
192,19.9,0m 19.9s,-23.74727672,-46.57526005,P-GPS,94.2,28.7,,,0.4,0.2,0.0,0.0,9.2,2.8,-23.74729968,-46.57527144,13,4,75,15.682,0.03,3.912,3.908,3.938,3.924,0,-0.2,0,3.3,-3.2,-50.8,309.2,1024,1024,1024,1024,1024,,,,,
193,20,0m 20s,-23.74727693,-46.57526,P-GPS,94.2,28.7,,,0.2,0.1,0.0,0.0,9.1,2.8,-23.74729968,-46.57527144,13,4,75,15.682,0.03,3.912,3.908,3.938,3.924,0,-0.1,0.1,3.6,-3.2,-50.9,309.1,1024,1024,1024,1024,1024,,,,,
194,20.1,0m 20.1s,-23.74727709,-46.57526002,P-GPS,94.2,28.7,,,0.2,0.1,0.0,0.0,9.1,2.8,-23.74729968,-46.57527144,13,4,75,15.682,0.03,3.912,3.908,3.938,3.924,0,-0.1,0,3.1,-3.3,-50.8,309.2,1024,1024,1024,1024,1024,,,,,
195,20.2,0m 20.2s,-23.74727731,-46.5752599,P-GPS,94.2,28.7,,,0.2,0.1,0.0,0.0,9.0,2.7,-23.74729968,-46.57527144,13,4,75,15.682,0.03,3.912,3.908,3.938,3.924,0,-0.1,0,2.4,-3.4,-50.7,309.3,1024,1024,1024,1024,1024,,,,,
196,20.3,0m 20.3s,-23.74727748,-46.57525987,P-GPS,94.2,28.7,,,0.2,0.1,0.0,0.0,9.0,2.7,-23.74729968,-46.57527144,13,4,75,15.729,0.032,3.927,3.917,3.949,3.936,0,-0.1,0,2.2,-3.1,-50.8,309.2,1024,1024,1024,1024,1024,,,,,
197,20.4,0m 20.4s,-23.74727773,-46.57525974,P-GPS,94.2,28.7,,,0.2,0.1,0.0,0.0,8.9,2.7,-23.74729968,-46.57527144,13,4,75,15.729,0.032,3.927,3.917,3.949,3.936,0,-0.1,0,2.4,-3,-50.9,309.1,1024,1024,1024,1024,1024,,,,,
198,20.6,0m 20.6s,-23.74727815,-46.57525961,P-GPS,94.2,28.7,,,0.3,0.1,0.0,0.0,8.8,2.7,-23.74729968,-46.57527144,13,4,75,15.729,0.032,3.927,3.917,3.949,3.936,-0.1,-0.1,0,2.6,-2.6,-51.1,308.9,1024,1024,1024,1024,1024,,,,,
199,20.7,0m 20.7s,-23.74727835,-46.57525958,P-GPS,94.2,28.7,,,0.3,0.1,0.0,0.0,8.7,2.7,-23.74729968,-46.57527144,13,4,75,15.729,0.032,3.927,3.917,3.949,3.936,-0.1,-0.1,0,1.7,-2.6,-51.1,308.9,1024,1024,1024,1024,1024,,,,,
200,20.8,0m 20.8s,-23.74727866,-46.57525947,P-GPS,94.2,28.7,,,0.3,0.1,1.1,0.5,8.6,2.6,-23.74729968,-46.57527144,13,4,75,15.729,0.032,3.927,3.917,3.949,3.936,-0.1,-0.1,0,1.9,-1.6,-51.1,308.9,1024,1024,1024,1024,1024,,,,,
201,20.9,0m 20.9s,-23.74727898,-46.57525935,P-GPS,94.2,28.7,,,0.3,0.1,0.0,0.0,8.6,2.6,-23.74729968,-46.57527144,13,4,75,15.729,0.032,3.927,3.917,3.949,3.936,-0.1,-0.1,0,1,-3.1,-51.2,308.8,1024,1024,1024,1024,1024,,,,,
202,21,0m 21s,-23.74727929,-46.5752593,P-GPS,94.2,28.7,,,0.5,0.2,1.1,0.5,8.5,2.6,-23.74729968,-46.57527144,13,4,75,15.729,0.032,3.927,3.917,3.949,3.936,-0.2,-0.1,0,0.8,-2.5,-51,309,1024,1024,1024,1024,1024,,,,,
203,21.1,0m 21.1s,-23.7472796,-46.5752593,P-GPS,94.2,28.7,,,0.5,0.2,0.0,0.0,8.4,2.6,-23.74729968,-46.57527144,13,4,75,15.729,0.032,3.927,3.917,3.949,3.936,-0.2,-0.1,0,-0.2,-0.2,-51,309,1024,1024,1024,1024,1024,,,,,
204,21.2,0m 21.2s,-23.74727995,-46.5752592,P-GPS,94.2,28.7,,,0.3,0.1,0.0,0.0,8.3,2.5,-23.74729968,-46.57527144,13,4,75,15.729,0.032,3.927,3.917,3.949,3.936,-0.1,-0.1,0,-1.4,0.4,-51.1,308.9,1024,1024,1024,1024,1024,,,,,
205,21.3,0m 21.3s,-23.74728016,-46.57525919,P-GPS,94.2,28.7,,,0.3,0.1,0.0,0.0,8.2,2.5,-23.74729968,-46.57527144,13,4,75,15.782,0.029,3.94,3.933,3.962,3.947,0,-0.1,0,-1.3,-0.6,-51,309,1024,1024,1024,1024,1024,,,,,
206,21.4,0m 21.4s,-23.74728032,-46.57525905,P-GPS,94.2,28.7,,,0.2,0.1,0.0,0.0,8.2,2.5,-23.74729968,-46.57527144,13,4,75,15.782,0.029,3.94,3.933,3.962,3.947,0,-0.1,0,-0.9,-2,-50.9,309.1,1024,1024,1024,1024,1024,,,,,
207,21.5,0m 21.5s,-23.74728036,-46.57525904,P-GPS,94.5,28.8,,,0.3,0.1,1.1,0.5,8.2,2.5,-23.74729968,-46.57527144,13,4,75,15.782,0.029,3.94,3.933,3.962,3.947,0.1,-0.1,0,-0.2,-3.1,-50.8,309.2,1024,1024,1024,1024,1024,,,,,
208,21.6,0m 21.6s,-23.74728039,-46.57525901,P-GPS,94.5,28.8,,,0.5,0.2,0.0,0.0,8.2,2.5,-23.74729968,-46.57527144,13,4,75,15.782,0.029,3.94,3.933,3.962,3.947,0.1,-0.2,0,0.9,-3.4,-50.7,309.3,1024,1024,1024,1024,1024,,,,,
209,21.7,0m 21.7s,-23.74728036,-46.57525909,P-GPS,94.5,28.8,,,0.5,0.2,1.1,0.5,8.2,2.5,-23.74729968,-46.57527144,13,4,75,15.782,0.029,3.94,3.933,3.962,3.947,0.1,-0.2,0,1.7,-3.9,-50.7,309.3,1024,1024,1024,1024,1024,,,,,
210,21.8,0m 21.8s,-23.74728034,-46.57525906,P-GPS,94.5,28.8,,,0.5,0.2,0.0,0.0,8.2,2.5,-23.74729968,-46.57527144,13,4,75,15.782,0.029,3.94,3.933,3.962,3.947,0.1,-0.2,0,1.4,-4.3,-50.7,309.3,1024,1024,1024,1024,1024,,,,,
211,21.9,0m 21.9s,-23.74728027,-46.57525915,P-GPS,94.5,28.8,,,0.5,0.2,1.1,0.5,8.2,2.5,-23.74729968,-46.57527144,13,4,75,15.782,0.029,3.94,3.933,3.962,3.947,0.1,-0.2,0,2,-4,-50.7,309.3,1024,1024,1024,1024,1024,,,,,
212,22,0m 22s,-23.74728029,-46.57525915,P-GPS,94.5,28.8,,,0.5,0.2,0.0,0.0,8.2,2.5,-23.74729968,-46.57527144,13,4,75,15.782,0.029,3.94,3.933,3.962,3.947,0.1,-0.2,0,3.1,-4.1,-50.7,309.3,1024,1024,1024,1024,1024,,,,,
213,22.1,0m 22.1s,-23.74728025,-46.57525924,P-GPS,94.5,28.8,,,0.5,0.2,0.0,0.0,8.2,2.5,-23.74729968,-46.57527144,13,4,75,15.782,0.029,3.94,3.933,3.962,3.947,0.1,-0.2,-0.1,3.2,-4.3,-50.7,309.3,1024,1024,1024,1024,1024,,,,,
214,22.2,0m 22.2s,-23.7472803,-46.57525924,P-GPS,94.5,28.8,,,0.5,0.2,1.1,0.5,8.2,2.5,-23.74729968,-46.57527144,13,4,75,15.782,0.029,3.94,3.933,3.962,3.947,0.1,-0.2,0,3.7,-4.7,-50.8,309.2,1024,1024,1024,1024,1024,,,,,
215,22.3,0m 22.3s,-23.74728029,-46.57525933,P-GPS,94.8,28.9,,,0.5,0.2,0.0,0.0,8.1,2.5,-23.74729968,-46.57527144,13,4,75,15.782,0.029,3.94,3.933,3.962,3.947,0.1,-0.2,-0.1,3.8,-4.2,-50.9,309.1,1024,1024,1024,1024,1024,,,,,
216,22.4,0m 22.4s,-23.74728034,-46.57525934,P-GPS,94.8,28.9,,,0.5,0.2,0.0,0.0,8.1,2.5,-23.74729968,-46.57527144,13,4,75,15.782,0.029,3.94,3.933,3.962,3.947,0.1,-0.2,-0.1,3.4,-3.4,-50.9,309.1,1024,1024,1024,1024,1024,,,,,
217,22.5,0m 22.5s,-23.74728029,-46.5752594,P-GPS,94.8,28.9,,,0.6,0.3,0.0,0.0,8.1,2.5,-23.74729968,-46.57527144,13,4,75,15.782,0.029,3.94,3.933,3.962,3.947,0.2,-0.2,0,3.4,-4.1,-50.9,309.1,1024,1024,1024,1024,1024,,,,,
218,22.6,0m 22.6s,-23.74728033,-46.57525937,P-GPS,94.8,28.9,,,0.3,0.1,0.0,0.0,8.1,2.5,-23.74729968,-46.57527144,13,4,75,15.782,0.029,3.94,3.933,3.962,3.947,0.1,-0.1,0,3.4,-4.9,-50.9,309.1,1024,1024,1024,1024,1024,,,,,
219,22.7,0m 22.7s,-23.74728032,-46.57525942,P-GPS,94.8,28.9,,,0.3,0.1,0.0,0.0,8.1,2.5,-23.74729968,-46.57527144,13,4,75,15.782,0.029,3.94,3.933,3.962,3.947,0.1,-0.1,0,3,-4.6,-50.8,309.2,1024,1024,1024,1024,1024,,,,,
220,22.8,0m 22.8s,-23.7472804,-46.57525936,P-GPS,94.8,28.9,,,0.5,0.2,0.0,0.0,8.1,2.5,-23.74729968,-46.57527144,13,4,75,15.782,0.029,3.94,3.933,3.962,3.947,0.1,-0.2,0,2.5,-4.3,-50.8,309.2,1024,1024,1024,1024,1024,,,,,
221,22.9,0m 22.9s,-23.74728042,-46.57525941,P-GPS,94.8,28.9,,,0.5,0.2,0.0,0.0,8.1,2.5,-23.74729968,-46.57527144,13,4,75,15.782,0.029,3.94,3.933,3.962,3.947,0.1,-0.2,0,3.1,-3.5,-50.9,309.1,1024,1024,1024,1024,1024,,,,,
222,23,0m 23s,-23.74728052,-46.57525936,P-GPS,94.8,28.9,,,0.3,0.1,0.0,0.0,8.1,2.5,-23.74729968,-46.57527144,13,4,75,15.782,0.029,3.94,3.933,3.962,3.947,0.1,-0.1,0.1,3,-5.2,-50.8,309.2,1024,1024,1024,1024,1024,,,,,
223,23.1,0m 23.1s,-23.74728055,-46.5752594,P-GPS,94.8,28.9,,,0.5,0.2,0.0,0.0,8.0,2.5,-23.74729968,-46.57527144,13,4,75,15.782,0.029,3.94,3.933,3.962,3.947,0.1,-0.2,0.1,1.9,-4.9,-50.6,309.4,1024,1024,1024,1024,1024,,,,,
224,23.2,0m 23.2s,-23.74728071,-46.57525933,P-GPS,94.8,28.9,,,0.5,0.2,0.0,0.0,8.0,2.4,-23.74729968,-46.57527144,13,4,75,15.782,0.029,3.94,3.933,3.962,3.947,0.1,-0.2,0,1.9,-3.7,-50.7,309.3,1024,1024,1024,1024,1024,,,,,
225,23.3,0m 23.3s,-23.74728076,-46.57525939,P-GPS,94.8,28.9,,,0.5,0.2,0.0,0.0,8.0,2.4,-23.74729968,-46.57527144,13,4,75,15.782,0.029,3.94,3.933,3.962,3.947,0.1,-0.2,0,2.7,-3.1,-50.7,309.3,1024,1024,1024,1024,1024,,,,,
226,23.4,0m 23.4s,-23.74728081,-46.57525937,P-GPS,94.8,28.9,,,0.5,0.2,0.0,0.0,8.0,2.4,-23.74729968,-46.57527144,13,4,75,15.782,0.029,3.94,3.933,3.962,3.947,0.1,-0.2,0,3.5,-3.3,-50.8,309.2,1024,1024,1024,1024,1024,,,,,
227,23.5,0m 23.5s,-23.74728084,-46.57525934,P-GPS,94.8,28.9,,,0.5,0.2,0.0,0.0,8.0,2.4,-23.74729968,-46.57527144,13,4,75,15.782,0.029,3.94,3.933,3.962,3.947,0.1,-0.2,0,4.2,-3.8,-50.9,309.1,1024,1024,1024,1024,1024,,,,,
228,23.6,0m 23.6s,-23.74728082,-46.57525937,P-GPS,94.8,28.9,,,0.3,0.1,0.0,0.0,8.0,2.4,-23.74729968,-46.57527144,13,4,75,15.782,0.029,3.94,3.933,3.962,3.947,0.1,-0.1,0,3.9,-4.1,-50.9,309.1,1024,1024,1024,1024,1024,,,,,
229,23.7,0m 23.7s,-23.74728079,-46.57525942,P-GPS,95.1,29.0,,,0.3,0.1,0.0,0.0,8.0,2.4,-23.74729968,-46.57527144,13,4,75,15.782,0.029,3.94,3.933,3.962,3.947,0.1,-0.1,0,3.2,-4.2,-51,309,1024,1024,1024,1024,1024,,,,,
230,23.8,0m 23.8s,-23.74728085,-46.57525935,P-GPS,95.1,29.0,,,0.3,0.1,0.0,0.0,8.0,2.4,-23.74729968,-46.57527144,13,4,75,15.782,0.029,3.94,3.933,3.962,3.947,0.1,-0.1,0,3.7,-4,-51,309,1024,1024,1024,1024,1024,,,,,
231,24,0m 24s,-23.74728091,-46.57525923,P-GPS,95.1,29.0,,,0.3,0.1,0.0,0.0,8.0,2.4,-23.74729968,-46.57527144,13,4,75,15.782,0.029,3.94,3.933,3.962,3.947,0.1,-0.1,0,3.2,-4.6,-51.1,308.9,1024,1024,1024,1024,1024,,,,,
232,24.1,0m 24.1s,-23.7472809,-46.5752592,P-GPS,95.1,29.0,,,0.3,0.1,0.0,0.0,8.0,2.4,-23.74729968,-46.57527144,13,4,75,15.782,0.029,3.94,3.933,3.962,3.947,0.1,-0.1,0,2.8,-5.1,-51,309,1024,1024,1024,1024,1024,,,,,
233,24.2,0m 24.2s,-23.74728101,-46.57525907,P-GPS,95.1,29.0,,,0.3,0.1,0.0,0.0,8.0,2.4,-23.74729968,-46.57527144,13,4,75,15.782,0.029,3.94,3.933,3.962,3.947,0.1,-0.1,0,2.2,-4.8,-50.9,309.1,1024,1024,1024,1024,1024,,,,,
234,24.3,0m 24.3s,-23.74728102,-46.57525907,P-GPS,95.1,29.0,,,0.3,0.1,0.0,0.0,8.0,2.4,-23.74729968,-46.57527144,13,4,75,15.759,0.028,3.937,3.928,3.956,3.938,0.1,-0.1,0.1,2.3,-4.7,-50.9,309.1,1024,1024,1024,1024,1024,,,,,
235,24.4,0m 24.4s,-23.74728111,-46.57525905,P-GPS,95.1,29.0,,,0.5,0.2,0.0,0.0,7.9,2.4,-23.74729968,-46.57527144,13,4,75,15.759,0.028,3.937,3.928,3.956,3.938,0.1,-0.2,0.1,2.4,-4.8,-50.8,309.2,1024,1024,1024,1024,1024,,,,,
236,24.5,0m 24.5s,-23.74728112,-46.57525914,P-GPS,95.1,29.0,,,0.5,0.2,0.0,0.0,7.9,2.4,-23.74729968,-46.57527144,13,4,75,15.759,0.028,3.937,3.928,3.956,3.938,0.1,-0.2,0.1,3.3,-4.6,-50.9,309.1,1024,1024,1024,1024,1024,,,,,
237,24.6,0m 24.6s,-23.74728122,-46.57525913,P-GPS,95.1,29.0,,,0.5,0.2,0.0,0.0,7.9,2.4,-23.74729968,-46.57527144,13,4,75,15.759,0.028,3.937,3.928,3.956,3.938,0.1,-0.2,0.1,3.7,-4.4,-50.9,309.1,1024,1024,1024,1024,1024,,,,,
238,24.7,0m 24.7s,-23.74728125,-46.57525921,P-GPS,95.1,29.0,,,0.5,0.2,0.0,0.0,7.9,2.4,-23.74729968,-46.57527144,13,4,75,15.759,0.028,3.937,3.928,3.956,3.938,0.1,-0.2,0.2,4,-4,-50.9,309.1,1024,1024,1024,1024,1024,,,,,
239,24.8,0m 24.8s,-23.74728137,-46.57525922,P-GPS,95.1,29.0,,,0.5,0.2,0.0,0.0,7.8,2.4,-23.74729968,-46.57527144,13,4,75,15.759,0.028,3.937,3.928,3.956,3.938,0.1,-0.2,0.2,4.2,-3.4,-51,309,1024,1024,1024,1024,1024,,,,,
240,24.9,0m 24.9s,-23.74728142,-46.5752593,P-GPS,95.1,29.0,,,0.5,0.2,0.0,0.0,7.8,2.4,-23.74729968,-46.57527144,13,4,75,15.759,0.028,3.937,3.928,3.956,3.938,0.1,-0.2,0.1,4.1,-3.4,-51,309,1024,1024,1024,1024,1024,,,,,
241,25,0m 25s,-23.74728153,-46.57525924,P-GPS,95.1,29.0,,,0.3,0.1,0.0,0.0,7.8,2.4,-23.74729968,-46.57527144,13,4,75,15.759,0.028,3.937,3.928,3.956,3.938,0.1,-0.1,0.1,3.8,-3.4,-51,309,1024,1024,1024,1024,1024,,,,,
242,25.1,0m 25.1s,-23.74728156,-46.57525925,P-GPS,95.1,29.0,,,0.3,0.1,0.0,0.0,7.8,2.4,-23.74729968,-46.57527144,13,4,75,15.759,0.028,3.937,3.928,3.956,3.938,0.1,-0.1,0.1,3.2,-3.7,-51,309,1024,1024,1024,1024,1024,,,,,
243,25.2,0m 25.2s,-23.74728168,-46.57525916,P-GPS,95.1,29.0,,,0.3,0.1,0.0,0.0,7.7,2.4,-23.74729968,-46.57527144,13,4,75,15.759,0.028,3.937,3.928,3.956,3.938,0.1,-0.1,0,2.9,-4.1,-50.9,309.1,1024,1024,1024,1024,1024,,,,,
244,25.3,0m 25.3s,-23.74728172,-46.57525918,P-GPS,95.5,29.1,,,0.3,0.1,0.0,0.0,7.7,2.4,-23.74729968,-46.57527144,13,4,75,15.747,0.029,3.93,3.925,3.954,3.938,0.1,-0.1,0,2.9,-4,-51,309,1024,1024,1024,1024,1024,,,,,
245,25.4,0m 25.4s,-23.74728184,-46.57525913,P-GPS,95.5,29.1,,,0.3,0.1,1.1,0.5,7.7,2.3,-23.74729968,-46.57527144,13,4,75,15.747,0.029,3.93,3.925,3.954,3.938,0.1,-0.1,0.1,2.9,-3.6,-50.9,309.1,1024,1024,1024,1024,1024,,,,,
246,25.5,0m 25.5s,-23.74728188,-46.57525917,P-GPS,95.5,29.1,,,0.3,0.1,0.0,0.0,7.7,2.3,-23.74729968,-46.57527144,13,4,75,15.747,0.029,3.93,3.925,3.954,3.938,0.1,-0.1,0.1,3.1,-3.9,-50.9,309.1,1024,1024,1024,1024,1024,,,,,
247,25.6,0m 25.6s,-23.74728197,-46.5752591,P-GPS,95.5,29.1,,,0.3,0.1,0.0,0.0,7.7,2.3,-23.74729968,-46.57527144,13,4,75,15.747,0.029,3.93,3.925,3.954,3.938,0.1,-0.1,0.1,3.2,-4,-51,309,1024,1024,1024,1024,1024,,,,,
248,25.7,0m 25.7s,-23.74728199,-46.57525912,P-GPS,95.5,29.1,,,0.3,0.1,0.0,0.0,7.6,2.3,-23.74729968,-46.57527144,13,4,75,15.747,0.029,3.93,3.925,3.954,3.938,0.1,-0.1,0.1,3.3,-4.1,-51,309,1024,1024,1024,1024,1024,,,,,
249,25.8,0m 25.8s,-23.74728207,-46.57525906,P-GPS,95.5,29.1,,,0.3,0.1,0.0,0.0,7.6,2.3,-23.74729968,-46.57527144,13,4,75,15.747,0.029,3.93,3.925,3.954,3.938,0.1,-0.1,0.1,3.4,-4.1,-50.9,309.1,1024,1024,1024,1024,1024,,,,,
250,25.9,0m 25.9s,-23.74728209,-46.57525909,P-GPS,95.5,29.1,,,0.3,0.1,0.0,0.0,7.6,2.3,-23.74729968,-46.57527144,13,4,75,15.747,0.029,3.93,3.925,3.954,3.938,0.1,-0.1,0.2,2.9,-3.7,-50.9,309.1,1024,1024,1024,1024,1024,,,,,
251,26,0m 26s,-23.74728221,-46.57525904,P-GPS,95.1,29.0,,,0.5,0.2,0.0,0.0,7.6,2.3,-23.74729968,-46.57527144,13,4,75,15.747,0.029,3.93,3.925,3.954,3.938,0.1,-0.2,0.2,2.2,-3.7,-50.9,309.1,1024,1024,1024,1024,1024,,,,,
252,26.1,0m 26.1s,-23.74728224,-46.5752591,P-GPS,95.1,29.0,,,0.5,0.2,0.0,0.0,7.6,2.3,-23.74729968,-46.57527144,13,4,75,15.747,0.029,3.93,3.925,3.954,3.938,0.1,-0.2,0.2,2.7,-3.9,-50.8,309.2,1024,1024,1024,1024,1024,,,,,
253,26.2,0m 26.2s,-23.74728235,-46.57525907,P-GPS,95.1,29.0,,,0.5,0.2,0.0,0.0,7.6,2.3,-23.74729968,-46.57527144,13,4,75,15.747,0.029,3.93,3.925,3.954,3.938,0.1,-0.2,0.2,3.4,-3.8,-50.8,309.2,1024,1024,1024,1024,1024,,,,,
254,26.3,0m 26.3s,-23.74728236,-46.57525914,P-GPS,95.1,29.0,,,0.5,0.2,0.0,0.0,7.5,2.3,-23.74729968,-46.57527144,13,4,75,15.7,0.029,3.921,3.913,3.942,3.924,0.1,-0.2,0.1,3.6,-3.6,-50.9,309.1,1024,1024,1024,1024,1024,,,,,
255,26.4,0m 26.4s,-23.74728249,-46.57525911,P-GPS,95.1,29.0,,,0.5,0.2,0.0,0.0,7.5,2.3,-23.74729968,-46.57527144,13,4,75,15.7,0.029,3.921,3.913,3.942,3.924,0.1,-0.2,0.1,3.5,-3.6,-50.8,309.2,1024,1024,1024,1024,1024,,,,,
256,26.5,0m 26.5s,-23.74728251,-46.57525916,P-GPS,95.1,29.0,,,0.5,0.2,0.0,0.0,7.5,2.3,-23.74729968,-46.57527144,13,4,75,15.7,0.029,3.921,3.913,3.942,3.924,0.1,-0.2,0.1,3.2,-4.1,-50.7,309.3,1024,1024,1024,1024,1024,,,,,
257,26.6,0m 26.6s,-23.74728263,-46.57525908,P-GPS,95.1,29.0,,,0.5,0.2,1.1,0.5,7.5,2.3,-23.74729968,-46.57527144,14,4,75,15.7,0.029,3.921,3.913,3.942,3.924,0.1,-0.2,0.1,3.1,-4.2,-50.7,309.3,1024,1024,1024,1024,1024,,,,,
258,26.7,0m 26.7s,-23.74728266,-46.5752591,P-GPS,95.1,29.0,,,0.5,0.2,0.0,0.0,7.4,2.3,-23.74729968,-46.57527144,14,4,75,15.7,0.029,3.921,3.913,3.942,3.924,0.1,-0.2,0.2,4,-4.1,-50.8,309.2,1024,1024,1024,1024,1024,,,,,
259,26.8,0m 26.8s,-23.74728282,-46.57525908,P-GPS,95.1,29.0,,,0.5,0.2,0.0,0.0,7.4,2.3,-23.74729968,-46.57527144,14,4,75,15.7,0.029,3.921,3.913,3.942,3.924,0.1,-0.2,0.1,5.1,-3.4,-50.9,309.1,1024,1024,1024,1024,1024,,,,,
260,26.9,0m 26.9s,-23.74728287,-46.57525913,P-GPS,95.1,29.0,,,0.3,0.1,0.0,0.0,7.4,2.3,-23.74729968,-46.57527144,14,4,75,15.7,0.029,3.921,3.913,3.942,3.924,0.1,-0.1,0.1,4.6,-2.9,-50.9,309.1,1024,1024,1024,1024,1024,,,,,
261,27,0m 27s,-23.74728305,-46.575259,P-GPS,95.1,29.0,,,0.3,0.1,0.0,0.0,7.4,2.2,-23.74729968,-46.57527144,14,4,75,15.7,0.029,3.921,3.913,3.942,3.924,0.1,-0.1,0.1,3.4,-3.7,-50.9,309.1,1024,1024,1024,1024,1024,,,,,
262,27.1,0m 27.1s,-23.7472831,-46.57525896,P-GPS,95.5,29.1,,,0.3,0.1,0.0,0.0,7.3,2.2,-23.74729968,-46.57527144,14,4,75,15.7,0.029,3.921,3.913,3.942,3.924,0.1,-0.1,0.1,2.8,-4.6,-50.8,309.2,1024,1024,1024,1024,1024,,,,,
263,27.2,0m 27.2s,-23.74728321,-46.57525887,P-GPS,95.5,29.1,,,0.3,0.1,0.0,0.0,7.3,2.2,-23.74729968,-46.57527144,14,4,75,15.7,0.029,3.921,3.913,3.942,3.924,0.1,-0.1,0.1,2.4,-5,-50.7,309.3,1024,1024,1024,1024,1024,,,,,
264,27.3,0m 27.3s,-23.74728324,-46.57525889,P-GPS,95.5,29.1,,,0.5,0.2,0.0,0.0,7.3,2.2,-23.74729968,-46.57527144,14,4,75,15.7,0.029,3.921,3.913,3.942,3.924,0.1,-0.2,0.1,3,-4.4,-50.8,309.2,1024,1024,1024,1024,1024,,,,,
265,27.4,0m 27.4s,-23.74728338,-46.57525885,P-GPS,95.5,29.1,,,0.5,0.2,0.0,0.0,7.3,2.2,-23.74729968,-46.57527144,14,4,75,15.7,0.029,3.921,3.913,3.942,3.924,0.1,-0.2,0.1,3.3,-3.5,-50.9,309.1,1024,1024,1024,1024,1024,,,,,
266,27.5,0m 27.5s,-23.74728342,-46.57525889,P-GPS,95.5,29.1,,,0.5,0.2,0.0,0.0,7.3,2.2,-23.74729968,-46.57527144,14,4,75,15.7,0.029,3.921,3.913,3.942,3.924,0.1,-0.2,0.1,3.4,-3.2,-51,309,1024,1024,1024,1024,1024,,,,,
267,27.6,0m 27.6s,-23.74728356,-46.57525881,P-GPS,95.5,29.1,,,0.3,0.1,0.0,0.0,7.2,2.2,-23.74729968,-46.57527144,14,4,75,15.7,0.029,3.921,3.913,3.942,3.924,0.1,-0.1,0.1,3,-3.5,-51.1,308.9,1024,1024,1024,1024,1024,,,,,
268,27.7,0m 27.7s,-23.74728361,-46.57525881,P-GPS,95.1,29.0,,,0.3,0.1,0.0,0.0,7.2,2.2,-23.74729968,-46.57527144,14,4,75,15.7,0.029,3.921,3.913,3.942,3.924,0.1,-0.1,0.1,3.3,-3.8,-51,309,1024,1024,1024,1024,1024,,,,,
269,27.8,0m 27.8s,-23.74728376,-46.57525869,P-GPS,95.1,29.0,,,0.3,0.1,0.0,0.0,7.2,2.2,-23.74729968,-46.57527144,14,4,75,15.7,0.029,3.921,3.913,3.942,3.924,0.1,-0.1,0.2,2.6,-3.8,-51.1,308.9,1024,1024,1024,1024,1024,,,,,
270,27.9,0m 27.9s,-23.74728382,-46.57525866,P-GPS,95.1,29.0,,,0.3,0.1,0.0,0.0,7.2,2.2,-23.74729968,-46.57527144,14,4,75,15.7,0.029,3.921,3.913,3.942,3.924,0.1,-0.1,0.2,3,-4.3,-51,309,1024,1024,1024,1024,1024,,,,,
271,28,0m 28s,-23.74728404,-46.57525852,P-GPS,95.1,29.0,,,0.3,0.1,0.0,0.0,7.1,2.2,-23.74729968,-46.57527144,14,4,75,15.7,0.029,3.921,3.913,3.942,3.924,0.1,-0.1,0.1,3,-4.2,-51,309,1024,1024,1024,1024,1024,,,,,
272,28.1,0m 28.1s,-23.74728417,-46.57525849,P-GPS,95.1,29.0,,,0.3,0.1,0.0,0.0,7.1,2.2,-23.74729968,-46.57527144,14,4,75,15.7,0.029,3.921,3.913,3.942,3.924,0.1,-0.1,0.1,2.1,-3.8,-50.9,309.1,1024,1024,1024,1024,1024,,,,,
273,28.2,0m 28.2s,-23.74728441,-46.57525837,P-GPS,95.1,29.0,,,0.3,0.1,0.0,0.0,7.1,2.2,-23.74729968,-46.57527144,14,4,75,15.7,0.029,3.921,3.913,3.942,3.924,0.1,-0.1,0.1,2.2,-4.1,-50.8,309.2,1024,1024,1024,1024,1024,,,,,
274,28.3,0m 28.3s,-23.74728455,-46.57525837,P-GPS,95.1,29.0,,,0.3,0.1,0.0,0.0,7.0,2.1,-23.74729968,-46.57527144,14,4,74,15.691,0.031,3.917,3.909,3.94,3.925,0.1,-0.1,0.1,2.9,-3.9,-50.9,309.1,1024,1024,1024,1024,1024,,,,,
