Id,Time(seconds),Time(text),Latitude,Longitude,FlightMode,Altitude(feet),Altitude(meters),VpsAltitude(feet),VpsAltitude(meters),HSpeed(mph),HSpeed(m/s),GpsSpeed(mph),GpsSpeed(m/s),HomeDistance(feet),HomeDistance(meters),HomeLatitude,HomeLongitude,GpsCount,GpsLevel,BatteryPower(%),BatteryVoltage,BatteryVoltageDeviation,BatteryCell1Voltage,BatteryCell2Voltage,BatteryCell3Voltage,BatteryCell4Voltage,VelocityX,VelocityY,VelocityZ,Pitch,Roll,Yaw,Yaw(360),RcAileron,RcElevator,RcGyro,RcRudder,RcThrottle,NonGpsError,GoHomeStatus,AppTip,AppWarning,AppMessage
1,0.5,0m 0.5s,-23.73825023,-46.58122076,Starting Motors,0.0,0.0,0.3,0.1,0.0,0.0,0.0,0.0,0.6,0.2,-23.73824937,-46.58121947,8,4,97,17.009,0.006,4.256,4.252,4.251,4.25,0,0,0,-4.7,4.1,-7.6,352.4,0,0,0,0,0,,,,Your aircraft is flying in an Altitude Zone (150 m). Please fly with caution.,
2,0.6,0m 0.6s,-23.73825024,-46.58122077,Starting Motors,0.0,0.0,0.3,0.1,0.0,0.0,0.0,0.0,0.5,0.2,-23.73824937,-46.58121947,8,4,97,17.009,0.006,4.256,4.252,4.251,4.25,0,0,0,-4.7,4.1,-7.6,352.4,0,0,0,0,0,,,,,
3,0.7,0m 0.7s,-23.73825027,-46.58122075,Starting Motors,0.0,0.0,0.3,0.1,0.0,0.0,1.1,0.5,0.5,0.2,-23.73824937,-46.58121947,8,4,97,17.009,0.006,4.256,4.252,4.251,4.25,0,0,0,-4.7,4.1,-7.7,352.3,0,0,0,0,0,,,,,
4,0.8,0m 0.8s,-23.7382503,-46.58122073,Starting Motors,0.0,0.0,0.3,0.1,0.0,0.0,0.0,0.0,0.5,0.2,-23.73824937,-46.58121947,8,4,97,17.009,0.006,4.256,4.252,4.251,4.25,0,0,0,-4.7,4.1,-7.7,352.3,0,0,0,0,0,,,,,
5,0.9,0m 0.9s,-23.73825029,-46.58122074,Starting Motors,0.0,0.0,0.3,0.1,0.0,0.0,0.0,0.0,0.4,0.1,-23.73824937,-46.58121947,8,4,97,17.009,0.006,4.256,4.252,4.251,4.25,0,0,0,-4.7,4.1,-7.7,352.3,0,0,0,0,0,,,,,
6,1,0m 1s,-23.73825027,-46.58122077,Starting Motors,0.0,0.0,0.3,0.1,0.0,0.0,0.0,0.0,0.5,0.2,-23.73824937,-46.58121947,8,4,97,17.009,0.006,4.256,4.252,4.251,4.25,0,0,0,-4.8,4.2,-7.7,352.3,0,0,0,0,0,,,,,
7,1.1,0m 1.1s,-23.73825025,-46.58122079,Starting Motors,0.0,0.0,0.3,0.1,0.0,0.0,0.0,0.0,0.5,0.2,-23.73824937,-46.58121947,8,4,97,17.009,0.006,4.256,4.252,4.251,4.25,0,0,0,-4.7,4.1,-7.7,352.3,0,0,0,0,0,,,,,
8,1.2,0m 1.2s,-23.73825024,-46.58122081,Starting Motors,0.0,0.0,0.3,0.1,0.0,0.0,0.0,0.0,0.5,0.2,-23.73824937,-46.58121947,8,4,97,17.009,0.006,4.256,4.252,4.251,4.25,0,0,0,-4.8,4.1,-7.7,352.3,0,0,0,0,0,,,,,
9,1.3,0m 1.3s,-23.73825025,-46.58122083,Starting Motors,0.0,0.0,0.3,0.1,0.0,0.0,1.1,0.5,0.6,0.2,-23.73824937,-46.58121947,8,4,97,17.009,0.006,4.256,4.252,4.251,4.25,0,0,0,-4.7,4.1,-7.8,352.2,0,0,0,0,0,,,,,
10,1.4,0m 1.4s,-23.73825027,-46.58122084,Starting Motors,0.0,0.0,0.3,0.1,0.0,0.0,0.0,0.0,0.6,0.2,-23.73824937,-46.58121947,8,4,97,17.009,0.006,4.256,4.252,4.251,4.25,0,0,0,-4.8,4.1,-7.7,352.3,0,0,0,0,0,,,,,
11,1.5,0m 1.5s,-23.73825025,-46.58122085,Auto Takeoff,0.0,0.0,0.3,0.1,0.0,0.0,1.1,0.5,0.6,0.2,-23.73824937,-46.58121947,8,4,97,16.978,0.003,4.246,4.243,4.244,4.245,0,0,0,-4.9,4.1,-7.8,352.2,0,0,0,0,0,,,,,
12,1.6,0m 1.6s,-23.73825023,-46.58122086,Auto Takeoff,0.0,0.0,0.3,0.1,0.0,0.0,1.1,0.5,0.6,0.2,-23.73824937,-46.58121947,8,4,97,16.978,0.003,4.246,4.243,4.244,4.245,0,0,0,-4.7,4.1,-7.8,352.2,0,0,0,0,0,,,,,
13,1.7,0m 1.7s,-23.73825021,-46.58122087,Auto Takeoff,0.0,0.0,0.3,0.1,0.0,0.0,0.0,0.0,0.6,0.2,-23.73824937,-46.58121947,8,4,97,16.978,0.003,4.246,4.243,4.244,4.245,0,0,0,-4.7,4.1,-7.8,352.2,0,0,0,0,0,,,,,
14,1.8,0m 1.8s,-23.73825019,-46.58122088,Auto Takeoff,0.0,0.0,0.3,0.1,0.0,0.0,1.1,0.5,0.6,0.2,-23.73824937,-46.58121947,8,4,97,16.978,0.003,4.246,4.243,4.244,4.245,0,0,0,-4.8,4.1,-7.7,352.3,0,0,0,0,0,,,,,
15,1.9,0m 1.9s,-23.73825018,-46.58122088,Auto Takeoff,0.0,0.0,0.3,0.1,0.0,0.0,0.0,0.0,0.5,0.2,-23.73824937,-46.58121947,8,4,97,16.978,0.003,4.246,4.243,4.244,4.245,0,0,0,-4.7,4.1,-7.7,352.3,0,0,0,0,0,,,,,
16,2,0m 2s,-23.73825016,-46.58122088,Auto Takeoff,0.0,0.0,0.3,0.1,0.0,0.0,0.0,0.0,0.6,0.2,-23.73824937,-46.58121947,8,4,97,16.978,0.003,4.246,4.243,4.244,4.245,0,0,0,-4.8,4.1,-7.8,352.2,0,0,0,0,0,,,,,
17,2.1,0m 2.1s,-23.73825016,-46.58122088,Auto Takeoff,0.0,0.0,0.3,0.1,0.0,0.0,0.0,0.0,0.6,0.2,-23.73824937,-46.58121947,8,4,97,16.978,0.003,4.246,4.243,4.244,4.245,0,0,0,-4.8,4.1,-7.8,352.2,0,0,0,0,0,,,,,
18,2.2,0m 2.2s,-23.73825013,-46.58122087,Auto Takeoff,0.0,0.0,0.3,0.1,0.0,0.0,0.0,0.0,0.5,0.2,-23.73824937,-46.58121947,8,4,97,16.978,0.003,4.246,4.243,4.244,4.245,0,0,0,-4.6,3.8,-7.6,352.4,0,0,0,0,0,,,,,
19,2.3,0m 2.3s,-23.73825008,-46.58122081,Auto Takeoff,0.0,0.0,0.3,0.1,0.2,0.1,0.0,0.0,0.4,0.1,-23.73824937,-46.58121947,8,4,97,16.978,0.003,4.246,4.243,4.244,4.245,0.1,0,0,-4,2.8,-7.8,352.2,0,0,0,0,0,,,,,
20,2.4,0m 2.4s,-23.73824992,-46.5812207,Auto Takeoff,0.0,0.0,0.3,0.1,0.4,0.2,0.0,0.0,0.5,0.2,-23.73824937,-46.58121947,8,4,97,16.978,0.003,4.246,4.243,4.244,4.245,0.2,0,0,-2.6,1.2,-7.5,352.5,0,0,0,0,0,,,,,
21,2.5,0m 2.5s,-23.73824967,-46.58122055,Auto Takeoff,0.0,0.0,0.3,0.1,0.4,0.2,0.0,0.0,0.0,0.0,-23.73824985,-46.58122066,8,4,97,16.894,0.017,4.23,4.229,4.222,4.213,0.2,0,-0.2,-1.8,0.5,-7.4,352.6,0,0,0,0,0,,,,,Home Point Updated
22,2.6,0m 2.6s,-23.73824934,-46.58122039,Auto Takeoff,0.0,0.0,0.7,0.2,0.4,0.2,0.0,0.0,0.0,0.0,-23.73824985,-46.58122066,8,4,97,16.894,0.017,4.23,4.229,4.222,4.213,0.3,0,-0.4,-0.3,0,-7.4,352.6,0,0,0,0,0,,,,,
23,2.7,0m 2.7s,-23.73824893,-46.58122024,Auto Takeoff,0.3,0.1,0.7,0.2,0.7,0.3,0.0,0.0,0.3,0.1,-23.73824985,-46.58122066,8,4,97,16.894,0.017,4.23,4.229,4.222,4.213,0.3,0.1,-0.5,0.9,-0.1,-7.3,352.7,0,0,0,0,0,,,,,
24,2.8,0m 2.8s,-23.7382485,-46.58122009,Auto Takeoff,0.3,0.1,1.0,0.3,0.7,0.3,1.1,0.5,0.6,0.2,-23.73824985,-46.58122066,8,4,97,16.894,0.017,4.23,4.229,4.222,4.213,0.3,0.1,-0.5,2.2,-0.9,-7.1,352.9,0,0,0,0,0,,,,,
25,2.9,0m 2.9s,-23.73824805,-46.58121992,Auto Takeoff,0.7,0.2,1.0,0.3,0.7,0.3,0.0,0.0,0.8,0.2,-23.73824985,-46.58122066,8,4,97,16.894,0.017,4.23,4.229,4.222,4.213,0.3,0.1,-0.6,3.6,-1.9,-7.2,352.8,0,0,0,0,0,,,,,
26,3,0m 3s,-23.73824763,-46.58121977,Auto Takeoff,0.7,0.2,1.3,0.4,0.5,0.2,0.0,0.0,0.9,0.3,-23.73824985,-46.58122066,8,4,97,16.894,0.017,4.23,4.229,4.222,4.213,0.2,0.1,-0.5,4.1,-1.3,-7.4,352.6,0,0,0,0,0,,,,,
27,3.1,0m 3.1s,-23.73824731,-46.58121961,Auto Takeoff,1.0,0.3,1.3,0.4,0.5,0.2,0.0,0.0,1.0,0.3,-23.73824985,-46.58122066,8,4,97,16.894,0.017,4.23,4.229,4.222,4.213,0.2,0.1,-0.5,3.7,-2,-7.3,352.7,0,0,0,0,0,,,,,
28,3.2,0m 3.2s,-23.73824703,-46.58121947,Auto Takeoff,1.0,0.3,1.6,0.5,0.4,0.2,0.0,0.0,1.1,0.3,-23.73824985,-46.58122066,8,4,97,16.894,0.017,4.23,4.229,4.222,4.213,0.2,0,-0.4,3.7,-2.5,-7.3,352.7,0,0,0,0,0,,,,,
29,3.3,0m 3.3s,-23.73824676,-46.5812193,Auto Takeoff,1.3,0.4,1.6,0.5,0.4,0.2,1.1,0.5,1.3,0.4,-23.73824985,-46.58122066,8,4,97,16.894,0.017,4.23,4.229,4.222,4.213,0.2,0,-0.4,3.3,-2.1,-7.4,352.6,0,0,0,0,0,,,,,
30,3.4,0m 3.4s,-23.73824649,-46.58121917,Auto Takeoff,1.3,0.4,2.0,0.6,0.4,0.2,1.1,0.5,1.4,0.4,-23.73824985,-46.58122066,8,4,97,16.894,0.017,4.23,4.229,4.222,4.213,0.2,0,-0.4,3.5,-1,-7.3,352.7,1024,1024,1024,1024,1025,,,,,
31,3.5,0m 3.5s,-23.73824619,-46.58121902,Auto Takeoff,1.3,0.4,2.0,0.6,0.4,0.2,1.1,0.5,1.5,0.4,-23.73824985,-46.58122066,8,4,97,16.264,0.023,4.081,4.065,4.06,4.058,0.2,0,-0.4,3.6,-1.1,-7.5,352.5,1024,1024,1024,1024,1027,,,,,
32,3.6,0m 3.6s,-23.73824589,-46.5812189,Auto Takeoff,1.6,0.5,2.3,0.7,0.4,0.2,0.0,0.0,1.6,0.5,-23.73824985,-46.58122066,8,4,97,16.264,0.023,4.081,4.065,4.06,4.058,0.2,0,-0.4,3.4,-0.5,-7.5,352.5,1024,1024,1024,1024,1184,,,,,
33,3.7,0m 3.7s,-23.73824567,-46.58121878,Auto Takeoff,1.6,0.5,2.3,0.7,0.4,0.2,1.1,0.5,1.6,0.5,-23.73824985,-46.58122066,8,4,97,16.264,0.023,4.081,4.065,4.06,4.058,0.2,0,-0.4,3.5,-1.5,-7.4,352.6,1024,1024,1024,1024,1446,,,,,
34,3.8,0m 3.8s,-23.73824544,-46.58121868,Auto Takeoff,2.0,0.6,2.6,0.8,0.4,0.2,0.0,0.0,1.8,0.5,-23.73824985,-46.58122066,8,4,97,16.264,0.023,4.081,4.065,4.06,4.058,0.2,0,-0.4,4,-2.7,-7.5,352.5,1024,1024,1024,1026,1497,,,,,
35,3.9,0m 3.9s,-23.73824527,-46.5812185,Auto Takeoff,2.0,0.6,2.6,0.8,0.4,0.2,1.1,0.5,1.8,0.6,-23.73824985,-46.58122066,8,4,97,16.264,0.023,4.081,4.065,4.06,4.058,0.2,0,-0.6,4.4,-2.7,-7.6,352.4,1024,1024,1024,1024,1552,,,,,
36,4,0m 4s,-23.73824512,-46.58121837,Auto Takeoff,2.3,0.7,3.0,0.9,0.4,0.2,0.0,0.0,1.9,0.6,-23.73824985,-46.58122066,8,4,97,16.264,0.023,4.081,4.065,4.06,4.058,0.2,0,-0.9,4.1,-2.4,-7.7,352.3,1024,1024,1024,1024,1644,,,,,
37,4.1,0m 4.1s,-23.73824499,-46.58121826,Auto Takeoff,2.6,0.8,3.3,1.0,0.2,0.1,0.0,0.0,2.0,0.6,-23.73824985,-46.58122066,8,4,97,16.264,0.023,4.081,4.065,4.06,4.058,0.1,0,-1.3,4,-2.1,-7.7,352.3,1024,1024,1024,1024,1684,,,,,
38,4.2,0m 4.2s,-23.73824489,-46.58121821,P-GPS,3.3,1.0,3.9,1.2,0.2,0.1,0.0,0.0,2.0,0.6,-23.73824985,-46.58122066,8,4,97,16.264,0.023,4.081,4.065,4.06,4.058,0.1,0,-1.7,4.4,-1.1,-7.4,352.6,1024,1024,1024,1024,1684,,,,"Braking now. Return sticks to midpoints, then continue flying.",
39,4.3,0m 4.3s,-23.73824487,-46.58121818,P-GPS,3.9,1.2,4.6,1.4,0.0,0.0,0.0,0.0,2.0,0.6,-23.73824985,-46.58122066,8,4,97,16.264,0.023,4.081,4.065,4.06,4.058,0,0,-2.3,4.4,1.2,-7.4,352.6,1024,1024,1024,1024,1684,,,,,
40,4.4,0m 4.4s,-23.7382449,-46.58121813,P-GPS,4.9,1.5,5.2,1.6,0.0,0.0,0.0,0.0,2.0,0.6,-23.73824985,-46.58122066,8,4,97,16.264,0.023,4.081,4.065,4.06,4.058,0,0,-2.8,4,1.1,-7.8,352.2,1024,1024,1024,1024,1684,,,,,
41,4.5,0m 4.5s,-23.73824499,-46.5812179,P-GPS,5.9,1.8,6.2,1.9,0.3,0.1,0.0,0.0,2.0,0.6,-23.73824985,-46.58122066,8,4,97,16.264,0.023,4.081,4.065,4.06,4.058,-0.1,0.1,-3.4,2.8,-1.5,-8,352,1024,1024,1024,1024,1684,,,,,
42,4.6,0m 4.6s,-23.73824511,-46.5812177,P-GPS,6.9,2.1,7.5,2.3,0.2,0.1,0.0,0.0,2.0,0.6,-23.73824985,-46.58122066,8,4,97,16.264,0.023,4.081,4.065,4.06,4.058,-0.1,0,-3.9,1.5,-2,-7.7,352.3,1024,1024,1024,1024,1684,,,,,
43,4.7,0m 4.7s,-23.73824532,-46.5812175,P-GPS,8.5,2.6,8.9,2.7,0.2,0.1,1.1,0.5,2.0,0.6,-23.73824985,-46.58122066,8,4,97,16.264,0.023,4.081,4.065,4.06,4.058,-0.1,0,-4.4,0.9,0,-7.4,352.6,1024,1024,1024,1024,1684,,,,,
44,4.8,0m 4.8s,-23.73824552,-46.58121731,P-GPS,9.8,3.0,10.2,3.1,0.2,0.1,0.0,0.0,2.0,0.6,-23.73824985,-46.58122066,8,4,97,16.264,0.023,4.081,4.065,4.06,4.058,-0.1,0,-4.7,0.6,1.8,-7.4,352.6,1024,1024,1024,1024,1684,,,,,
45,4.9,0m 4.9s,-23.73824574,-46.58121697,P-GPS,11.5,3.5,11.8,3.6,0.2,0.1,0.0,0.0,2.0,0.6,-23.73824985,-46.58122066,8,4,97,16.264,0.023,4.081,4.065,4.06,4.058,0,0.1,-4.9,0.7,0.9,-7.5,352.5,1024,1024,1024,1024,1684,,,,,
46,5,0m 5s,-23.73824588,-46.58121663,P-GPS,13.1,4.0,13.5,4.1,0.2,0.1,1.1,0.5,2.0,0.6,-23.73824985,-46.58122066,8,4,97,16.264,0.023,4.081,4.065,4.06,4.058,0,0.1,-5.1,1.3,-1.1,-7.6,352.4,1024,1024,1024,1024,1684,,,,,
47,5.1,0m 5.1s,-23.73824601,-46.5812161,P-GPS,14.8,4.5,15.1,4.6,0.2,0.1,1.5,0.7,2.1,0.6,-23.73824985,-46.58122066,8,4,97,16.264,0.023,4.081,4.065,4.06,4.058,0,0.1,-5.1,2.4,-1.8,-7.6,352.4,1024,1024,1024,1024,1684,,,,,
48,5.2,0m 5.2s,-23.73824612,-46.58121564,P-GPS,16.7,5.1,16.7,5.1,0.3,0.1,0.0,0.0,2.2,0.7,-23.73824985,-46.58122066,8,4,97,16.264,0.023,4.081,4.065,4.06,4.058,-0.1,0.1,-5.2,2,-1.8,-7.4,352.6,1024,1024,1024,1024,1684,,,,,
49,5.3,0m 5.3s,-23.73824629,-46.58121512,P-GPS,18.4,5.6,18.4,5.6,0.3,0.1,1.5,0.7,2.2,0.7,-23.73824985,-46.58122066,8,4,97,16.264,0.023,4.081,4.065,4.06,4.058,-0.1,0.1,-5.1,0.6,-2.6,-7.4,352.6,1024,1024,1024,1024,1684,,,,,
50,5.4,0m 5.4s,-23.73824642,-46.58121471,P-GPS,20.0,6.1,20.0,6.1,0.0,0.0,1.5,0.7,2.4,0.7,-23.73824985,-46.58122066,8,4,97,16.264,0.023,4.081,4.065,4.06,4.058,0,0,-5.1,0.9,-2.1,-7.4,352.6,1024,1024,1024,1024,1684,,,,,
51,5.5,0m 5.5s,-23.73824659,-46.58121433,P-GPS,21.7,6.6,21.7,6.6,0.0,0.0,1.1,0.5,2.5,0.7,-23.73824985,-46.58122066,8,4,97,16.264,0.023,4.081,4.065,4.06,4.058,0,0,-5,1.5,-2.4,-7.5,352.5,1024,1024,1024,1024,1684,,,,,
52,5.6,0m 5.6s,-23.73824676,-46.58121403,P-GPS,23.3,7.1,23.3,7.1,0.2,0.1,1.5,0.7,2.5,0.8,-23.73824985,-46.58122066,8,4,97,16.264,0.023,4.081,4.065,4.06,4.058,-0.1,0,-5,1.2,-2.4,-7.4,352.6,1024,1024,1024,1024,1684,,,,,
53,5.7,0m 5.7s,-23.738247,-46.58121373,P-GPS,24.9,7.6,24.9,7.6,0.2,0.1,0.0,0.0,2.5,0.8,-23.73824985,-46.58122066,8,4,97,16.264,0.023,4.081,4.065,4.06,4.058,-0.1,0,-5,0.2,-2.4,-7.4,352.6,1024,1024,1024,1024,1684,,,,,
54,5.8,0m 5.8s,-23.73824721,-46.58121348,P-GPS,26.6,8.1,26.2,8.0,0.2,0.1,0.0,0.0,2.6,0.8,-23.73824985,-46.58122066,8,4,97,16.264,0.023,4.081,4.065,4.06,4.058,-0.1,0,-4.9,-0.6,-2,-7.5,352.5,1024,1024,1024,1024,1684,,,,,
55,5.9,0m 5.9s,-23.73824746,-46.58121333,P-GPS,28.2,8.6,27.9,8.5,0.0,0.0,0.0,0.0,2.6,0.8,-23.73824985,-46.58122066,8,4,97,16.264,0.023,4.081,4.065,4.06,4.058,0,0,-4.9,-1.1,-1,-7.6,352.4,1024,1024,1024,1024,1684,,,,,
56,6,0m 6s,-23.73824767,-46.5812132,P-GPS,29.9,9.1,29.5,9.0,0.0,0.0,0.0,0.0,2.6,0.8,-23.73824985,-46.58122066,8,4,97,16.264,0.023,4.081,4.065,4.06,4.058,0,0,-4.9,-0.7,-1.7,-7.6,352.4,1024,1024,1024,1024,1684,,,,,
57,6.1,0m 6.1s,-23.73824783,-46.58121319,P-GPS,31.5,9.6,31.2,9.5,0.0,0.0,0.0,0.0,2.6,0.8,-23.73824985,-46.58122066,9,4,97,16.264,0.023,4.081,4.065,4.06,4.058,0,0,-4.9,-0.1,-1.8,-7.5,352.5,1024,1024,1024,1024,1684,,,,,
58,6.2,0m 6.2s,-23.73824796,-46.58121322,P-GPS,33.1,10.1,32.8,10.0,0.0,0.0,0.0,0.0,2.6,0.8,-23.73824985,-46.58122066,9,4,97,16.264,0.023,4.081,4.065,4.06,4.058,0,0,-4.9,0.3,-1.4,-7.6,352.4,1024,1024,1024,1024,1684,,,,,
59,6.3,0m 6.3s,-23.73824811,-46.58121334,P-GPS,34.8,10.6,34.4,10.5,0.2,0.1,1.1,0.5,2.6,0.8,-23.73824985,-46.58122066,9,4,97,16.264,0.023,4.081,4.065,4.06,4.058,0,-0.1,-4.9,0.3,-0.1,-7.5,352.5,1024,1024,1024,1024,1684,,,,,
60,6.4,0m 6.4s,-23.73824827,-46.58121342,P-GPS,36.4,11.1,36.1,11.0,0.0,0.0,0.0,0.0,2.5,0.8,-23.73824985,-46.58122066,9,4,97,16.264,0.023,4.081,4.065,4.06,4.058,0,0,-4.9,0.6,0.2,-7.6,352.4,1024,1024,1024,1024,1684,,,,,
61,6.5,0m 6.5s,-23.73824844,-46.58121349,P-GPS,38.1,11.6,37.4,11.4,0.0,0.0,0.0,0.0,2.5,0.7,-23.73824985,-46.58122066,9,4,97,15.657,0.053,3.947,3.914,3.902,3.894,0,0,-4.9,0.1,0.6,-7.6,352.4,1024,1024,1024,1024,1684,,,,,
62,6.6,0m 6.6s,-23.73824861,-46.58121352,P-GPS,39.7,12.1,39.0,11.9,0.0,0.0,0.0,0.0,2.5,0.7,-23.73824985,-46.58122066,9,4,97,15.657,0.053,3.947,3.914,3.902,3.894,0,0,-4.9,-0.6,0.4,-7.5,352.5,1024,1024,1024,1024,1684,,,,,
63,6.7,0m 6.7s,-23.7382488,-46.5812135,P-GPS,41.3,12.6,40.7,12.4,0.0,0.0,0.0,0.0,2.4,0.7,-23.73824985,-46.58122066,9,4,97,15.657,0.053,3.947,3.914,3.902,3.894,0,0,-4.9,-0.8,-0.1,-7.6,352.4,1024,1024,1024,1024,1684,,,,,
64,6.8,0m 6.8s,-23.73824896,-46.58121347,P-GPS,42.7,13.0,42.3,12.9,0.0,0.0,0.0,0.0,2.4,0.7,-23.73824985,-46.58122066,9,4,97,15.657,0.053,3.947,3.914,3.902,3.894,0,0,-4.9,-0.9,-0.9,-7.6,352.4,1024,1024,1024,1024,1684,,,,,
65,6.9,0m 6.9s,-23.73824912,-46.58121346,P-GPS,44.3,13.5,44.0,13.4,0.2,0.1,0.0,0.0,2.4,0.7,-23.73824985,-46.58122066,9,4,97,15.657,0.053,3.947,3.914,3.902,3.894,0,-0.1,-5,-2.7,-0.7,-7.5,352.5,1024,1024,1024,1024,1684,,,,,
66,7,0m 7s,-23.73824917,-46.58121351,P-GPS,45.9,14.0,45.6,13.9,0.3,0.1,0.0,0.0,2.4,0.7,-23.73824985,-46.58122066,9,4,97,15.657,0.053,3.947,3.914,3.902,3.894,0.1,-0.1,-5,-1.7,0.7,-7.7,352.3,1024,1024,1024,1024,1684,,,,,
67,7.1,0m 7.1s,-23.7382491,-46.58121356,P-GPS,47.9,14.6,47.2,14.4,0.3,0.1,0.0,0.0,2.4,0.7,-23.73824985,-46.58122066,9,4,97,15.657,0.053,3.947,3.914,3.902,3.894,0.2,-0.1,-5.1,1.5,1.3,-7.6,352.4,1024,1024,1024,1024,1684,,,,,
68,7.2,0m 7.2s,-23.73824897,-46.58121361,P-GPS,49.5,15.1,48.9,14.9,0.5,0.2,0.0,0.0,2.4,0.7,-23.73824985,-46.58122066,9,4,97,15.657,0.053,3.947,3.914,3.902,3.894,0.2,-0.1,-5,3.6,1,-7.7,352.3,1024,1024,1024,1024,1684,,,,,
69,7.3,0m 7.3s,-23.73824885,-46.58121364,P-GPS,51.2,15.6,50.5,15.4,0.5,0.2,0.0,0.0,2.4,0.7,-23.73824985,-46.58122066,9,4,97,15.657,0.053,3.947,3.914,3.902,3.894,0.2,-0.1,-4.9,4.3,0.8,-7.6,352.4,1024,1024,1024,1024,1684,,,,,
70,7.4,0m 7.4s,-23.73824873,-46.58121368,P-GPS,52.8,16.1,52.2,15.9,0.3,0.1,1.1,0.5,2.4,0.7,-23.73824985,-46.58122066,9,4,97,15.657,0.053,3.947,3.914,3.902,3.894,0.1,-0.1,-4.9,4.7,1.3,-7.5,352.5,1024,1024,1024,1024,1684,,,,,
71,7.5,0m 7.5s,-23.73824865,-46.58121371,P-GPS,54.5,16.6,53.5,16.3,0.3,0.1,0.0,0.0,2.4,0.7,-23.73824985,-46.58122066,9,4,97,15.838,0.025,3.976,3.957,3.951,3.954,0.1,-0.1,-4.9,4.6,1.7,-7.5,352.5,1024,1024,1024,1024,1684,,,,,
72,7.6,0m 7.6s,-23.73824858,-46.58121372,P-GPS,56.1,17.1,,,0.2,0.1,0.0,0.0,2.4,0.7,-23.73824985,-46.58122066,9,4,97,15.838,0.025,3.976,3.957,3.951,3.954,0.1,0,-4.9,4.5,1.2,-7.5,352.5,1024,1024,1024,1024,1684,,,,,
73,7.7,0m 7.7s,-23.73824855,-46.58121374,P-GPS,57.7,17.6,,,0.0,0.0,0.0,0.0,2.4,0.7,-23.73824985,-46.58122066,9,4,97,15.838,0.025,3.976,3.957,3.951,3.954,0,0,-4.9,3.4,1.1,-7.5,352.5,1024,1024,562,1024,1684,,,,,
74,7.8,0m 7.8s,-23.7382485,-46.58121376,P-GPS,59.4,18.1,,,0.2,0.1,1.1,0.5,2.4,0.7,-23.73824985,-46.58122066,9,4,97,15.838,0.025,3.976,3.957,3.951,3.954,0.1,0,-5,3.3,0.7,-7.5,352.5,1024,1024,364,1024,1684,,,,,
75,7.9,0m 7.9s,-23.73824846,-46.58121379,P-GPS,61.0,18.6,,,0.3,0.1,0.0,0.0,2.4,0.7,-23.73824985,-46.58122066,9,4,97,15.838,0.025,3.976,3.957,3.951,3.954,0.1,-0.1,-5,3.7,0.8,-7.4,352.6,1024,1024,364,1024,1684,,,,,
76,8,0m 8s,-23.73824841,-46.58121383,P-GPS,62.7,19.1,,,0.3,0.1,1.1,0.5,2.4,0.7,-23.73824985,-46.58122066,9,4,97,15.838,0.025,3.976,3.957,3.951,3.954,0.1,-0.1,-4.9,4.1,1.3,-7.5,352.5,1024,1024,364,1024,1684,,,,,
77,8.1,0m 8.1s,-23.73824838,-46.58121376,P-GPS,64.3,19.6,,,0.2,0.1,0.0,0.0,2.4,0.7,-23.73824985,-46.58122066,10,4,97,15.838,0.025,3.976,3.957,3.951,3.954,0,-0.1,-5,4.1,1.9,-7.5,352.5,1024,1024,364,1024,1684,,,,,
78,8.2,0m 8.2s,-23.73824835,-46.58121365,P-GPS,65.9,20.1,,,0.3,0.1,0.0,0.0,2.4,0.7,-23.73824985,-46.58122066,10,4,97,15.838,0.025,3.976,3.957,3.951,3.954,0.1,-0.1,-5,4,2.2,-7.5,352.5,1024,1024,364,1024,1684,,,,,
79,8.3,0m 8.3s,-23.7382483,-46.58121342,P-GPS,67.6,20.6,,,0.2,0.1,0.0,0.0,2.5,0.8,-23.73824985,-46.58122066,10,4,97,15.838,0.025,3.976,3.957,3.951,3.954,0.1,0,-5.1,4,1.8,-7.5,352.5,1024,1024,364,1024,1684,,,,,
80,8.4,0m 8.4s,-23.73824822,-46.58121322,P-GPS,69.2,21.1,,,0.3,0.1,1.1,0.5,2.6,0.8,-23.73824985,-46.58122066,10,4,97,15.838,0.025,3.976,3.957,3.951,3.954,0.1,-0.1,-5.1,4.5,1.4,-7.5,352.5,1024,1024,364,1024,1684,,,,,
81,8.5,0m 8.5s,-23.73824813,-46.58121294,P-GPS,70.9,21.6,,,0.3,0.1,1.1,0.5,2.7,0.8,-23.73824985,-46.58122066,10,4,97,15.84,0.034,3.982,3.959,3.951,3.948,0.1,-0.1,-4.9,4.5,2,-7.5,352.5,1024,1024,364,1024,1684,,,,,
82,8.7,0m 8.7s,-23.73824797,-46.58121237,P-GPS,74.1,22.6,,,0.0,0.0,1.0,0.4,2.9,0.9,-23.73824985,-46.58122066,10,4,97,15.84,0.034,3.982,3.959,3.951,3.948,0,0,-4.8,4.8,2.8,-7.6,352.4,1024,1024,364,1024,1684,,,,,
83,8.8,0m 8.8s,-23.73824792,-46.58121208,P-GPS,75.8,23.1,,,0.0,0.0,1.0,0.4,3.0,0.9,-23.73824985,-46.58122066,10,4,97,15.84,0.034,3.982,3.959,3.951,3.948,0,0,-4.8,4.6,3,-7.5,352.5,1024,1024,364,1024,1684,,,,,
84,8.9,0m 8.9s,-23.73824788,-46.58121171,P-GPS,77.1,23.5,,,0.0,0.0,1.5,0.7,3.1,0.9,-23.73824985,-46.58122066,10,4,97,15.84,0.034,3.982,3.959,3.951,3.948,0,0,-4.7,4,2.3,-7.5,352.5,1024,1024,364,1024,1684,,,,,
85,9,0m 9s,-23.73824786,-46.58121135,P-GPS,78.7,24.0,,,0.0,0.0,1.1,0.5,3.2,1.0,-23.73824985,-46.58122066,10,4,97,15.84,0.034,3.982,3.959,3.951,3.948,0,0,-4.8,3.6,1.7,-7.5,352.5,1024,1024,364,1024,1684,,,,,
86,9.1,0m 9.1s,-23.73824781,-46.58121098,P-GPS,80.4,24.5,,,0.0,0.0,1.1,0.5,3.3,1.0,-23.73824985,-46.58122066,10,4,97,15.84,0.034,3.982,3.959,3.951,3.948,0,0,-4.9,3.8,1.2,-7.6,352.4,1024,1024,364,1024,1684,,,,,
87,9.2,0m 9.2s,-23.73824777,-46.58121064,P-GPS,82.0,25.0,,,0.0,0.0,1.1,0.5,3.5,1.1,-23.73824985,-46.58122066,10,4,97,15.84,0.034,3.982,3.959,3.951,3.948,0,0,-4.9,4.3,1.5,-7.5,352.5,1024,1024,364,1024,1684,,,,,
88,9.3,0m 9.3s,-23.73824771,-46.58121033,P-GPS,83.7,25.5,,,0.0,0.0,1.1,0.5,3.5,1.1,-23.73824985,-46.58122066,10,4,97,15.84,0.034,3.982,3.959,3.951,3.948,0,0,-4.9,4.6,1.9,-7.5,352.5,1024,1024,364,1024,1684,,,,,
89,9.4,0m 9.4s,-23.73824768,-46.58121001,P-GPS,85.3,26.0,,,0.0,0.0,1.5,0.7,3.7,1.1,-23.73824985,-46.58122066,10,4,97,15.84,0.034,3.982,3.959,3.951,3.948,0,0,-5,4.2,0.8,-7.6,352.4,1024,1024,364,1024,1684,,,,,
90,9.5,0m 9.5s,-23.73824765,-46.58120973,P-GPS,86.9,26.5,,,0.0,0.0,0.0,0.0,3.7,1.1,-23.73824985,-46.58122066,10,4,97,15.84,0.034,3.982,3.959,3.951,3.948,0,0,-5,4.1,0.3,-7.6,352.4,1024,1024,1024,1024,1640,,,,,
91,9.6,0m 9.6s,-23.73824763,-46.58120949,P-GPS,88.6,27.0,,,0.0,0.0,0.0,0.0,3.8,1.2,-23.73824985,-46.58122066,10,4,97,15.84,0.034,3.982,3.959,3.951,3.948,0,0,-5,3.9,1.6,-7.6,352.4,1024,1024,1024,1024,1651,,,,,
92,9.7,0m 9.7s,-23.73824759,-46.58120932,P-GPS,90.2,27.5,,,0.0,0.0,0.0,0.0,3.9,1.2,-23.73824985,-46.58122066,10,4,97,15.84,0.034,3.982,3.959,3.951,3.948,0,0,-4.9,5.3,2.3,-7.6,352.4,1024,1024,1024,1024,1669,,,,,
93,9.8,0m 9.8s,-23.73824755,-46.58120916,P-GPS,91.9,28.0,,,0.0,0.0,0.0,0.0,3.9,1.2,-23.73824985,-46.58122066,10,4,97,15.84,0.034,3.982,3.959,3.951,3.948,0,0,-4.7,5.6,2.5,-7.5,352.5,1024,1024,1024,1024,1669,,,,,
94,9.9,0m 9.9s,-23.73824755,-46.58120906,P-GPS,93.5,28.5,,,0.2,0.1,0.0,0.0,4.0,1.2,-23.73824985,-46.58122066,10,4,97,15.84,0.034,3.982,3.959,3.951,3.948,0,-0.1,-4.7,4.1,2.7,-7.6,352.4,1024,1024,1024,1024,1684,,,,,
95,10,0m 10s,-23.73824758,-46.58120897,P-GPS,95.1,29.0,,,0.2,0.1,0.0,0.0,4.0,1.2,-23.73824985,-46.58122066,10,4,97,15.84,0.034,3.982,3.959,3.951,3.948,0,-0.1,-4.7,4.2,3.9,-7.5,352.5,1024,1024,1024,1024,1684,,,,,
96,10.1,0m 10.1s,-23.73824761,-46.58120893,P-GPS,96.8,29.5,,,0.2,0.1,0.0,0.0,4.0,1.2,-23.73824985,-46.58122066,10,4,97,15.84,0.034,3.982,3.959,3.951,3.948,0,-0.1,-4.6,3.9,5.6,-7.5,352.5,1024,1024,1024,1024,1666,,,,,
97,10.2,0m 10.2s,-23.73824766,-46.58120882,P-GPS,98.1,29.9,,,0.0,0.0,0.0,0.0,4.0,1.2,-23.73824985,-46.58122066,10,4,97,15.84,0.034,3.982,3.959,3.951,3.948,0,0,-4.7,3.6,5.3,-7.6,352.4,1024,1024,1024,1024,1684,,,,,
98,10.3,0m 10.3s,-23.73824773,-46.58120868,P-GPS,99.7,30.4,,,0.0,0.0,0.0,0.0,4.1,1.2,-23.73824985,-46.58122066,10,4,97,15.84,0.034,3.982,3.959,3.951,3.948,0,0,-4.7,4.1,4.8,-7.5,352.5,1024,1024,1024,1024,1684,,,,,
99,10.4,0m 10.4s,-23.73824781,-46.5812085,P-GPS,101.4,30.9,,,0.0,0.0,0.0,0.0,4.1,1.3,-23.73824985,-46.58122066,10,4,97,15.84,0.034,3.982,3.959,3.951,3.948,0,0,-4.6,3.5,4.2,-7.6,352.4,1024,1024,1024,1024,1684,,,,,
100,10.5,0m 10.5s,-23.73824789,-46.58120825,P-GPS,102.7,31.3,,,0.0,0.0,0.0,0.0,4.2,1.3,-23.73824985,-46.58122066,10,4,97,15.787,0.027,3.965,3.944,3.938,3.94,0,0,-4.7,3.3,2.9,-7.6,352.4,1024,1024,1024,1024,1684,,,,,
101,10.6,0m 10.6s,-23.73824793,-46.58120798,P-GPS,104.3,31.8,,,0.0,0.0,0.0,0.0,4.3,1.3,-23.73824985,-46.58122066,10,4,97,15.787,0.027,3.965,3.944,3.938,3.94,0,0,-4.8,4.1,2.9,-7.6,352.4,1024,1024,1024,1062,1684,,,,,
102,10.7,0m 10.7s,-23.73824797,-46.58120772,P-GPS,105.6,32.2,,,0.0,0.0,0.0,0.0,4.4,1.3,-23.73824985,-46.58122066,10,4,97,15.787,0.027,3.965,3.944,3.938,3.94,0,0,-4.7,4.5,3.2,-7.5,352.5,1024,1024,1024,1024,1684,,,,,
103,10.8,0m 10.8s,-23.73824801,-46.58120747,P-GPS,107.3,32.7,,,0.0,0.0,0.0,0.0,4.5,1.4,-23.73824985,-46.58122066,10,4,97,15.787,0.027,3.965,3.944,3.938,3.94,0,0,-4.8,4.7,3.7,-7.6,352.4,1024,1024,1024,1024,1456,,,,,
104,10.9,0m 10.9s,-23.73824806,-46.58120724,P-GPS,108.9,33.2,,,0.0,0.0,1.1,0.5,4.5,1.4,-23.73824985,-46.58122066,10,4,97,15.787,0.027,3.965,3.944,3.938,3.94,0,0,-5,4.4,3.6,-7.6,352.4,1024,1024,1024,1024,1024,,,,,
105,11,0m 11s,-23.73824809,-46.58120703,P-GPS,110.9,33.8,,,0.0,0.0,0.0,0.0,4.6,1.4,-23.73824985,-46.58122066,10,4,97,15.787,0.027,3.965,3.944,3.938,3.94,0,0,-4.8,5.6,4.4,-7.6,352.4,1024,1024,1024,1024,1024,,,,,
106,11.1,0m 11.1s,-23.73824811,-46.58120683,P-GPS,112.2,34.2,,,0.0,0.0,1.1,0.5,4.7,1.4,-23.73824985,-46.58122066,10,4,97,15.787,0.027,3.965,3.944,3.938,3.94,0,0,-4.1,7.4,5.6,-7.3,352.7,1024,1024,1024,1024,1024,,,,,
107,11.2,0m 11.2s,-23.73824813,-46.58120662,P-GPS,113.5,34.6,,,0.0,0.0,1.1,0.5,4.7,1.4,-23.73824985,-46.58122066,10,4,97,15.787,0.027,3.965,3.944,3.938,3.94,0,0,-3.4,6.8,5.3,-7.3,352.7,1024,1024,948,1024,1024,,,,,
108,11.3,0m 11.3s,-23.73824817,-46.58120639,P-GPS,114.2,34.8,,,0.0,0.0,0.0,0.0,4.8,1.5,-23.73824985,-46.58122066,10,4,97,15.787,0.027,3.965,3.944,3.938,3.94,0,0,-2.6,5.9,4.5,-7.5,352.5,1024,1024,620,1024,1024,,,,,
109,11.4,0m 11.4s,-23.73824819,-46.58120617,P-GPS,114.8,35.0,,,0.0,0.0,0.0,0.0,4.9,1.5,-23.73824985,-46.58122066,10,4,97,15.787,0.027,3.965,3.944,3.938,3.94,0,0,-2,6,4.2,-7.4,352.6,1024,1024,475,1024,1024,,,,,
110,11.5,0m 11.5s,-23.73824819,-46.58120596,P-GPS,115.5,35.2,,,0.0,0.0,0.0,0.0,4.9,1.5,-23.73824985,-46.58122066,10,4,97,15.787,0.027,3.965,3.944,3.938,3.94,0,0,-1.3,6.1,3.8,-7.4,352.6,1024,1024,368,1024,1024,,,,,
111,11.6,0m 11.6s,-23.73824817,-46.58120576,P-GPS,115.5,35.2,,,0.0,0.0,0.0,0.0,5.0,1.5,-23.73824985,-46.58122066,10,4,97,15.787,0.027,3.965,3.944,3.938,3.94,0,0,-0.7,5.3,2.9,-7.5,352.5,1024,1024,364,1024,1024,,,,,
112,11.7,0m 11.7s,-23.73824815,-46.5812056,P-GPS,115.5,35.2,,,0.2,0.1,1.1,0.5,5.1,1.5,-23.73824985,-46.58122066,10,4,97,15.787,0.027,3.965,3.944,3.938,3.94,0.1,0,-0.5,4.7,2.5,-7.7,352.3,1024,1024,364,1024,1024,,,,,
113,11.8,0m 11.8s,-23.73824812,-46.58120546,P-GPS,115.5,35.2,,,0.2,0.1,0.0,0.0,5.1,1.6,-23.73824985,-46.58122066,10,4,97,15.787,0.027,3.965,3.944,3.938,3.94,0.1,0,-0.2,5.2,2.8,-7.7,352.3,1024,1024,1024,1048,1517,,,,,
114,12,0m 12s,-23.73824807,-46.58120527,P-GPS,115.8,35.3,,,0.2,0.1,0.0,0.0,5.2,1.6,-23.73824985,-46.58122066,10,4,97,15.787,0.027,3.965,3.944,3.938,3.94,0.1,0,-0.1,6.6,3.7,-7.7,352.3,1024,1024,1024,1024,1609,,,,,
115,12.1,0m 12.1s,-23.73824812,-46.58120518,P-GPS,115.8,35.3,,,0.2,0.1,0.7,0.3,5.2,1.6,-23.73824985,-46.58122066,10,4,97,15.787,0.027,3.965,3.944,3.938,3.94,0.1,0,-0.2,5.8,3.6,-7.7,352.3,1024,1024,1024,1024,1646,,,,,
116,12.2,0m 12.2s,-23.73824819,-46.58120504,P-GPS,116.1,35.4,,,0.2,0.1,0.0,0.0,5.3,1.6,-23.73824985,-46.58122066,10,4,97,15.787,0.027,3.965,3.944,3.938,3.94,0.1,0,-0.8,4.8,2,-7.9,352.1,1024,1024,1024,1024,1669,,,,,
117,12.3,0m 12.3s,-23.73824833,-46.58120495,P-GPS,116.8,35.6,,,0.3,0.1,0.0,0.0,5.3,1.6,-23.73824985,-46.58122066,10,4,97,15.787,0.027,3.965,3.944,3.938,3.94,0.1,-0.1,-1.4,5.9,1.9,-7.9,352.1,1024,1024,1024,1031,1684,,,,,
118,12.4,0m 12.4s,-23.73824848,-46.58120489,P-GPS,117.5,35.8,,,0.3,0.1,0.0,0.0,5.3,1.6,-23.73824985,-46.58122066,10,4,97,15.787,0.027,3.965,3.944,3.938,3.94,0.1,-0.1,-2,7.8,3.1,-7.8,352.2,1024,1024,1024,1024,1684,,,,,
119,12.5,0m 12.5s,-23.73824875,-46.58120487,P-GPS,118.4,36.1,,,0.3,0.1,1.1,0.5,5.3,1.6,-23.73824985,-46.58122066,10,4,97,16.293,0.025,4.087,4.063,4.062,4.081,0,-0.1,-2.6,8.3,4.4,-7.7,352.3,1024,1024,1024,1024,1684,,,,,
120,12.6,0m 12.6s,-23.73824908,-46.5812048,P-GPS,119.4,36.4,,,0.2,0.1,1.1,0.5,5.3,1.6,-23.73824985,-46.58122066,10,4,97,16.293,0.025,4.087,4.063,4.062,4.081,-0.1,0,-3.1,7.2,5.2,-7.8,352.2,1024,1024,1024,1024,1684,,,,,
121,12.7,0m 12.7s,-23.73824961,-46.58120457,P-GPS,120.4,36.7,,,0.4,0.2,1.1,0.5,5.4,1.6,-23.73824985,-46.58122066,10,4,97,16.293,0.025,4.087,4.063,4.062,4.081,-0.2,0,-3.7,5.6,5.4,-7.9,352.1,1024,1024,1024,1024,1684,,,,,
122,12.8,0m 12.8s,-23.73825015,-46.58120427,P-GPS,121.7,37.1,,,0.4,0.2,1.5,0.7,5.5,1.7,-23.73824985,-46.58122066,10,4,97,16.293,0.025,4.087,4.063,4.062,4.081,-0.2,0,-4.1,4.7,5.4,-7.9,352.1,1024,1024,1024,1026,1684,,,,,
123,12.9,0m 12.9s,-23.73825077,-46.58120377,P-GPS,123.4,37.6,,,0.5,0.2,1.5,0.7,5.6,1.7,-23.73824985,-46.58122066,10,4,97,16.293,0.025,4.087,4.063,4.062,4.081,-0.2,0.1,-4.4,3.9,5.1,-7.9,352.1,1024,1024,1024,1025,1684,,,,,
124,13,0m 13s,-23.73825133,-46.58120324,P-GPS,125.0,38.1,,,0.6,0.3,1.8,0.8,5.8,1.8,-23.73824985,-46.58122066,10,4,97,16.293,0.025,4.087,4.063,4.062,4.081,-0.2,0.2,-4.6,4.1,3.6,-7.8,352.2,1024,1024,1024,1024,1684,,,,,
125,13.1,0m 13.1s,-23.73825189,-46.58120256,P-GPS,126.6,38.6,,,0.8,0.4,2.1,0.9,6.1,1.9,-23.73824985,-46.58122066,10,4,97,16.293,0.025,4.087,4.063,4.062,4.081,-0.3,0.2,-4.8,3.9,2.7,-7.7,352.3,1024,1024,1024,1024,1684,,,,,
126,13.2,0m 13.2s,-23.73825237,-46.58120198,P-GPS,128.0,39.0,,,0.8,0.4,1.8,0.8,6.3,1.9,-23.73824985,-46.58122066,10,4,97,16.293,0.025,4.087,4.063,4.062,4.081,-0.3,0.2,-4.7,2.4,2.7,-7.8,352.2,1024,1024,1024,1024,1684,,,,,
127,13.3,0m 13.3s,-23.73825288,-46.58120133,P-GPS,129.6,39.5,,,0.8,0.4,1.8,0.8,6.6,2.0,-23.73824985,-46.58122066,10,4,97,16.293,0.025,4.087,4.063,4.062,4.081,-0.3,0.2,-4.8,0.9,2.2,-7.8,352.2,1024,1024,1024,1024,1684,,,,,
128,13.4,0m 13.4s,-23.73825328,-46.58120078,P-GPS,131.2,40.0,,,0.6,0.3,1.8,0.8,6.8,2.1,-23.73824985,-46.58122066,10,4,97,16.293,0.025,4.087,4.063,4.062,4.081,-0.2,0.2,-4.9,0.9,1.1,-7.9,352.1,1024,1024,1024,1024,1684,,,,,
129,13.5,0m 13.5s,-23.7382536,-46.58120019,P-GPS,132.9,40.5,,,0.5,0.2,1.5,0.7,7.0,2.1,-23.73824985,-46.58122066,10,4,97,16.293,0.025,4.087,4.063,4.062,4.081,-0.2,0.1,-4.7,1.4,1.2,-7.9,352.1,1024,1024,1024,1024,1684,,,,,
130,13.6,0m 13.6s,-23.73825382,-46.58119971,P-GPS,134.5,41.0,,,0.3,0.1,1.8,0.8,7.1,2.2,-23.73824985,-46.58122066,10,4,97,16.293,0.025,4.087,4.063,4.062,4.081,-0.1,0.1,-4.7,1.6,1,-7.8,352.2,1024,1024,1024,1024,1490,,,,,
131,13.7,0m 13.7s,-23.73825401,-46.5811992,P-GPS,135.8,41.4,,,0.3,0.1,1.1,0.5,7.3,2.2,-23.73824985,-46.58122066,10,4,97,16.293,0.025,4.087,4.063,4.062,4.081,-0.1,0.1,-4.6,1.1,0.6,-7.7,352.3,1024,1024,1024,1024,1129,,,,,
132,13.8,0m 13.8s,-23.73825412,-46.58119877,P-GPS,137.5,41.9,,,0.2,0.1,1.1,0.5,7.5,2.3,-23.73824985,-46.58122066,10,4,97,16.293,0.025,4.087,4.063,4.062,4.081,0,0.1,-4.5,1.7,0,-7.8,352.2,1024,1024,1024,1024,1129,,,,,
133,13.9,0m 13.9s,-23.73825425,-46.58119832,P-GPS,138.8,42.3,,,0.2,0.1,1.5,0.7,7.6,2.3,-23.73824985,-46.58122066,10,4,97,16.293,0.025,4.087,4.063,4.062,4.081,0,0.1,-4.1,3.5,0,-7.7,352.3,1024,1024,1024,1024,1024,,,,,
134,14,0m 14s,-23.73825435,-46.58119794,P-GPS,139.8,42.6,,,0.2,0.1,1.1,0.5,7.8,2.4,-23.73824985,-46.58122066,10,4,97,16.293,0.025,4.087,4.063,4.062,4.081,0,0.1,-3.4,3.3,-0.2,-7.8,352.2,1024,1024,1024,1024,1024,,,,,
135,14.1,0m 14.1s,-23.73825439,-46.58119763,P-GPS,140.7,42.9,,,0.2,0.1,1.1,0.5,7.9,2.4,-23.73824985,-46.58122066,11,4,97,16.293,0.025,4.087,4.063,4.062,4.081,0,0.1,-2.7,1.8,-0.7,-7.7,352.3,1024,1024,1024,369,1024,,,,,
136,14.2,0m 14.2s,-23.73825436,-46.58119737,P-GPS,141.4,43.1,,,0.2,0.1,1.1,0.5,8.0,2.4,-23.73824985,-46.58122066,11,4,97,16.293,0.025,4.087,4.063,4.062,4.081,0,0.1,-2.1,1.4,-1.5,-7.8,352.2,1024,1024,1024,369,1024,,,,,
137,14.3,0m 14.3s,-23.73825431,-46.58119715,P-GPS,142.1,43.3,,,0.2,0.1,0.0,0.0,8.0,2.4,-23.73824985,-46.58122066,11,4,97,16.293,0.025,4.087,4.063,4.062,4.081,0,0.1,-1.5,1.4,-2,-9.9,350.1,1024,1024,1024,370,1024,,,,,
138,14.4,0m 14.4s,-23.73825424,-46.58119696,P-GPS,142.4,43.4,,,0.2,0.1,0.0,0.0,8.1,2.5,-23.73824985,-46.58122066,11,4,97,16.293,0.025,4.087,4.063,4.062,4.081,0,0.1,-0.9,0,-2.9,-21.6,338.4,1024,1024,1024,370,1024,,,,,
139,14.5,0m 14.5s,-23.73825421,-46.58119679,P-GPS,142.4,43.4,,,0.2,0.1,0.0,0.0,8.1,2.5,-23.73824985,-46.58122066,11,4,97,15.359,0.028,3.858,3.833,3.83,3.838,0.1,0,-0.5,-1.4,-2.5,-35.8,324.2,1024,1024,1024,613,1026,,,,,
140,14.6,0m 14.6s,-23.73825413,-46.58119666,P-GPS,142.4,43.4,,,0.2,0.1,0.0,0.0,8.2,2.5,-23.73824985,-46.58122066,11,4,97,15.359,0.028,3.858,3.833,3.83,3.838,0.1,0,-0.3,-1.7,-2,-49,311,1024,1024,1024,613,1026,,,,,
141,14.7,0m 14.7s,-23.73825404,-46.58119658,P-GPS,142.4,43.4,,,0.4,0.2,0.0,0.0,8.2,2.5,-23.73824985,-46.58122066,11,4,97,15.359,0.028,3.858,3.833,3.83,3.838,0.2,0,-0.2,-0.6,-1.6,-58.9,301.1,1024,1024,1024,777,1056,,,,,
142,14.8,0m 14.8s,-23.73825389,-46.58119655,P-GPS,142.4,43.4,,,0.5,0.2,0.0,0.0,8.2,2.5,-23.73824985,-46.58122066,11,4,97,15.359,0.028,3.858,3.833,3.83,3.838,0.2,-0.1,-0.2,0.6,-1.9,-62.5,297.5,1024,1024,1024,1024,1025,,,,,
143,14.9,0m 14.9s,-23.73825374,-46.58119653,P-GPS,142.7,43.5,,,0.7,0.3,0.0,0.0,8.2,2.5,-23.73824985,-46.58122066,11,4,97,15.359,0.028,3.858,3.833,3.83,3.838,0.3,-0.1,-0.1,1.3,-2.9,-62.9,297.1,1024,1024,1024,1024,1024,,,,,
144,15,0m 15s,-23.73825355,-46.58119657,P-GPS,142.7,43.5,,,0.7,0.3,1.1,0.5,8.2,2.5,-23.73824985,-46.58122066,11,4,97,15.359,0.028,3.858,3.833,3.83,3.838,0.3,-0.1,-0.2,1.5,-4.1,-62.5,297.5,1024,1024,1684,1024,1024,,,,,
145,15.2,0m 15.2s,-23.73825326,-46.58119675,P-GPS,142.7,43.5,,,0.6,0.3,0.0,0.0,8.1,2.5,-23.73824985,-46.58122066,11,4,97,15.359,0.028,3.858,3.833,3.83,3.838,0.2,-0.2,0,4.1,-5.3,-62.6,297.4,1024,1024,1684,1024,1024,,,,,
146,15.3,0m 15.3s,-23.7382532,-46.58119689,P-GPS,142.7,43.5,,,0.6,0.3,0.0,0.0,8.0,2.4,-23.73824985,-46.58122066,11,4,97,15.359,0.028,3.858,3.833,3.83,3.838,0.2,-0.2,0,4.9,-5,-62.6,297.4,1024,1024,1684,1024,1024,,,,,
147,15.4,0m 15.4s,-23.73825315,-46.58119708,P-GPS,142.7,43.5,,,0.5,0.2,0.0,0.0,8.0,2.4,-23.73824985,-46.58122066,11,4,97,15.359,0.028,3.858,3.833,3.83,3.838,0.1,-0.2,0,5.7,-4.4,-62.5,297.5,1024,1024,1684,1024,1024,,,,,
148,15.5,0m 15.5s,-23.7382532,-46.58119721,P-GPS,142.7,43.5,,,0.5,0.2,1.1,0.5,7.9,2.4,-23.73824985,-46.58122066,11,4,96,16.16,0.02,4.052,4.035,4.032,4.041,0.1,-0.2,0,5.8,-3.6,-62.7,297.3,1024,1024,1684,1024,1024,,,,,
149,15.6,0m 15.6s,-23.73825326,-46.58119734,P-GPS,142.7,43.5,,,0.4,0.2,0.0,0.0,7.9,2.4,-23.73824985,-46.58122066,11,4,96,16.16,0.02,4.052,4.035,4.032,4.041,0,-0.2,-0.1,5.6,-1.8,-62.8,297.2,1024,1024,1684,1024,1025,,,,,
150,15.7,0m 15.7s,-23.73825339,-46.58119746,P-GPS,143.0,43.6,,,0.4,0.2,0.0,0.0,7.9,2.4,-23.73824985,-46.58122066,11,4,96,16.16,0.02,4.052,4.035,4.032,4.041,0,-0.2,-0.1,5,-1.1,-62.7,297.3,1024,1024,1684,1024,1024,,,,,
151,15.8,0m 15.8s,-23.73825345,-46.58119759,P-GPS,143.0,43.6,,,0.2,0.1,0.0,0.0,7.8,2.4,-23.73824985,-46.58122066,11,4,96,16.16,0.02,4.052,4.035,4.032,4.041,0,-0.1,-0.2,4.3,-2.3,-62.7,297.3,1024,1024,1684,1024,1024,,,,,
152,15.9,0m 15.9s,-23.73825354,-46.58119767,P-GPS,143.0,43.6,,,0.2,0.1,0.0,0.0,7.8,2.4,-23.73824985,-46.58122066,11,4,96,16.16,0.02,4.052,4.035,4.032,4.041,0,-0.1,-0.2,4.1,-2.8,-62.6,297.4,1024,1024,1684,1024,1024,,,,,
153,16,0m 16s,-23.73825358,-46.58119777,P-GPS,143.0,43.6,,,0.2,0.1,0.0,0.0,7.8,2.4,-23.73824985,-46.58122066,11,4,96,16.16,0.02,4.052,4.035,4.032,4.041,0,-0.1,0,4.2,-2.7,-62.6,297.4,1024,1024,1684,1024,1024,,,,,
154,16.1,0m 16.1s,-23.73825363,-46.58119787,P-GPS,143.0,43.6,,,0.2,0.1,0.0,0.0,7.7,2.4,-23.73824985,-46.58122066,11,4,96,16.16,0.02,4.052,4.035,4.032,4.041,0,-0.1,0,4.1,-2.9,-62.6,297.4,1024,1024,1024,1024,1024,,,,,
155,16.2,0m 16.2s,-23.73825365,-46.581198,P-GPS,143.0,43.6,,,0.2,0.1,1.1,0.5,7.7,2.3,-23.73824985,-46.58122066,11,4,96,16.16,0.02,4.052,4.035,4.032,4.041,0,-0.1,0,3.9,-2.6,-62.6,297.4,1024,1024,1024,1024,1024,,,,,
156,16.3,0m 16.3s,-23.73825369,-46.58119816,P-GPS,143.0,43.6,,,0.2,0.1,0.0,0.0,7.6,2.3,-23.73824985,-46.58122066,11,4,96,16.16,0.02,4.052,4.035,4.032,4.041,0,-0.1,0,4.1,-2.3,-62.7,297.3,1024,1024,1024,1024,1024,,,,,
157,16.4,0m 16.4s,-23.73825371,-46.58119833,P-GPS,143.0,43.6,,,0.2,0.1,1.1,0.5,7.6,2.3,-23.73824985,-46.58122066,11,4,96,16.16,0.02,4.052,4.035,4.032,4.041,0,-0.1,0,4.1,-2.6,-62.6,297.4,1024,1024,1024,1062,1042,,,,,
158,16.5,0m 16.5s,-23.73825372,-46.58119851,P-GPS,143.0,43.6,,,0.2,0.1,1.1,0.5,7.5,2.3,-23.73824985,-46.58122066,11,4,96,16.16,0.02,4.052,4.035,4.032,4.041,0,-0.1,0,4.2,-2.7,-62.6,297.4,1024,1024,1024,1411,1024,,,,,
159,16.6,0m 16.6s,-23.73825371,-46.58119869,P-GPS,143.0,43.6,,,0.2,0.1,0.0,0.0,7.5,2.3,-23.73824985,-46.58122066,11,4,96,16.16,0.02,4.052,4.035,4.032,4.041,0,-0.1,0,4.9,-2.5,-62.6,297.4,1024,1024,1024,1544,1024,,,,,
160,16.7,0m 16.7s,-23.73825374,-46.58119882,P-GPS,143.0,43.6,,,0.2,0.1,0.0,0.0,7.4,2.3,-23.73824985,-46.58122066,11,4,96,16.16,0.02,4.052,4.035,4.032,4.041,0,-0.1,0,4.9,-2.2,-61.5,298.5,1024,1024,1024,1564,1024,,,,,
161,16.8,0m 16.8s,-23.73825375,-46.58119895,P-GPS,143.0,43.6,,,0.2,0.1,0.0,0.0,7.4,2.3,-23.73824985,-46.58122066,11,4,96,16.16,0.02,4.052,4.035,4.032,4.041,0,-0.1,0,4.8,-1,-56.2,303.8,1024,1024,1024,1352,1024,,,,,
162,16.9,0m 16.9s,-23.73825377,-46.58119904,P-GPS,143.0,43.6,,,0.2,0.1,0.0,0.0,7.4,2.2,-23.73824985,-46.58122066,11,4,96,16.16,0.02,4.052,4.035,4.032,4.041,0,-0.1,0,5,-0.9,-48.8,311.2,1024,1024,1024,1024,1024,,,,,
163,17,0m 17s,-23.73825375,-46.58119912,P-GPS,143.4,43.7,,,0.2,0.1,0.0,0.0,7.3,2.2,-23.73824985,-46.58122066,11,4,96,16.16,0.02,4.052,4.035,4.032,4.041,0,-0.1,0,5,-1.8,-45.8,314.2,1024,1024,1024,1024,1024,,,,,
164,17.1,0m 17.1s,-23.73825377,-46.58119916,P-GPS,143.0,43.6,,,0.2,0.1,0.0,0.0,7.3,2.2,-23.73824985,-46.58122066,11,4,96,16.16,0.02,4.052,4.035,4.032,4.041,0,-0.1,0,4.6,-3,-45.4,314.6,1024,1024,1024,1049,1024,,,,,
165,17.2,0m 17.2s,-23.7382538,-46.58119923,P-GPS,143.0,43.6,,,0.2,0.1,0.0,0.0,7.3,2.2,-23.73824985,-46.58122066,11,4,96,16.16,0.02,4.052,4.035,4.032,4.041,0,-0.1,0.1,4.2,-2.5,-45.2,314.8,1024,1024,1024,1359,1024,,,,,
166,17.3,0m 17.3s,-23.73825389,-46.5811993,P-GPS,143.0,43.6,,,0.2,0.1,0.0,0.0,7.3,2.2,-23.73824985,-46.58122066,11,4,96,16.16,0.02,4.052,4.035,4.032,4.041,0,-0.1,0,4,-0.5,-45.2,314.8,1024,1024,1024,1569,1024,,,,,
167,17.4,0m 17.4s,-23.73825396,-46.5811994,P-GPS,143.0,43.6,,,0.2,0.1,0.0,0.0,7.3,2.2,-23.73824985,-46.58122066,11,4,96,16.16,0.02,4.052,4.035,4.032,4.041,0,-0.1,0,4.1,0.7,-44.5,315.5,1024,1024,1024,1651,1024,,,,,
168,17.5,0m 17.5s,-23.73825405,-46.58119947,P-GPS,143.0,43.6,,,0.2,0.1,0.0,0.0,7.2,2.2,-23.73824985,-46.58122066,11,4,96,16.017,0.034,4.027,4.002,3.993,3.995,0,-0.1,-0.1,4.1,1.1,-39.4,320.6,1024,1024,1024,1670,1024,,,,,
169,17.6,0m 17.6s,-23.73825409,-46.58119954,P-GPS,143.0,43.6,,,0.2,0.1,1.1,0.5,7.2,2.2,-23.73824985,-46.58122066,11,4,96,16.017,0.034,4.027,4.002,3.993,3.995,0,-0.1,0,4.1,0.6,-28.8,331.2,1024,1024,1024,1680,1024,,,,,
170,17.7,0m 17.7s,-23.73825418,-46.58119957,P-GPS,143.0,43.6,,,0.2,0.1,0.0,0.0,7.2,2.2,-23.73824985,-46.58122066,11,4,96,16.017,0.034,4.027,4.002,3.993,3.995,0,-0.1,0,3.6,0.5,-15.5,344.5,1024,1024,1024,1471,1025,,,,,
171,17.8,0m 17.8s,-23.73825424,-46.58119963,P-GPS,143.0,43.6,,,0.2,0.1,0.0,0.0,7.2,2.2,-23.73824985,-46.58122066,11,4,96,16.017,0.034,4.027,4.002,3.993,3.995,0,-0.1,0.1,2.9,1.3,-1.7,358.3,1024,1024,1024,1024,1024,,,,,
172,17.9,0m 17.9s,-23.73825434,-46.58119971,P-GPS,143.0,43.6,,,0.2,0.1,0.0,0.0,7.2,2.2,-23.73824985,-46.58122066,11,4,96,16.017,0.034,4.027,4.002,3.993,3.995,0,-0.1,0.1,2.4,1,6.5,6.5,1024,1024,1024,784,973,,,,,
173,18,0m 18s,-23.73825438,-46.58119982,P-GPS,143.0,43.6,,,0.2,0.1,1.1,0.5,7.1,2.2,-23.73824985,-46.58122066,11,4,96,16.017,0.034,4.027,4.002,3.993,3.995,0,-0.1,0,2.3,1.1,6.6,6.6,1024,1024,1024,504,973,,,,,
174,18.1,0m 18.1s,-23.73825443,-46.58119993,P-GPS,143.0,43.6,,,0.2,0.1,0.0,0.0,7.1,2.2,-23.73824985,-46.58122066,11,4,96,16.017,0.034,4.027,4.002,3.993,3.995,0,-0.1,0,2.3,2.4,6.3,6.3,1024,1024,1024,364,953,,,,,
175,18.2,0m 18.2s,-23.73825441,-46.58120007,P-GPS,143.4,43.7,,,0.2,0.1,0.0,0.0,7.1,2.2,-23.73824985,-46.58122066,11,4,96,16.017,0.034,4.027,4.002,3.993,3.995,0,-0.1,-0.1,3.7,3.3,3.2,3.2,1024,1024,1024,364,970,,,,,
176,18.3,0m 18.3s,-23.7382544,-46.58120016,P-GPS,143.4,43.7,,,0.2,0.1,0.0,0.0,7.0,2.1,-23.73824985,-46.58122066,11,4,96,16.017,0.034,4.027,4.002,3.993,3.995,0,-0.1,-0.2,4.6,1.7,-7.3,352.7,1024,1024,1024,364,973,,,,,
177,18.4,0m 18.4s,-23.73825437,-46.58120027,P-GPS,143.7,43.8,,,0.2,0.1,0.0,0.0,7.0,2.1,-23.73824985,-46.58122066,11,4,96,16.017,0.034,4.027,4.002,3.993,3.995,0,-0.1,-0.1,4.2,1.7,-22.2,337.8,1024,1024,1024,364,974,,,,,
178,18.5,0m 18.5s,-23.73825439,-46.5812003,P-GPS,143.7,43.8,,,0.2,0.1,0.0,0.0,7.0,2.1,-23.73824985,-46.58122066,11,4,96,16,0.033,4.021,3.998,3.988,3.993,0.1,0,0,4.6,2.3,-36.9,323.1,1024,1024,1024,364,976,,,,,
179,18.6,0m 18.6s,-23.73825435,-46.58120029,P-GPS,143.7,43.8,,,0.2,0.1,1.1,0.5,7.0,2.1,-23.73824985,-46.58122066,11,4,96,16,0.033,4.021,3.998,3.988,3.993,0.1,0,0,4.3,1.1,-51.5,308.5,1024,1024,1024,364,970,,,,,
180,18.7,0m 18.7s,-23.73825427,-46.58120017,P-GPS,143.4,43.7,,,0.4,0.2,0.0,0.0,7.0,2.1,-23.73824985,-46.58122066,11,4,96,16,0.033,4.021,3.998,3.988,3.993,0.2,0,0,3.4,-0.9,-66,294,1024,1024,1024,364,965,,,,,
181,18.8,0m 18.8s,-23.7382541,-46.58120005,P-GPS,143.4,43.7,,,0.4,0.2,0.0,0.0,7.1,2.2,-23.73824985,-46.58122066,11,4,96,16,0.033,4.021,3.998,3.988,3.993,0.2,0,0,2.8,-2.7,-80.7,279.3,1024,1024,1024,364,985,,,,,
182,18.9,0m 18.9s,-23.73825392,-46.5811999,P-GPS,143.7,43.8,,,0.4,0.2,0.0,0.0,7.1,2.2,-23.73824985,-46.58122066,11,4,96,16,0.033,4.021,3.998,3.988,3.993,0.2,0,-0.2,2.6,-3.6,-95.6,264.4,1024,1024,1024,364,988,,,,,
183,19,0m 19s,-23.73825368,-46.58119978,P-GPS,144.0,43.9,,,0.7,0.3,0.0,0.0,7.1,2.2,-23.73824985,-46.58122066,11,4,96,16,0.033,4.021,3.998,3.988,3.993,0.3,0,-0.2,2.2,-4.1,-110.5,249.5,1024,1024,1024,395,987,,,,,
184,19.1,0m 19.1s,-23.73825338,-46.58119959,P-GPS,144.0,43.9,,,0.7,0.3,0.0,0.0,7.2,2.2,-23.73824985,-46.58122066,11,4,96,16,0.033,4.021,3.998,3.988,3.993,0.3,0,-0.2,1.4,-4.9,-125.2,234.8,1024,1024,1024,546,1019,,,,,
185,19.2,0m 19.2s,-23.738253,-46.5811994,P-GPS,144.0,43.9,,,0.9,0.4,1.1,0.5,7.2,2.2,-23.73824985,-46.58122066,11,4,96,16,0.033,4.021,3.998,3.988,3.993,0.4,0,-0.1,-0.1,-4.9,-138.7,221.3,1024,1024,1024,618,1024,,,,,
186,19.3,0m 19.3s,-23.73825261,-46.58119914,P-GPS,144.4,44.0,,,0.9,0.4,0.0,0.0,7.3,2.2,-23.73824985,-46.58122066,11,4,96,16,0.033,4.021,3.998,3.988,3.993,0.4,0.1,-0.1,-2.3,-5.3,-147.8,212.2,1024,1024,1024,645,1024,,,,,
187,19.4,0m 19.4s,-23.73825219,-46.58119889,P-GPS,144.4,44.0,,,1.1,0.5,1.5,0.7,7.3,2.2,-23.73824985,-46.58122066,11,4,96,16,0.033,4.021,3.998,3.988,3.993,0.5,0.1,0,-5.8,-5.3,-152.1,207.9,1024,1024,1024,762,1024,,,,,
188,19.5,0m 19.5s,-23.73825182,-46.58119858,P-GPS,144.4,44.0,,,0.9,0.4,1.1,0.5,7.4,2.3,-23.73824985,-46.58122066,11,4,96,15.933,0.035,4.005,3.983,3.97,3.975,0.4,0.1,0,-8.3,-4.7,-155.1,204.9,1024,1024,1024,919,1024,,,,,
189,19.6,0m 19.6s,-23.73825148,-46.58119832,P-GPS,144.0,43.9,,,0.7,0.3,0.0,0.0,7.5,2.3,-23.73824985,-46.58122066,11,4,96,15.933,0.035,4.005,3.983,3.97,3.975,0.3,0.1,0,-9.2,-3.9,-157.2,202.8,1024,1024,1024,919,1024,,,,,
190,19.7,0m 19.7s,-23.73825122,-46.58119799,P-GPS,144.0,43.9,,,0.5,0.2,1.1,0.5,7.6,2.3,-23.73824985,-46.58122066,11,4,96,15.933,0.035,4.005,3.983,3.97,3.975,0.2,0.1,0.1,-9.7,-3.2,-158,202,1024,1049,1024,1024,1031,,,,,
191,19.8,0m 19.8s,-23.73825102,-46.58119772,P-GPS,143.7,43.8,,,0.2,0.1,0.0,0.0,7.7,2.3,-23.73824985,-46.58122066,11,4,96,15.933,0.035,4.005,3.983,3.97,3.975,0.1,0,0.1,-9.3,-1.7,-158.2,201.8,1024,1049,1024,1024,1031,,,,,
192,19.9,0m 19.9s,-23.73825091,-46.58119743,P-GPS,143.7,43.8,,,0.2,0.1,0.0,0.0,7.8,2.4,-23.73824985,-46.58122066,11,4,96,15.933,0.035,4.005,3.983,3.97,3.975,0.1,0,0.1,-8.3,-1.3,-158.5,201.5,1024,1363,1024,1024,1026,,,,,
193,20,0m 20s,-23.73825082,-46.58119724,P-GPS,143.7,43.8,,,0.0,0.0,0.0,0.0,7.8,2.4,-23.73824985,-46.58122066,11,4,96,15.933,0.035,4.005,3.983,3.97,3.975,0,0,0,-6.6,-2.8,-158.5,201.5,1024,1546,1024,1024,1026,,,,,
194,20.1,0m 20.1s,-23.73825075,-46.58119702,P-GPS,143.7,43.8,,,0.2,0.1,0.0,0.0,7.9,2.4,-23.73824985,-46.58122066,11,4,96,15.933,0.035,4.005,3.983,3.97,3.975,0.1,0,0,-7,-3.2,-158.4,201.6,1024,1678,1024,1015,1024,,,,,
195,20.2,0m 20.2s,-23.73825065,-46.58119684,P-GPS,143.7,43.8,,,0.0,0.0,0.0,0.0,8.0,2.4,-23.73824985,-46.58122066,11,4,96,15.933,0.035,4.005,3.983,3.97,3.975,0,0,0,-12.9,-2.8,-158.3,201.7,1024,1678,1024,1015,1024,,,,,
196,20.3,0m 20.3s,-23.73825062,-46.58119662,P-GPS,143.7,43.8,,,0.0,0.0,0.0,0.0,8.0,2.4,-23.73824985,-46.58122066,11,4,96,15.933,0.035,4.005,3.983,3.97,3.975,0,0,0,-22.9,-3.1,-157.9,202.1,1024,1667,1024,833,1024,,,,,
197,20.4,0m 20.4s,-23.73825078,-46.58119654,P-GPS,143.7,43.8,,,0.7,0.3,0.0,0.0,8.1,2.5,-23.73824985,-46.58122066,11,4,96,15.933,0.035,4.005,3.983,3.97,3.975,-0.3,-0.1,0,-29.5,-2.6,-157.5,202.5,1024,1666,1024,597,1024,,,,,
198,20.5,0m 20.5s,-23.73825131,-46.58119652,P-GPS,143.7,43.8,,,1.7,0.8,0.0,0.0,8.1,2.5,-23.73824985,-46.58122066,11,4,96,15.933,0.035,4.005,3.983,3.97,3.975,-0.7,-0.3,0,-32,-1.8,-157.9,202.1,1024,1664,1024,501,1024,,,,,
199,20.6,0m 20.6s,-23.73825221,-46.5811968,P-GPS,143.7,43.8,,,3.0,1.3,1.5,0.7,8.0,2.4,-23.73824985,-46.58122066,11,4,96,15.933,0.035,4.005,3.983,3.97,3.975,-1.2,-0.6,-0.1,-31.3,-1.6,-161.4,198.6,1024,1650,1024,730,1026,,,,,
200,20.7,0m 20.7s,-23.7382537,-46.58119723,P-GPS,143.7,43.8,,,3.9,1.8,3.2,1.4,8.0,2.4,-23.73824985,-46.58122066,11,4,96,15.933,0.035,4.005,3.983,3.97,3.975,-1.6,-0.7,-0.1,-29.6,-2,-167.6,192.4,1024,1651,1024,960,1024,,,,,
201,20.8,0m 20.8s,-23.73825554,-46.58119784,P-GPS,144.0,43.9,,,4.8,2.2,4.1,1.8,7.9,2.4,-23.73824985,-46.58122066,11,4,96,15.933,0.035,4.005,3.983,3.97,3.975,-2,-0.8,-0.1,-27.4,-1.8,-169.4,190.6,1024,1665,1288,1013,1024,,,,,
202,20.9,0m 20.9s,-23.73825783,-46.58119845,P-GPS,143.7,43.8,,,5.7,2.6,5.4,2.4,8.0,2.4,-23.73824985,-46.58122066,11,4,96,15.933,0.035,4.005,3.983,3.97,3.975,-2.4,-0.9,0,-26.4,-1.8,-169.6,190.4,1024,1684,1583,1024,1024,,,,,
203,21,0m 21s,-23.73826036,-46.58119917,P-GPS,143.7,43.8,,,6.4,2.9,6.2,2.8,8.1,2.5,-23.73824985,-46.58122066,11,4,96,15.933,0.035,4.005,3.983,3.97,3.975,-2.7,-0.9,0,-25.5,-2,-169.8,190.2,1024,1679,1660,1024,1025,,,,,
204,21.1,0m 21.1s,-23.73826328,-46.5811998,P-GPS,143.7,43.8,,,7.0,3.1,6.9,3.1,8.5,2.6,-23.73824985,-46.58122066,11,4,96,15.933,0.035,4.005,3.983,3.97,3.975,-3,-0.9,0,-24.9,-1.8,-169.8,190.2,1024,1683,1684,1024,1025,,,,,
205,21.2,0m 21.2s,-23.73826637,-46.58120053,P-GPS,144.0,43.9,,,7.0,3.1,7.7,3.5,9.0,2.8,-23.73824985,-46.58122066,11,4,96,15.933,0.035,4.005,3.983,3.97,3.975,-3.3,-1,0,-24.8,-2.3,-169.8,190.2,1024,1684,1684,1024,1025,,,,,
206,21.3,0m 21.3s,-23.73826976,-46.58120109,P-GPS,143.7,43.8,,,8.4,3.7,8.2,3.7,9.8,3.0,-23.73824985,-46.58122066,11,4,96,15.933,0.035,4.005,3.983,3.97,3.975,-3.6,-1,0,-24.4,-2.7,-169.8,190.2,1024,1684,1684,1024,1025,,,,,
207,21.4,0m 21.4s,-23.7382733,-46.58120176,P-GPS,144.0,43.9,,,9.0,4.0,8.8,3.9,10.6,3.2,-23.73824985,-46.58122066,11,4,96,15.933,0.035,4.005,3.983,3.97,3.975,-3.9,-1,0,-24.4,-2.7,-169.7,190.3,1024,1683,1684,1024,1025,,,,,
208,21.5,0m 21.5s,-23.73827711,-46.58120221,P-GPS,144.0,43.9,,,9.4,4.2,9.3,4.1,11.7,3.6,-23.73824985,-46.58122066,11,4,96,16.01,0.033,4.024,4,3.991,3.995,-4.1,-1,0,-24.3,-2.9,-169.6,190.4,1024,1684,1684,1020,1025,,,,,
209,21.6,0m 21.6s,-23.73828108,-46.58120281,P-GPS,144.0,43.9,,,10.1,4.5,9.7,4.4,12.9,3.9,-23.73824985,-46.58122066,11,4,96,16.01,0.033,4.024,4,3.991,3.995,-4.4,-1,0,-24.2,-3.1,-169.6,190.4,1024,1684,1024,1000,1028,,,,,
210,21.7,0m 21.7s,-23.73828535,-46.58120322,P-GPS,144.0,43.9,,,10.5,4.7,10.3,4.6,14.2,4.3,-23.73824985,-46.58122066,11,4,96,16.01,0.033,4.024,4,3.991,3.995,-4.6,-1,0,-24.3,-3.3,-169.5,190.5,1024,1684,1024,1003,1024,,,,,
211,21.8,0m 21.8s,-23.73828979,-46.58120381,P-GPS,144.4,44.0,,,10.5,4.7,10.8,4.8,15.6,4.8,-23.73824985,-46.58122066,11,4,96,16.01,0.033,4.024,4,3.991,3.995,-4.9,-0.9,0,-24.1,-3.2,-169.5,190.5,1024,1684,1024,990,1024,,,,,
212,21.9,0m 21.9s,-23.73829447,-46.58120418,P-GPS,144.4,44.0,,,11.6,5.2,11.4,5.1,17.2,5.2,-23.73824985,-46.58122066,11,4,96,16.01,0.033,4.024,4,3.991,3.995,-5.1,-0.9,-0.1,-24.3,-2.8,-169.6,190.4,1024,1684,1024,906,1025,,,,,
213,22,0m 22s,-23.7382993,-46.58120473,P-GPS,144.4,44.0,,,11.6,5.2,11.8,5.3,18.8,5.7,-23.73824985,-46.58122066,11,4,96,16.01,0.033,4.024,4,3.991,3.995,-5.3,-0.9,0,-24.7,-2.9,-169.7,190.3,1024,1684,1024,747,1024,,,,,
214,22.1,0m 22.1s,-23.73830437,-46.58120513,P-GPS,144.4,44.0,,,12.5,5.6,12.4,5.5,20.6,6.3,-23.73824985,-46.58122066,11,4,96,16.01,0.033,4.024,4,3.991,3.995,-5.5,-0.9,0,-24.3,-2.9,-169.8,190.2,1024,1684,1024,704,1024,,,,,
215,22.2,0m 22.2s,-23.7383096,-46.58120572,P-GPS,144.7,44.1,,,12.5,5.6,12.8,5.7,22.4,6.8,-23.73824985,-46.58122066,11,4,96,16.01,0.033,4.024,4,3.991,3.995,-5.8,-1,0,-23.2,-2.9,-170.4,189.6,1024,1684,1024,907,1026,,,,,
216,22.3,0m 22.3s,-23.73831505,-46.58120617,P-GPS,144.7,44.1,,,13.4,6.0,13.3,6.0,24.3,7.4,-23.73824985,-46.58122066,11,4,96,16.01,0.033,4.024,4,3.991,3.995,-5.9,-1,-0.1,-22.7,-2.9,-171.5,188.5,1024,1684,1024,907,1026,,,,,
217,22.4,0m 22.4s,-23.73832059,-46.58120679,P-GPS,145.0,44.2,,,13.4,6.0,13.8,6.2,26.2,8.0,-23.73824985,-46.58122066,11,4,96,16.01,0.033,4.024,4,3.991,3.995,-6.1,-1,-0.2,-22.4,-2.9,-171.8,188.2,1024,1684,1024,1020,1024,,,,,
218,22.5,0m 22.5s,-23.73832623,-46.5812073,P-GPS,145.3,44.3,,,14.0,6.3,14.0,6.3,28.2,8.6,-23.73824985,-46.58122066,11,4,96,15.811,0.034,3.974,3.952,3.94,3.945,-6.2,-1,-0.1,-22.5,-2.8,-171.7,188.3,1024,1684,1024,1024,1024,,,,,
219,22.6,0m 22.6s,-23.73833192,-46.58120797,P-GPS,145.3,44.3,,,14.0,6.3,14.1,6.3,30.2,9.2,-23.73824985,-46.58122066,11,4,96,15.811,0.034,3.974,3.952,3.94,3.945,-6.3,-1,-0.1,-22.5,-2.8,-171.6,188.4,1024,1684,1024,1024,1025,,,,,
220,22.7,0m 22.7s,-23.73833776,-46.5812086,P-GPS,145.7,44.4,,,14.5,6.5,14.4,6.5,32.3,9.9,-23.73824985,-46.58122066,11,4,96,15.811,0.034,3.974,3.952,3.94,3.945,-6.4,-1,-0.1,-21.5,-3.1,-171.6,188.4,1024,1684,1024,1024,1025,,,,,
221,22.8,0m 22.8s,-23.73834364,-46.58120937,P-GPS,146.0,44.5,,,14.5,6.5,14.7,6.6,34.4,10.5,-23.73824985,-46.58122066,11,4,96,15.811,0.034,3.974,3.952,3.94,3.945,-6.5,-1,-0.1,-21.3,-3,-171.6,188.4,1024,1684,1024,1024,1024,,,,,
222,22.9,0m 22.9s,-23.7383496,-46.58121011,P-GPS,146.0,44.5,,,14.7,6.6,14.9,6.6,36.6,11.1,-23.73824985,-46.58122066,11,4,96,15.811,0.034,3.974,3.952,3.94,3.945,-6.5,-1.1,0,-21.5,-3.4,-171.6,188.4,1024,1684,1219,1024,1024,,,,,
223,23,0m 23s,-23.7383556,-46.58121097,P-GPS,146.0,44.5,,,14.7,6.6,15.0,6.7,38.7,11.8,-23.73824985,-46.58122066,11,4,96,15.811,0.034,3.974,3.952,3.94,3.945,-6.6,-1.1,0.1,-21.4,-3.8,-171.7,188.3,1024,1684,1243,1024,1024,,,,,
224,23.1,0m 23.1s,-23.73836192,-46.58121182,P-GPS,145.7,44.4,,,15.2,6.8,15.5,6.9,41.0,12.5,-23.73824985,-46.58122066,11,4,96,15.811,0.034,3.974,3.952,3.94,3.945,-6.7,-1.1,0.2,-21.2,-3.8,-171.7,188.3,1024,1684,1283,1024,1024,,,,,
225,23.2,0m 23.2s,-23.73836832,-46.58121279,P-GPS,145.3,44.3,,,15.2,6.8,16.0,7.1,43.3,13.2,-23.73824985,-46.58122066,11,4,96,15.811,0.034,3.974,3.952,3.94,3.945,-6.8,-1.1,0.2,-20.7,-3.7,-171.7,188.3,1024,1683,1339,1024,1024,,,,,
226,23.3,0m 23.3s,-23.73837491,-46.58121375,P-GPS,145.3,44.3,,,15.6,7.0,16.3,7.3,45.7,13.9,-23.73824985,-46.58122066,11,4,96,15.811,0.034,3.974,3.952,3.94,3.945,-6.9,-1.1,0,-20.5,-3.7,-171.8,188.2,1024,1592,1457,1018,1025,,,,,
227,23.4,0m 23.4s,-23.73838146,-46.58121478,P-GPS,145.3,44.3,,,15.6,7.0,16.5,7.4,48.1,14.6,-23.73824985,-46.58122066,11,4,96,15.811,0.034,3.974,3.952,3.94,3.945,-7,-1.1,0.2,-20.4,-3.7,-171.8,188.2,1024,1380,1679,1024,1026,,,,,
228,23.5,0m 23.5s,-23.73838818,-46.58121582,P-GPS,145.3,44.3,,,16.1,7.2,16.7,7.4,50.5,15.4,-23.73824985,-46.58122066,11,4,96,15.832,0.025,3.973,3.954,3.948,3.957,-7.1,-1.1,0.3,-17.4,-3.9,-171.9,188.1,1024,1024,1684,1024,1025,,,,,
229,23.6,0m 23.6s,-23.73839487,-46.5812169,P-GPS,145.0,44.2,,,16.1,7.2,16.9,7.5,52.9,16.1,-23.73824985,-46.58122066,11,4,96,15.832,0.025,3.973,3.954,3.948,3.957,-7.2,-1.1,0.4,-8.8,-3.7,-172.2,187.8,1024,1024,1684,1024,1026,,,,,
230,23.7,0m 23.7s,-23.7384016,-46.58121795,P-GPS,144.7,44.1,,,16.1,7.2,16.9,7.5,55.4,16.9,-23.73824985,-46.58122066,11,4,96,15.832,0.025,3.973,3.954,3.948,3.957,-7.1,-1.1,0.4,-1.3,-3.7,-172.5,187.5,1024,1024,1684,1024,1024,,,,,
231,23.8,0m 23.8s,-23.73840809,-46.58121897,P-GPS,144.0,43.9,,,16.1,7.2,16.6,7.4,57.7,17.6,-23.73824985,-46.58122066,11,4,96,15.832,0.025,3.973,3.954,3.948,3.957,-6.9,-1,0.4,10,-3.8,-172.8,187.2,1024,1024,1684,1024,1024,,,,,
232,23.9,0m 23.9s,-23.73841424,-46.58121996,P-GPS,143.4,43.7,,,14.5,6.5,15.9,7.1,60.0,18.3,-23.73824985,-46.58122066,11,4,96,15.832,0.025,3.973,3.954,3.948,3.957,-6.4,-1,0.4,18,-2.8,-172.9,187.1,1024,1024,969,1024,1024,,,,,
233,24,0m 24s,-23.73841984,-46.5812209,P-GPS,142.7,43.5,,,14.5,6.5,14.8,6.6,62.0,18.9,-23.73824985,-46.58122066,11,4,96,15.832,0.025,3.973,3.954,3.948,3.957,-5.8,-0.9,0.4,19.7,-2,-172.5,187.5,1024,1024,1024,1024,1024,,,,,
234,24.1,0m 24.1s,-23.73842486,-46.5812218,P-GPS,141.7,43.2,,,12.0,5.4,13.3,6.0,63.8,19.5,-23.73824985,-46.58122066,11,4,96,15.832,0.025,3.973,3.954,3.948,3.957,-5.3,-0.8,0.4,22.8,-1.2,-172.3,187.7,1024,1024,1024,1024,1024,,,,,
235,24.2,0m 24.2s,-23.73842932,-46.58122263,P-GPS,141.1,43.0,,,10.7,4.8,12.0,5.3,65.5,20.0,-23.73824985,-46.58122066,11,4,96,15.832,0.025,3.973,3.954,3.948,3.957,-4.7,-0.8,0.3,23.8,-1.1,-172.4,187.6,1024,1024,1024,1024,1024,,,,,
236,24.3,0m 24.3s,-23.73843317,-46.58122351,P-GPS,140.4,42.8,,,9.3,4.2,10.5,4.7,66.9,20.4,-23.73824985,-46.58122066,11,4,96,15.832,0.025,3.973,3.954,3.948,3.957,-4.1,-0.7,0.3,24.7,-1.2,-172.2,187.8,1024,1024,1024,1024,1024,,,,,
237,24.4,0m 24.4s,-23.73843646,-46.58122431,P-GPS,139.8,42.6,,,7.8,3.5,9.1,4.1,68.1,20.8,-23.73824985,-46.58122066,11,4,96,15.832,0.025,3.973,3.954,3.948,3.957,-3.4,-0.7,0.2,25.4,-1.3,-172.4,187.6,1024,1024,1024,1024,1024,,,,,
238,24.5,0m 24.5s,-23.73843919,-46.58122516,P-GPS,139.1,42.4,,,6.2,2.8,7.7,3.5,69.1,21.1,-23.73824985,-46.58122066,11,4,96,15.832,0.025,3.973,3.954,3.948,3.957,-2.7,-0.7,0,25.6,-2.2,-172.6,187.4,1024,1024,1024,1024,1024,,,,,
239,24.6,0m 24.6s,-23.73844135,-46.58122589,P-GPS,138.8,42.3,,,4.9,2.2,6.5,2.9,69.9,21.3,-23.73824985,-46.58122066,11,4,96,15.832,0.025,3.973,3.954,3.948,3.957,-2.1,-0.6,-0.1,25.1,-4.1,-173,187,1024,1024,1024,1024,1024,,,,,
240,24.7,0m 24.7s,-23.73844288,-46.58122666,P-GPS,138.5,42.2,,,4.9,2.2,4.9,2.2,70.4,21.5,-23.73824985,-46.58122066,11,4,96,15.832,0.025,3.973,3.954,3.948,3.957,-1.4,-0.5,-0.2,21.3,-5,-173.1,186.9,1024,1024,1024,1024,1024,,,,,
241,24.8,0m 24.8s,-23.73844386,-46.58122729,P-GPS,138.1,42.1,,,2.2,1.0,3.7,1.6,70.8,21.6,-23.73824985,-46.58122066,11,4,96,15.832,0.025,3.973,3.954,3.948,3.957,-0.9,-0.4,-0.4,14.8,-5.5,-173.1,186.9,1024,1024,1024,1024,1024,,,,,
242,24.9,0m 24.9s,-23.73844446,-46.58122803,P-GPS,138.1,42.1,,,1.6,0.7,2.6,1.2,71.0,21.7,-23.73824985,-46.58122066,11,4,96,15.832,0.025,3.973,3.954,3.948,3.957,-0.6,-0.4,-0.5,9.3,-6.1,-173.1,186.9,1024,1024,1024,1024,1024,,,,,
243,25,0m 25s,-23.73844481,-46.58122865,P-GPS,138.1,42.1,,,1.6,0.7,2.1,0.9,71.2,21.7,-23.73824985,-46.58122066,11,4,96,15.832,0.025,3.973,3.954,3.948,3.957,-0.3,-0.4,-0.6,4.6,-6,-173,187,1024,1024,1024,1024,1024,,,,,
244,25.1,0m 25.1s,-23.7384451,-46.58122942,P-GPS,138.1,42.1,,,1.0,0.5,2.1,0.9,71.3,21.7,-23.73824985,-46.58122066,11,4,96,15.832,0.025,3.973,3.954,3.948,3.957,-0.2,-0.4,-0.7,0.3,-5.6,-172.8,187.2,1024,1024,1024,1024,1024,,,,,
245,25.2,0m 25.2s,-23.73844528,-46.58123007,P-GPS,138.1,42.1,,,1.0,0.5,1.8,0.8,71.4,21.8,-23.73824985,-46.58122066,11,4,96,15.832,0.025,3.973,3.954,3.948,3.957,-0.1,-0.4,-0.7,-2.3,-5.8,-172.6,187.4,1024,1024,1024,1024,1024,,,,,
246,25.3,0m 25.3s,-23.73844558,-46.58123094,P-GPS,138.5,42.2,,,0.9,0.4,2.1,0.9,71.5,21.8,-23.73824985,-46.58122066,11,4,96,15.832,0.025,3.973,3.954,3.948,3.957,-0.1,-0.4,-0.7,-3.7,-6.2,-172.6,187.4,1024,1024,1024,1024,1024,,,,,
247,25.4,0m 25.4s,-23.73844579,-46.5812317,P-GPS,138.5,42.2,,,0.9,0.4,2.1,0.9,71.6,21.8,-23.73824985,-46.58122066,11,4,96,15.832,0.025,3.973,3.954,3.948,3.957,-0.1,-0.4,-0.7,-4.7,-6.1,-172.5,187.5,1024,1024,1024,1024,1024,,,,,
248,25.5,0m 25.5s,-23.73844614,-46.58123267,P-GPS,138.8,42.3,,,0.9,0.4,1.8,0.8,71.7,21.9,-23.73824985,-46.58122066,11,4,96,15.943,0.09,4.038,4,3.948,3.957,0,-0.4,-0.9,-5.3,-6.2,-172.3,187.7,1024,1024,1024,1024,1024,,,,,
249,25.6,0m 25.6s,-23.73844637,-46.58123352,P-GPS,139.1,42.4,,,0.9,0.4,2.1,0.9,71.8,21.9,-23.73824985,-46.58122066,11,4,96,15.943,0.09,4.038,4,3.948,3.957,0,-0.5,-1,-5.8,-6.7,-172.2,187.8,1024,1024,1024,1024,1024,,,,,
250,25.7,0m 25.7s,-23.7384467,-46.58123453,P-GPS,139.4,42.5,,,1.1,0.5,2.1,0.9,72.0,21.9,-23.73824985,-46.58122066,11,4,96,15.943,0.09,4.038,4,3.948,3.957,0,-0.5,-1,-6.1,-7.4,-172.1,187.9,1024,1024,1024,1024,1024,,,,,
251,25.8,0m 25.8s,-23.7384469,-46.58123536,P-GPS,139.4,42.5,,,1.1,0.5,2.1,0.9,72.0,22.0,-23.73824985,-46.58122066,11,4,96,15.943,0.09,4.038,4,3.948,3.957,0,-0.5,-0.8,-5.5,-7.7,-172.1,187.9,1024,1024,1024,1024,1024,,,,,
252,25.9,0m 25.9s,-23.73844716,-46.58123625,P-GPS,139.8,42.6,,,1.1,0.5,1.8,0.8,72.2,22.0,-23.73824985,-46.58122066,11,4,96,15.943,0.09,4.038,4,3.948,3.957,0,-0.5,-0.8,-5.6,-7.7,-172.1,187.9,1024,1024,1024,1024,1024,,,,,
253,26,0m 26s,-23.73844729,-46.58123697,P-GPS,140.1,42.7,,,0.9,0.4,2.1,0.9,72.2,22.0,-23.73824985,-46.58122066,11,4,96,15.943,0.09,4.038,4,3.948,3.957,0,-0.4,-0.8,-6,-7.6,-172.1,187.9,1024,1024,1024,1024,1024,,,,,
254,26.1,0m 26.1s,-23.73844746,-46.58123772,P-GPS,140.4,42.8,,,0.9,0.4,1.5,0.7,72.3,22.0,-23.73824985,-46.58122066,11,4,96,15.943,0.09,4.038,4,3.948,3.957,0,-0.4,-0.7,-6,-7.7,-172,188,1024,1024,1024,1024,1024,,,,,
255,26.2,0m 26.2s,-23.73844753,-46.58123835,P-GPS,140.4,42.8,,,0.9,0.4,1.8,0.8,72.4,22.1,-23.73824985,-46.58122066,11,4,96,15.943,0.09,4.038,4,3.948,3.957,0,-0.4,-0.7,-5.7,-8,-171.9,188.1,1024,1024,1024,1024,1024,,,,,
256,26.3,0m 26.3s,-23.73844759,-46.58123895,P-GPS,140.7,42.9,,,0.9,0.4,1.5,0.7,72.4,22.1,-23.73824985,-46.58122066,11,4,96,15.943,0.09,4.038,4,3.948,3.957,0,-0.4,-0.7,-5.8,-8.4,-172.1,187.9,1024,1024,1024,1024,1024,,,,,
257,26.4,0m 26.4s,-23.73844756,-46.58123946,P-GPS,140.7,42.9,,,0.9,0.4,1.5,0.7,72.4,22.1,-23.73824985,-46.58122066,11,4,96,15.943,0.09,4.038,4,3.948,3.957,0,-0.4,-0.5,-6.3,-8.3,-171.9,188.1,1024,1024,1024,1024,1024,,,,,
258,26.5,0m 26.5s,-23.73844753,-46.5812399,P-GPS,141.1,43.0,,,0.7,0.3,1.1,0.5,72.4,22.1,-23.73824985,-46.58122066,11,4,96,16.011,0.037,4.026,3.999,3.989,3.997,0,-0.3,-0.5,-6.5,-8,-171.9,188.1,1024,1024,1024,1024,1024,,,,,
259,26.6,0m 26.6s,-23.73844744,-46.58124029,P-GPS,141.1,43.0,,,0.7,0.3,1.1,0.5,72.4,22.1,-23.73824985,-46.58122066,11,4,96,16.011,0.037,4.026,3.999,3.989,3.997,0.1,-0.3,-0.4,-6.6,-7.7,-171.8,188.2,1024,1024,1024,1024,1024,,,,,
260,26.7,0m 26.7s,-23.73844733,-46.58124066,P-GPS,141.1,43.0,,,0.7,0.3,1.1,0.5,72.3,22.1,-23.73824985,-46.58122066,11,4,96,16.011,0.037,4.026,3.999,3.989,3.997,0.1,-0.3,-0.3,-6.6,-7.3,-171.9,188.1,1024,1024,1024,1024,1024,,,,,
261,26.8,0m 26.8s,-23.73844718,-46.58124101,P-GPS,141.1,43.0,,,0.7,0.3,0.0,0.0,72.3,22.0,-23.73824985,-46.58122066,11,4,96,16.011,0.037,4.026,3.999,3.989,3.997,0.1,-0.3,-0.3,-6.4,-7.5,-171.9,188.1,1024,1024,1024,1024,1024,,,,,
262,26.9,0m 26.9s,-23.73844696,-46.58124131,P-GPS,141.4,43.1,,,0.7,0.3,0.0,0.0,72.2,22.0,-23.73824985,-46.58122066,11,4,96,16.011,0.037,4.026,3.999,3.989,3.997,0.1,-0.3,-0.4,-6.9,-7.9,-172,188,1024,1024,1024,1024,1024,,,,,
263,27,0m 27s,-23.73844673,-46.58124156,P-GPS,141.4,43.1,,,0.5,0.2,0.0,0.0,72.2,22.0,-23.73824985,-46.58122066,11,4,96,16.011,0.037,4.026,3.999,3.989,3.997,0.1,-0.2,-0.2,-6.9,-7.8,-171.9,188.1,1024,1024,1024,1024,1024,,,,,
264,27.1,0m 27.1s,-23.73844647,-46.58124171,P-GPS,141.4,43.1,,,0.5,0.2,0.0,0.0,72.1,22.0,-23.73824985,-46.58122066,11,4,96,16.011,0.037,4.026,3.999,3.989,3.997,0.1,-0.2,-0.3,-6.9,-7.6,-172,188,1024,1024,1024,1024,1024,,,,,
265,27.2,0m 27.2s,-23.73844622,-46.58124185,P-GPS,141.7,43.2,,,0.5,0.2,0.0,0.0,72.0,21.9,-23.73824985,-46.58122066,11,4,96,16.011,0.037,4.026,3.999,3.989,3.997,0.1,-0.2,-0.4,-6.6,-7.5,-172.1,187.9,1024,1024,1024,1024,1024,,,,,
266,27.3,0m 27.3s,-23.73844593,-46.58124194,P-GPS,141.7,43.2,,,0.5,0.2,0.0,0.0,71.9,21.9,-23.73824985,-46.58122066,11,4,96,16.011,0.037,4.026,3.999,3.989,3.997,0.2,-0.1,-0.4,-6.4,-7.1,-172,188,1024,1024,1024,1024,1024,,,,,
267,27.4,0m 27.4s,-23.73844564,-46.58124204,P-GPS,142.1,43.3,,,0.5,0.2,1.1,0.5,71.8,21.9,-23.73824985,-46.58122066,11,4,96,16.011,0.037,4.026,3.999,3.989,3.997,0.2,-0.1,-0.4,-7,-6.9,-172,188,1024,1024,1024,1024,1024,,,,,
268,27.5,0m 27.5s,-23.7384453,-46.58124209,P-GPS,142.1,43.3,,,0.5,0.2,1.1,0.5,71.7,21.8,-23.73824985,-46.58122066,11,4,96,15.963,0.032,4.011,3.986,3.979,3.987,0.2,-0.1,-0.4,-7.6,-7,-172,188,1024,1024,1024,1024,1024,,,,,
269,27.6,0m 27.6s,-23.73844496,-46.58124214,P-GPS,142.4,43.4,,,0.5,0.2,1.1,0.5,71.5,21.8,-23.73824985,-46.58122066,11,4,96,15.963,0.032,4.011,3.986,3.979,3.987,0.2,-0.1,-0.3,-8.2,-6.9,-172,188,1024,1024,1024,1024,1024,,,,,
270,27.7,0m 27.7s,-23.73844458,-46.58124213,P-GPS,142.4,43.4,,,0.5,0.2,1.1,0.5,71.4,21.8,-23.73824985,-46.58122066,11,4,96,15.963,0.032,4.011,3.986,3.979,3.987,0.2,-0.1,-0.2,-8.4,-6.5,-171.8,188.2,1024,1024,1024,1024,1024,,,,,
271,27.8,0m 27.8s,-23.73844424,-46.58124214,P-GPS,142.1,43.3,,,0.5,0.2,0.0,0.0,71.3,21.7,-23.73824985,-46.58122066,11,4,96,15.963,0.032,4.011,3.986,3.979,3.987,0.2,-0.1,-0.1,-8.4,-6.4,-171.8,188.2,1024,1024,1024,1024,1024,,,,,
