Id,Time(seconds),Time(text),Latitude,Longitude,FlightMode,Altitude(feet),Altitude(meters),VpsAltitude(feet),VpsAltitude(meters),HSpeed(mph),HSpeed(m/s),GpsSpeed(mph),GpsSpeed(m/s),HomeDistance(feet),HomeDistance(meters),HomeLatitude,HomeLongitude,GpsCount,GpsLevel,BatteryPower(%),BatteryVoltage,BatteryVoltageDeviation,BatteryCell1Voltage,BatteryCell2Voltage,BatteryCell3Voltage,BatteryCell4Voltage,VelocityX,VelocityY,VelocityZ,Pitch,Roll,Yaw,Yaw(360),RcAileron,RcElevator,RcGyro,RcRudder,RcThrottle,NonGpsError,GoHomeStatus,AppTip,AppWarning,AppMessage
1,0.2,0m 0.2s,0,0,Starting Motors,0.0,0.0,0.3,0.1,0.0,0.0,0.0,0.0,0.0,0.0,0,0,5,0,97,16.984,0.004,4.244,4.248,4.247,4.245,0,0,0,-4.5,1,-172.8,187.2,0,0,0,0,0,,,,Your aircraft is flying in an Altitude Zone (150 m). Please fly with caution.,
2,0.3,0m 0.3s,0,0,Starting Motors,0.0,0.0,0.3,0.1,0.0,0.0,0.0,0.0,0.0,0.0,0,0,5,0,97,16.984,0.004,4.244,4.248,4.247,4.245,0,0,0,-4.5,1,-172.8,187.2,0,0,0,0,0,,,,,
3,0.4,0m 0.4s,0,0,Starting Motors,0.0,0.0,0.3,0.1,0.0,0.0,0.0,0.0,0.0,0.0,0,0,5,0,97,16.984,0.004,4.244,4.248,4.247,4.245,0,0,0,-4.5,1,-172.7,187.3,0,0,0,0,0,,,,,
4,0.5,0m 0.5s,0,0,Starting Motors,0.0,0.0,0.3,0.1,0.0,0.0,0.0,0.0,0.0,0.0,0,0,5,0,97,16.984,0.004,4.244,4.248,4.247,4.245,0,0,0,-4.5,1,-172.8,187.2,0,0,0,0,0,,,,,
5,0.8,0m 0.8s,0,0,Starting Motors,0.0,0.0,0.3,0.1,0.0,0.0,0.0,0.0,0.0,0.0,0,0,5,0,97,16.984,0.004,4.244,4.248,4.247,4.245,0,0,0,-4.5,1,-172.7,187.3,0,0,0,0,0,,,,,
6,0.9,0m 0.9s,0,0,Starting Motors,0.0,0.0,0.3,0.1,0.0,0.0,0.0,0.0,0.0,0.0,0,0,5,0,97,16.984,0.004,4.244,4.248,4.247,4.245,0,0,0,-4.5,0.9,-172.7,187.3,0,0,0,0,0,,,,,
7,1,0m 1s,0,0,Starting Motors,0.0,0.0,0.3,0.1,0.0,0.0,0.0,0.0,0.0,0.0,0,0,5,0,97,16.984,0.004,4.244,4.248,4.247,4.245,0,0,0,-4.5,1,-172.7,187.3,0,0,0,0,0,,,,,
8,1.1,0m 1.1s,0,0,Starting Motors,0.0,0.0,0.3,0.1,0.0,0.0,0.0,0.0,0.0,0.0,0,0,6,0,97,16.984,0.004,4.244,4.248,4.247,4.245,0,0,0,-4.5,1,-172.7,187.3,0,0,0,0,0,,,,,
9,1.2,0m 1.2s,0,0,Starting Motors,0.0,0.0,0.3,0.1,0.0,0.0,0.0,0.0,0.0,0.0,0,0,6,0,97,16.899,0.008,4.226,4.228,4.225,4.22,0,0,0,-4.5,1,-172.7,187.3,0,0,0,0,0,,,,,
10,1.3,0m 1.3s,0,0,Starting Motors,0.0,0.0,0.3,0.1,0.0,0.0,0.0,0.0,0.0,0.0,0,0,6,0,97,16.899,0.008,4.226,4.228,4.225,4.22,0,0,0,-4.5,1,-172.7,187.3,0,0,0,0,0,,,,,
11,1.4,0m 1.4s,0,0,Starting Motors,0.0,0.0,0.3,0.1,0.0,0.0,0.0,0.0,0.0,0.0,0,0,6,0,97,16.899,0.008,4.226,4.228,4.225,4.22,0,0,0,-4.5,1,-172.7,187.3,0,0,0,0,0,,,,,
12,1.5,0m 1.5s,0,0,Auto Takeoff,0.0,0.0,0.3,0.1,0.0,0.0,0.0,0.0,0.0,0.0,0,0,6,0,97,16.899,0.008,4.226,4.228,4.225,4.22,0,0,0,-4.5,1,-172.7,187.3,0,0,0,0,0,,,,,
13,1.6,0m 1.6s,0,0,Auto Takeoff,0.0,0.0,0.3,0.1,0.0,0.0,0.0,0.0,0.0,0.0,0,0,6,0,97,16.899,0.008,4.226,4.228,4.225,4.22,0,0,0,-4.6,1,-172.7,187.3,0,0,0,0,0,,,,,
14,1.7,0m 1.7s,0,0,Auto Takeoff,0.0,0.0,0.3,0.1,0.0,0.0,0.0,0.0,0.0,0.0,0,0,6,0,97,16.899,0.008,4.226,4.228,4.225,4.22,0,0,0,-4.5,0.9,-172.7,187.3,0,0,0,0,0,,,,,
15,1.8,0m 1.8s,0,0,Auto Takeoff,0.0,0.0,0.3,0.1,0.0,0.0,0.0,0.0,0.0,0.0,0,0,6,0,97,16.899,0.008,4.226,4.228,4.225,4.22,0,0,0,-4.5,0.9,-172.7,187.3,0,0,0,0,0,,,,,
16,1.9,0m 1.9s,0,0,Auto Takeoff,0.0,0.0,0.3,0.1,0.0,0.0,0.0,0.0,0.0,0.0,0,0,6,0,97,16.899,0.008,4.226,4.228,4.225,4.22,0,0,0,-4.5,0.9,-172.6,187.4,0,0,0,0,0,,,,,
17,2,0m 2s,0,0,Auto Takeoff,0.0,0.0,0.3,0.1,0.0,0.0,0.0,0.0,0.0,0.0,0,0,6,0,97,16.899,0.008,4.226,4.228,4.225,4.22,0,0,0,-4.5,1,-172.7,187.3,0,0,0,0,0,,,,,
18,2.1,0m 2.1s,0,0,Auto Takeoff,0.0,0.0,0.3,0.1,0.0,0.0,0.0,0.0,0.0,0.0,0,0,6,0,97,16.899,0.008,4.226,4.228,4.225,4.22,0,0,0,-4.4,1.1,-172.7,187.3,0,0,0,0,0,,,,,
19,2.2,0m 2.2s,0,0,Auto Takeoff,0.0,0.0,0.3,0.1,0.0,0.0,0.0,0.0,0.0,0.0,0,0,6,0,97,16.899,0.008,4.226,4.228,4.225,4.22,0,0,0,-3.7,1,-172,188,0,0,0,0,0,,,,,
20,2.3,0m 2.3s,0,0,Auto Takeoff,0.0,0.0,0.3,0.1,0.0,0.0,0.0,0.0,0.0,0.0,0,0,6,0,97,16.899,0.008,4.226,4.228,4.225,4.22,0,0,0,-1.2,1.1,-171.6,188.4,0,0,0,0,0,,,,,
21,2.4,0m 2.4s,0,0,Auto Takeoff,0.0,0.0,0.3,0.1,0.0,0.0,0.0,0.0,0.0,0.0,0,0,6,0,97,16.899,0.008,4.226,4.228,4.225,4.22,0,0,-0.1,2.2,2,-171.4,188.6,0,0,0,0,0,,,,,
22,2.5,0m 2.5s,0,0,Auto Takeoff,0.0,0.0,0.3,0.1,0.2,0.1,0.0,0.0,0.0,0.0,0,0,6,0,97,16.899,0.008,4.226,4.228,4.225,4.22,0,-0.1,-0.3,2.3,1.9,-171.4,188.6,0,0,0,0,0,,,,,
23,2.6,0m 2.6s,0,0,Auto Takeoff,0.0,0.0,0.7,0.2,0.3,0.1,0.0,0.0,0.0,0.0,0,0,6,0,97,16.899,0.008,4.226,4.228,4.225,4.22,0.1,-0.1,-0.4,0.8,-0.1,-171.4,188.6,0,0,0,0,0,,,,,
24,2.7,0m 2.7s,0,0,Auto Takeoff,0.3,0.1,0.7,0.2,0.3,0.1,0.0,0.0,0.0,0.0,0,0,6,0,97,16.899,0.008,4.226,4.228,4.225,4.22,0.1,-0.1,-0.5,-0.4,-1.7,-171.4,188.6,0,0,0,0,0,,,,,
25,2.8,0m 2.8s,0,0,Auto Takeoff,0.7,0.2,1.0,0.3,0.3,0.1,0.0,0.0,0.0,0.0,0,0,6,0,97,16.899,0.008,4.226,4.228,4.225,4.22,0.1,-0.1,-0.6,-0.9,-2.2,-171.3,188.7,0,0,0,0,0,,,,,
26,2.9,0m 2.9s,0,0,Auto Takeoff,0.7,0.2,1.0,0.3,0.3,0.1,0.0,0.0,0.0,0.0,0,0,6,0,97,16.899,0.008,4.226,4.228,4.225,4.22,0.1,-0.1,-0.6,-1.3,-2.2,-171.2,188.8,0,0,0,0,0,,,,,
27,3,0m 3s,0,0,Auto Takeoff,1.0,0.3,1.3,0.4,0.3,0.1,0.0,0.0,0.0,0.0,0,0,6,0,97,16.899,0.008,4.226,4.228,4.225,4.22,0.1,-0.1,-0.6,-1.6,-1.7,-171.1,188.9,1024,1024,1024,1024,1085,,,,,
28,3.1,0m 3.1s,0,0,Auto Takeoff,1.0,0.3,1.3,0.4,0.2,0.1,0.0,0.0,0.0,0.0,0,0,6,0,97,16.899,0.008,4.226,4.228,4.225,4.22,0.1,0,-0.5,-1.5,-1.7,-171.2,188.8,1024,1024,1024,1024,1217,,,,,
29,3.2,0m 3.2s,0,0,Auto Takeoff,1.3,0.4,1.6,0.5,0.2,0.1,0.0,0.0,0.0,0.0,0,0,6,0,97,16.638,0.015,4.156,4.168,4.161,4.153,0.1,0,-0.5,-1.7,-2.1,-171.2,188.8,1024,1024,1024,1024,1270,,,,,
30,3.3,0m 3.3s,0,0,Auto Takeoff,1.3,0.4,1.6,0.5,0.2,0.1,0.0,0.0,0.0,0.0,0,0,6,0,97,16.638,0.015,4.156,4.168,4.161,4.153,0.1,0,-0.4,-2,-2.2,-171.3,188.7,1024,1024,1024,1024,1322,,,,,
31,3.4,0m 3.4s,0,0,Auto Takeoff,1.6,0.5,2.0,0.6,0.2,0.1,0.0,0.0,0.0,0.0,0,0,6,0,97,16.638,0.015,4.156,4.168,4.161,4.153,0.1,0,-0.3,-1.8,-1.4,-171.3,188.7,1024,1024,1024,1024,1350,,,,,
32,3.5,0m 3.5s,0,0,Auto Takeoff,1.6,0.5,2.0,0.6,0.2,0.1,0.0,0.0,0.0,0.0,0,0,6,0,97,16.638,0.015,4.156,4.168,4.161,4.153,0.1,0,-0.4,-2.1,-1.1,-171.3,188.7,1024,1024,1024,1024,1426,,,,,
33,3.6,0m 3.6s,0,0,Auto Takeoff,2.0,0.6,2.0,0.6,0.2,0.1,0.0,0.0,0.0,0.0,0,0,6,0,97,16.638,0.015,4.156,4.168,4.161,4.153,0.1,0,-0.4,-2.3,-1,-171.3,188.7,1024,1024,1024,1024,1426,,,,,
34,3.7,0m 3.7s,0,0,Auto Takeoff,2.0,0.6,2.3,0.7,0.2,0.1,0.0,0.0,0.0,0.0,0,0,6,0,97,16.638,0.015,4.156,4.168,4.161,4.153,0.1,0,-0.5,-2.5,-0.9,-171.2,188.8,1024,1024,1024,1024,1570,,,,,
35,3.8,0m 3.8s,0,0,Auto Takeoff,2.3,0.7,2.6,0.8,0.2,0.1,0.0,0.0,0.0,0.0,0,0,6,0,97,16.638,0.015,4.156,4.168,4.161,4.153,0.1,0,-0.8,-2.5,-1.4,-171.3,188.7,1024,1024,1024,1024,1628,,,,,
36,3.9,0m 3.9s,0,0,Auto Takeoff,2.6,0.8,3.0,0.9,0.2,0.1,0.0,0.0,0.0,0.0,0,0,6,0,97,16.638,0.015,4.156,4.168,4.161,4.153,0.1,0,-1.1,-2.4,-1.9,-171.3,188.7,1024,1024,1024,1024,1593,,,,,
37,4,0m 4s,0,0,Auto Takeoff,3.0,0.9,3.3,1.0,0.2,0.1,0.0,0.0,0.0,0.0,0,0,6,0,97,16.638,0.015,4.156,4.168,4.161,4.153,0.1,0,-1.5,-2.8,-1.9,-171.3,188.7,1024,1024,1024,1024,1472,,,,,
38,4.1,0m 4.1s,0,0,P-GPS,3.6,1.1,3.9,1.2,0.2,0.1,0.0,0.0,0.0,0.0,0,0,6,0,97,16.638,0.015,4.156,4.168,4.161,4.153,0.1,0,-1.9,-3.2,-1.4,-171.3,188.7,1024,1024,1024,1024,1333,,,,,
39,4.2,0m 4.2s,0,0,P-GPS,4.3,1.3,4.6,1.4,0.2,0.1,0.0,0.0,0.0,0.0,0,0,6,0,97,16.168,0.015,4.038,4.05,4.045,4.035,0.1,0,-2,-4.6,-2.1,-171.3,188.7,1024,1119,1024,1024,1194,,,,,
40,4.3,0m 4.3s,0,0,P-GPS,4.9,1.5,4.9,1.5,0.2,0.1,0.0,0.0,0.0,0.0,0,0,6,0,97,16.168,0.015,4.038,4.05,4.045,4.035,0.1,0,-1.8,-5.4,-2.2,-171.4,188.6,1024,1229,1024,1024,1127,,,,,
41,4.4,0m 4.4s,0,0,P-GPS,5.6,1.7,5.6,1.7,0.2,0.1,0.0,0.0,0.0,0.0,0,0,6,0,97,16.168,0.015,4.038,4.05,4.045,4.035,0.1,0,-1.4,-3.5,-0.8,-171.5,188.5,1024,1305,1024,1024,1091,,,,,
42,4.5,0m 4.5s,0,0,P-GPS,5.9,1.8,5.9,1.8,0.2,0.1,0.0,0.0,0.0,0.0,0,0,6,0,97,16.168,0.015,4.038,4.05,4.045,4.035,0.1,0,-0.9,-2.6,-0.3,-171.5,188.5,1024,1316,1024,1024,1030,,,,,
43,4.6,0m 4.6s,0,0,P-GPS,6.2,1.9,5.9,1.8,0.4,0.2,0.0,0.0,0.0,0.0,0,0,6,0,97,16.168,0.015,4.038,4.05,4.045,4.035,0.2,0,-0.5,-2.8,-0.2,-171.4,188.6,1024,1320,1024,1024,1024,,,,,
44,4.7,0m 4.7s,0,0,P-GPS,6.2,1.9,6.2,1.9,0.4,0.2,0.0,0.0,0.0,0.0,0,0,6,0,97,16.168,0.015,4.038,4.05,4.045,4.035,0.2,0,-0.2,-2.8,-0.6,-171.5,188.5,1024,1323,1024,1024,1024,,,,,
45,4.8,0m 4.8s,0,0,P-GPS,6.2,1.9,6.2,1.9,0.4,0.2,0.0,0.0,0.0,0.0,0,0,6,0,97,16.168,0.015,4.038,4.05,4.045,4.035,0.2,0,0,-2.9,-0.6,-171.5,188.5,1024,1318,1024,1024,1024,,,,,
46,4.9,0m 4.9s,0,0,P-GPS,6.2,1.9,6.2,1.9,0.4,0.2,0.0,0.0,0.0,0.0,0,0,6,0,97,16.168,0.015,4.038,4.05,4.045,4.035,0.2,0,0,-3.5,-0.7,-171.3,188.7,1024,1298,1024,1024,1024,,,,,
47,5,0m 5s,0,0,P-GPS,6.2,1.9,6.2,1.9,0.4,0.2,0.0,0.0,0.0,0.0,0,0,6,0,97,16.168,0.015,4.038,4.05,4.045,4.035,0.2,0,0.1,-3.6,-0.7,-171.4,188.6,1024,1264,1024,1024,1024,,,,,
48,5.1,0m 5.1s,0,0,P-GPS,6.2,1.9,6.2,1.9,0.4,0.2,0.0,0.0,0.0,0.0,0,0,6,0,97,16.168,0.015,4.038,4.05,4.045,4.035,0.2,0,0.1,-3.6,-0.5,-171.4,188.6,1024,1140,1024,1024,1025,,,,,
49,5.2,0m 5.2s,0,0,P-GPS,6.2,1.9,6.2,1.9,0.4,0.2,0.0,0.0,0.0,0.0,0,0,6,0,97,16.266,0.01,4.06,4.07,4.07,4.066,0.2,0,0,-3.7,-0.5,-171.4,188.6,1024,1024,1024,1024,1050,,,,,
50,5.3,0m 5.3s,0,0,P-GPS,5.9,1.8,6.2,1.9,0.4,0.2,0.0,0.0,0.0,0.0,0,0,6,0,97,16.266,0.01,4.06,4.07,4.07,4.066,0.2,-0.1,0,-3.4,-1,-171.4,188.6,1024,1024,1024,1024,1066,,,,,
51,5.4,0m 5.4s,0,0,P-GPS,5.9,1.8,6.2,1.9,0.5,0.2,0.0,0.0,0.0,0.0,0,0,6,0,97,16.266,0.01,4.06,4.07,4.07,4.066,0.2,-0.1,0,-3,-1.2,-171.3,188.7,1024,1024,1024,1024,1024,,,,,
52,5.5,0m 5.5s,0,0,P-GPS,5.9,1.8,6.2,1.9,0.7,0.3,0.0,0.0,0.0,0.0,0,0,6,0,97,16.266,0.01,4.06,4.07,4.07,4.066,0.3,-0.1,0,-3,-1.3,-171.3,188.7,1024,1024,1024,1024,1024,,,,,
53,5.6,0m 5.6s,0,0,P-GPS,5.9,1.8,6.2,1.9,0.7,0.3,0.0,0.0,0.0,0.0,0,0,6,0,97,16.266,0.01,4.06,4.07,4.07,4.066,0.3,-0.1,0,-3.4,-1.8,-171.3,188.7,1024,1024,1024,1024,1024,,,,,
54,5.7,0m 5.7s,0,0,P-GPS,5.9,1.8,6.2,1.9,0.5,0.2,0.0,0.0,0.0,0.0,0,0,6,0,97,16.266,0.01,4.06,4.07,4.07,4.066,0.2,-0.1,0,-4,-2,-171.3,188.7,1024,1024,1024,1024,1103,,,,,
55,5.8,0m 5.8s,0,0,P-GPS,5.9,1.8,6.2,1.9,0.5,0.2,0.0,0.0,0.0,0.0,0,0,6,0,97,16.266,0.01,4.06,4.07,4.07,4.066,0.2,-0.1,0,-4.4,-2.1,-171.3,188.7,1024,1024,1024,1024,1260,,,,,
56,5.9,0m 5.9s,0,0,P-GPS,5.9,1.8,6.2,1.9,0.4,0.2,0.0,0.0,0.0,0.0,0,0,6,0,97,16.266,0.01,4.06,4.07,4.07,4.066,0.2,0,0,-4.7,-2.2,-171.2,188.8,1024,1024,1024,1024,1285,,,,,
57,6,0m 6s,0,0,P-GPS,5.9,1.8,6.2,1.9,0.4,0.2,0.0,0.0,0.0,0.0,0,0,6,0,97,16.266,0.01,4.06,4.07,4.07,4.066,0.2,0,0,-4.5,-2,-171.3,188.7,1024,1024,1024,1024,1298,,,,,
58,6.1,0m 6.1s,0,0,P-GPS,5.9,1.8,6.2,1.9,0.2,0.1,0.0,0.0,0.0,0.0,0,0,6,0,97,16.266,0.01,4.06,4.07,4.07,4.066,0.1,0,0,-4,-1.7,-171.3,188.7,1024,1024,1024,1024,1375,,,,,
59,6.2,0m 6.2s,0,0,P-GPS,5.9,1.8,6.2,1.9,0.2,0.1,0.0,0.0,0.0,0.0,0,0,6,0,97,16.266,0.01,4.06,4.07,4.07,4.066,0.1,0,-0.1,-3.5,-1.4,-171.4,188.6,1024,1024,1024,1024,1397,,,,,
60,6.3,0m 6.3s,0,0,P-GPS,6.2,1.9,6.2,1.9,0.2,0.1,0.0,0.0,0.0,0.0,0,0,6,0,97,16.266,0.01,4.06,4.07,4.07,4.066,0.1,0,-0.2,-3.4,-2,-171.4,188.6,1024,1024,1024,1024,1382,,,,,
61,6.4,0m 6.4s,0,0,P-GPS,6.2,1.9,6.2,1.9,0.2,0.1,0.0,0.0,0.0,0.0,0,0,6,0,97,16.266,0.01,4.06,4.07,4.07,4.066,0.1,0,-0.3,-3.4,-2.5,-171.4,188.6,1024,1024,1024,1024,1384,,,,,
62,6.5,0m 6.5s,0,0,P-GPS,6.2,1.9,6.2,1.9,0.2,0.1,0.0,0.0,0.0,0.0,0,0,6,0,97,16.266,0.01,4.06,4.07,4.07,4.066,0.1,0,-0.4,-3.9,-2.6,-171.3,188.7,1024,1024,1024,1024,1331,,,,,
63,6.6,0m 6.6s,0,0,P-GPS,6.6,2.0,6.6,2.0,0.2,0.1,0.0,0.0,0.0,0.0,0,0,6,0,97,16.266,0.01,4.06,4.07,4.07,4.066,0.1,0,-0.5,-4.3,-2.4,-171.3,188.7,1024,1024,1024,1024,1388,,,,,
64,6.7,0m 6.7s,0,0,P-GPS,6.6,2.0,6.6,2.0,0.2,0.1,0.0,0.0,0.0,0.0,0,0,6,0,97,16.266,0.01,4.06,4.07,4.07,4.066,0.1,0,-0.5,-4.7,-2.1,-171.3,188.7,1024,1024,1024,1024,1529,,,,,
65,6.8,0m 6.8s,0,0,P-GPS,6.9,2.1,6.9,2.1,0.2,0.1,0.0,0.0,0.0,0.0,0,0,6,0,97,16.266,0.01,4.06,4.07,4.07,4.066,0.1,0,-0.4,-4.4,-2.1,-171.3,188.7,1024,1024,1024,1024,1547,,,,,
66,6.9,0m 6.9s,0,0,P-GPS,6.9,2.1,6.9,2.1,0.0,0.0,0.0,0.0,0.0,0.0,0,0,6,0,97,16.266,0.01,4.06,4.07,4.07,4.066,0,0,-0.6,-3.1,-1.7,-171.2,188.8,1024,1024,1024,1024,1569,,,,,
67,7,0m 7s,0,0,P-GPS,7.2,2.2,7.2,2.2,0.2,0.1,0.0,0.0,0.0,0.0,0,0,6,0,97,16.266,0.01,4.06,4.07,4.07,4.066,0.1,0,-1,-2.6,-1.1,-171,189,1024,1024,1024,1024,1532,,,,,
68,7.1,0m 7.1s,0,0,P-GPS,7.5,2.3,7.5,2.3,0.2,0.1,0.0,0.0,0.0,0.0,0,0,6,0,97,16.266,0.01,4.06,4.07,4.07,4.066,0.1,0,-1.4,-3.9,-1,-171,189,1024,1024,1024,1024,1528,,,,,
69,7.2,0m 7.2s,0,0,P-GPS,8.2,2.5,8.2,2.5,0.0,0.0,0.0,0.0,0.0,0.0,0,0,6,0,97,16.266,0.01,4.06,4.07,4.07,4.066,0,0,-1.6,-5.7,-1.4,-171.1,188.9,1024,1024,1024,1024,1584,,,,,
70,7.3,0m 7.3s,0,0,P-GPS,8.9,2.7,8.5,2.6,0.0,0.0,0.0,0.0,0.0,0.0,0,0,6,0,97,16.266,0.01,4.06,4.07,4.07,4.066,0,0,-1.7,-5.2,-0.6,-171.2,188.8,1024,1024,1024,1024,1543,,,,,
71,7.4,0m 7.4s,0,0,P-GPS,9.5,2.9,9.2,2.8,0.0,0.0,0.0,0.0,0.0,0.0,0,0,6,0,97,16.266,0.01,4.06,4.07,4.07,4.066,0,0,-1.8,-3.6,-0.8,-171.3,188.7,1024,1024,1024,1024,1531,,,,,
72,7.5,0m 7.5s,0,0,P-GPS,10.2,3.1,9.8,3.0,0.0,0.0,0.0,0.0,0.0,0.0,0,0,6,0,97,16.266,0.01,4.06,4.07,4.07,4.066,0,0,-1.9,-3.1,-1.9,-171.2,188.8,1024,1024,1024,1024,1588,,,,,
73,7.6,0m 7.6s,0,0,P-GPS,10.5,3.2,10.2,3.1,0.0,0.0,0.0,0.0,0.0,0.0,0,0,6,0,97,16.266,0.01,4.06,4.07,4.07,4.066,0,0,-1.7,-3.3,-1.9,-171.2,188.8,1024,1024,1024,1024,1613,,,,,
74,7.7,0m 7.7s,0,0,P-GPS,11.2,3.4,10.8,3.3,0.0,0.0,0.0,0.0,0.0,0.0,0,0,6,0,97,16.266,0.01,4.06,4.07,4.07,4.066,0,0,-1.9,-2.5,-1.9,-171.1,188.9,1024,1024,1024,1024,1666,,,,,
75,7.8,0m 7.8s,0,0,P-GPS,11.8,3.6,11.5,3.5,0.2,0.1,0.0,0.0,0.0,0.0,0,0,6,0,97,16.266,0.01,4.06,4.07,4.07,4.066,-0.1,0,-2.1,-1.9,-1.5,-171,189,1024,1024,1024,1024,1684,,,,,
76,7.9,0m 7.9s,0,0,P-GPS,12.5,3.8,12.1,3.7,0.2,0.1,0.0,0.0,0.0,0.0,0,0,6,0,97,16.266,0.01,4.06,4.07,4.07,4.066,0,0.1,-2.4,-2.3,-0.1,-171.2,188.8,1024,1024,1024,1024,1684,,,,,
77,8,0m 8s,0,0,P-GPS,13.5,4.1,13.1,4.0,0.2,0.1,0.0,0.0,0.0,0.0,0,0,6,0,97,16.266,0.01,4.06,4.07,4.07,4.066,-0.1,0,-2.7,-2.2,1.4,-171.4,188.6,1024,1024,1024,1024,1684,,,,,
78,8.1,0m 8.1s,0,0,P-GPS,14.4,4.4,14.1,4.3,0.2,0.1,0.0,0.0,0.0,0.0,0,0,6,0,97,16.266,0.01,4.06,4.07,4.07,4.066,-0.1,0,-2.8,-1.4,1.7,-171.5,188.5,1024,1024,1024,1024,1684,,,,,
79,8.2,0m 8.2s,0,0,P-GPS,15.4,4.7,14.8,4.5,0.2,0.1,0.0,0.0,0.0,0.0,0,0,6,0,97,16.024,0.026,4.008,4.014,4.014,3.988,-0.1,0,-2.7,-0.6,0.7,-171.5,188.5,1024,1024,1024,1024,1684,,,,,
80,8.3,0m 8.3s,0,0,P-GPS,16.1,4.9,15.7,4.8,0.2,0.1,0.0,0.0,0.0,0.0,0,0,6,0,97,16.024,0.026,4.008,4.014,4.014,3.988,-0.1,0,-2.6,-0.2,0.4,-171.3,188.7,1024,1024,1024,1024,1684,,,,,
81,8.4,0m 8.4s,0,0,P-GPS,17.1,5.2,16.4,5.0,0.2,0.1,0.0,0.0,0.0,0.0,0,0,6,0,97,16.024,0.026,4.008,4.014,4.014,3.988,-0.1,0,-2.4,-0.3,0.9,-171.5,188.5,1024,1024,1024,1024,1684,,,,,
82,8.5,0m 8.5s,0,0,P-GPS,17.7,5.4,17.4,5.3,0.0,0.0,0.0,0.0,0.0,0.0,0,0,6,0,97,16.024,0.026,4.008,4.014,4.014,3.988,0,0,-2.2,-1.1,0.8,-171.4,188.6,1024,1024,1024,1024,1684,,,,,
83,8.6,0m 8.6s,0,0,P-GPS,18.4,5.6,18.0,5.5,0.2,0.1,0.0,0.0,0.0,0.0,0,0,6,0,97,16.024,0.026,4.008,4.014,4.014,3.988,-0.1,0,-1.9,-0.7,0.9,-171.4,188.6,1024,1024,1024,1024,1684,,,,,
84,8.7,0m 8.7s,0,0,P-GPS,19.0,5.8,18.4,5.6,0.0,0.0,0.0,0.0,0.0,0.0,0,0,6,0,97,16.024,0.026,4.008,4.014,4.014,3.988,0,0,-1.7,0.1,0,-171.5,188.5,1024,1024,1024,1024,1684,,,,,
85,8.9,0m 8.9s,0,0,P-GPS,20.0,6.1,19.4,5.9,0.0,0.0,0.0,0.0,0.0,0.0,0,0,6,0,97,16.024,0.026,4.008,4.014,4.014,3.988,0,0,-1.4,-1.3,-0.3,-171.5,188.5,1024,1024,1024,1024,1684,,,,,
86,9,0m 9s,0,0,P-GPS,20.7,6.3,20.0,6.1,0.2,0.1,0.0,0.0,0.0,0.0,0,0,6,0,97,16.024,0.026,4.008,4.014,4.014,3.988,0.1,0,-1.3,-2.7,-0.2,-171.3,188.7,1024,1024,1024,1024,1684,,,,,
87,9.1,0m 9.1s,0,0,P-GPS,21.0,6.4,20.3,6.2,0.0,0.0,0.0,0.0,0.0,0.0,0,0,6,0,97,16.024,0.026,4.008,4.014,4.014,3.988,0,0,-1.2,-3.5,-0.6,-171.4,188.6,1024,1024,1024,1024,1684,,,,,
88,9.2,0m 9.2s,0,0,P-GPS,21.3,6.5,20.7,6.3,0.0,0.0,0.0,0.0,0.0,0.0,0,0,6,0,97,15.889,0.057,3.985,3.988,3.985,3.931,0,0,-1.2,-3.6,-0.6,-171.5,188.5,1024,1024,1024,1024,1684,,,,,
89,9.3,0m 9.3s,0,0,P-GPS,21.7,6.6,21.3,6.5,0.0,0.0,0.0,0.0,0.0,0.0,0,0,6,0,97,15.889,0.057,3.985,3.988,3.985,3.931,0,0,-1.1,-3.7,-1,-171.5,188.5,1024,1024,1024,1024,1684,,,,,
90,9.4,0m 9.4s,0,0,P-GPS,22.0,6.7,21.7,6.6,0.0,0.0,0.0,0.0,0.0,0.0,0,0,6,0,97,15.889,0.057,3.985,3.988,3.985,3.931,0,0,-1,-3.6,-1.7,-171.5,188.5,1024,1024,1024,1024,1684,,,,,
91,9.5,0m 9.5s,0,0,P-GPS,22.3,6.8,22.0,6.7,0.2,0.1,0.0,0.0,0.0,0.0,0,0,6,0,97,15.889,0.057,3.985,3.988,3.985,3.931,0.1,0,-0.9,-4,-1.4,-171.4,188.6,1024,1024,1024,1024,1684,,,,,
92,9.6,0m 9.6s,0,0,P-GPS,22.6,6.9,22.3,6.8,0.2,0.1,0.0,0.0,0.0,0.0,0,0,6,0,97,15.889,0.057,3.985,3.988,3.985,3.931,0.1,0,-0.9,-4.2,-0.5,-171.5,188.5,1024,1024,1024,1024,1684,,,,,
93,9.7,0m 9.7s,0,0,P-GPS,23.0,7.0,22.6,6.9,0.2,0.1,0.0,0.0,0.0,0.0,0,0,6,0,97,15.889,0.057,3.985,3.988,3.985,3.931,0.1,0,-0.8,-4.6,-0.1,-171.4,188.6,1024,1024,1024,1024,1684,,,,,
94,9.8,0m 9.8s,0,0,P-GPS,23.3,7.1,23.0,7.0,0.2,0.1,0.0,0.0,0.0,0.0,0,0,6,0,97,15.889,0.057,3.985,3.988,3.985,3.931,0.1,0,-0.8,-4.8,-0.3,-171.4,188.6,1024,1024,1024,1024,1684,,,,,
95,9.9,0m 9.9s,0,0,P-GPS,23.6,7.2,23.3,7.1,0.2,0.1,0.0,0.0,0.0,0.0,0,0,6,0,97,15.889,0.057,3.985,3.988,3.985,3.931,0.1,0,-0.7,-5.1,-0.9,-171.3,188.7,1024,1024,1024,1024,1684,,,,,
96,10.1,0m 10.1s,0,0,P-GPS,24.0,7.3,23.6,7.2,0.2,0.1,0.0,0.0,0.0,0.0,0,0,6,0,97,15.889,0.057,3.985,3.988,3.985,3.931,0.1,0,-0.6,-5.5,-1.4,-171.3,188.7,1024,1024,1024,1024,1684,,,,,
97,10.2,0m 10.2s,0,0,P-GPS,24.3,7.4,24.0,7.3,0.2,0.1,0.0,0.0,0.0,0.0,0,0,6,0,97,15.889,0.057,3.985,3.988,3.985,3.931,0.1,0,-0.6,-5.5,-1.6,-171.4,188.6,1024,1024,1024,1024,1684,,,,,
98,10.3,0m 10.3s,0,0,P-GPS,24.6,7.5,24.0,7.3,0.2,0.1,0.0,0.0,0.0,0.0,0,0,6,0,97,15.889,0.057,3.985,3.988,3.985,3.931,0.1,0,-0.5,-5.8,-1.1,-171.3,188.7,1024,1024,1024,1022,1684,,,,,Maximum Flight Altitude Reached
99,10.5,0m 10.5s,0,0,P-GPS,24.9,7.6,24.6,7.5,0.2,0.1,0.0,0.0,0.0,0.0,0,0,6,0,97,15.889,0.057,3.985,3.988,3.985,3.931,0.1,0,-0.5,-5.7,-1.4,-171.5,188.5,1024,1024,1024,846,1684,,,,,
100,10.6,0m 10.6s,0,0,P-GPS,24.9,7.6,24.6,7.5,0.2,0.1,0.0,0.0,0.0,0.0,0,0,6,0,97,15.889,0.057,3.985,3.988,3.985,3.931,0.1,0,-0.4,-5.8,-1.9,-171.6,188.4,1024,1024,1024,855,1684,,,,,
101,10.7,0m 10.7s,0,0,P-GPS,25.3,7.7,24.9,7.6,0.2,0.1,0.0,0.0,0.0,0.0,0,0,7,0,97,15.889,0.057,3.985,3.988,3.985,3.931,0.1,0,-0.4,-5.5,-1.8,-172,188,1024,1024,1024,893,1684,,,,,
102,10.8,0m 10.8s,0,0,P-GPS,25.3,7.7,24.9,7.6,0.2,0.1,0.0,0.0,0.0,0.0,0,0,7,0,97,15.889,0.057,3.985,3.988,3.985,3.931,0.1,0,-0.4,-5.8,-1.3,-172.3,187.7,1024,1024,1024,1024,1624,,,,,
103,10.9,0m 10.9s,0,0,P-GPS,25.6,7.8,25.3,7.7,0.2,0.1,0.0,0.0,0.0,0.0,0,0,7,0,97,15.889,0.057,3.985,3.988,3.985,3.931,0.1,0,-0.3,-6.8,-0.8,-172.3,187.7,1024,1024,1024,1108,1489,,,,,
104,11,0m 11s,0,0,P-GPS,25.6,7.8,25.3,7.7,0.2,0.1,0.0,0.0,0.0,0.0,0,0,7,0,97,15.889,0.057,3.985,3.988,3.985,3.931,0.1,0,-0.3,-7.1,-1.2,-172.3,187.7,1024,1024,1024,1208,1340,,,,,
105,11.1,0m 11.1s,0,0,P-GPS,25.6,7.8,25.6,7.8,0.0,0.0,0.0,0.0,0.0,0.0,0,0,7,0,97,15.889,0.057,3.985,3.988,3.985,3.931,0,0,-0.3,-7.3,-1.6,-172.2,187.8,1024,1037,1024,1169,1293,,,,,
106,11.2,0m 11.2s,0,0,P-GPS,25.9,7.9,25.6,7.8,0.0,0.0,0.0,0.0,0.0,0.0,0,0,7,0,97,16.122,0.018,4.028,4.039,4.034,4.021,0,0,-0.2,-7.3,-1.4,-172.2,187.8,1024,1056,1024,1135,1301,,,,,
107,11.3,0m 11.3s,0,0,P-GPS,25.9,7.9,25.6,7.8,0.0,0.0,0.0,0.0,0.0,0.0,0,0,7,0,97,16.122,0.018,4.028,4.039,4.034,4.021,0,0,-0.2,-6.5,-1,-172.1,187.9,1024,1055,1024,1221,1371,,,,,
108,11.4,0m 11.4s,0,0,P-GPS,25.9,7.9,25.9,7.9,0.0,0.0,0.0,0.0,0.0,0.0,0,0,7,0,97,16.122,0.018,4.028,4.039,4.034,4.021,0,0,-0.2,-4.4,-0.8,-172.2,187.8,1024,1054,1024,1357,1356,,,,,
109,11.5,0m 11.5s,0,0,P-GPS,25.9,7.9,25.9,7.9,0.0,0.0,0.0,0.0,0.0,0.0,0,0,7,0,97,16.122,0.018,4.028,4.039,4.034,4.021,0,0,-0.1,-3.2,-0.8,-172,188,1024,1055,1024,1417,1369,,,,,
110,11.6,0m 11.6s,0,0,P-GPS,26.2,8.0,25.9,7.9,0.2,0.1,0.0,0.0,0.0,0.0,0,0,7,0,97,16.122,0.018,4.028,4.039,4.034,4.021,0.1,0,-0.1,-3.6,-1.2,-170.9,189.1,1024,1055,1024,1343,1373,,,,,
111,11.7,0m 11.7s,0,0,P-GPS,26.2,8.0,25.9,7.9,0.2,0.1,0.0,0.0,0.0,0.0,0,0,7,0,97,16.122,0.018,4.028,4.039,4.034,4.021,0.1,0,-0.1,-3.8,-1.1,-168.7,191.3,1024,1055,1024,1072,1414,,,,,
112,11.8,0m 11.8s,0,0,P-GPS,26.2,8.0,25.9,7.9,0.2,0.1,0.0,0.0,0.0,0.0,0,0,7,0,97,16.122,0.018,4.028,4.039,4.034,4.021,0.1,0,0,-3.8,-1.1,-167.4,192.6,1024,1055,1024,1024,1376,,,,,
113,11.9,0m 11.9s,0,0,P-GPS,26.2,8.0,25.9,7.9,0.2,0.1,0.0,0.0,0.0,0.0,0,0,7,0,97,16.122,0.018,4.028,4.039,4.034,4.021,0.1,0,0,-4,-0.1,-167.3,192.7,1024,1065,1024,1051,1300,,,,,
114,12,0m 12s,0,0,P-GPS,26.2,8.0,26.2,8.0,0.2,0.1,0.0,0.0,0.0,0.0,0,0,7,0,97,16.122,0.018,4.028,4.039,4.034,4.021,0.1,0,0,-4.5,0,-167.5,192.5,1024,1098,1024,1024,1273,,,,,
115,12.1,0m 12.1s,0,0,P-GPS,26.2,8.0,26.2,8.0,0.2,0.1,0.0,0.0,0.0,0.0,0,0,7,0,97,16.122,0.018,4.028,4.039,4.034,4.021,0.1,0,0,-4.3,0,-167.6,192.4,1024,1159,1024,1024,1271,,,,,
116,12.2,0m 12.2s,0,0,P-GPS,26.2,8.0,26.2,8.0,0.2,0.1,0.0,0.0,0.0,0.0,0,0,7,0,97,16.092,0.013,4.02,4.03,4.025,4.017,0.1,0,0,-3.8,-0.8,-167.8,192.2,1024,1334,1024,1024,1298,,,,,
117,12.3,0m 12.3s,0,0,P-GPS,26.2,8.0,26.2,8.0,0.2,0.1,0.0,0.0,0.0,0.0,0,0,7,0,97,16.092,0.013,4.02,4.03,4.025,4.017,0.1,0,0,-3.9,-0.7,-167.7,192.3,1024,1481,1024,1024,1335,,,,,
118,12.4,0m 12.4s,0,0,P-GPS,26.2,8.0,26.2,8.0,0.2,0.1,0.0,0.0,0.0,0.0,0,0,7,0,97,16.092,0.013,4.02,4.03,4.025,4.017,0.1,0,0,-4.6,-0.6,-167.7,192.3,1024,1514,1024,1024,1338,,,,,
119,12.5,0m 12.5s,0,0,P-GPS,26.2,8.0,26.2,8.0,0.2,0.1,0.0,0.0,0.0,0.0,0,0,7,0,97,16.092,0.013,4.02,4.03,4.025,4.017,0.1,0,0,-7.1,-1.5,-167.6,192.4,1024,1527,1024,1024,1345,,,,,
120,12.6,0m 12.6s,0,0,P-GPS,26.2,8.0,26.2,8.0,0.0,0.0,0.0,0.0,0.0,0.0,0,0,7,0,97,16.092,0.013,4.02,4.03,4.025,4.017,0,0,0,-9.8,-1.5,-167.5,192.5,1024,1531,1024,1024,1355,,,,,
121,12.7,0m 12.7s,0,0,P-GPS,25.9,7.9,26.2,8.0,0.0,0.0,0.0,0.0,0.0,0.0,0,0,7,0,97,16.092,0.013,4.02,4.03,4.025,4.017,0,0,0,-11.9,-1.4,-167.4,192.6,1024,1535,1024,1024,1370,,,,,
122,12.8,0m 12.8s,0,0,P-GPS,25.9,7.9,26.2,8.0,0.4,0.2,0.0,0.0,0.0,0.0,0,0,7,0,97,16.092,0.013,4.02,4.03,4.025,4.017,-0.2,0,0,-14.1,-1.3,-167.4,192.6,1024,1525,1024,1024,1375,,,,,
123,12.9,0m 12.9s,0,0,P-GPS,25.9,7.9,26.2,8.0,0.7,0.3,0.0,0.0,0.0,0.0,0,0,7,0,97,16.092,0.013,4.02,4.03,4.025,4.017,-0.3,-0.1,0,-14.9,-1,-167.5,192.5,1024,1501,1024,1024,1385,,,,,
124,13,0m 13s,0,0,P-GPS,25.9,7.9,26.2,8.0,1.1,0.5,0.0,0.0,0.0,0.0,0,0,7,0,97,16.092,0.013,4.02,4.03,4.025,4.017,-0.5,-0.1,0,-14.9,-1.2,-167.5,192.5,1024,1463,1024,1024,1396,,,,,
125,13.1,0m 13.1s,0,0,P-GPS,25.9,7.9,26.2,8.0,1.4,0.6,0.0,0.0,0.0,0.0,0,0,7,0,97,16.092,0.013,4.02,4.03,4.025,4.017,-0.6,-0.2,0,-14.8,-1.1,-167.4,192.6,1024,1466,1024,1024,1399,,,,,
126,13.2,0m 13.2s,0,0,P-GPS,25.9,7.9,26.2,8.0,1.6,0.7,0.0,0.0,0.0,0.0,0,0,7,0,97,16.098,0.014,4.017,4.031,4.028,4.022,-0.7,-0.2,-0.1,-13.2,-0.6,-167.5,192.5,1024,1458,1024,1024,1401,,,,,
127,13.3,0m 13.3s,0,0,P-GPS,26.2,8.0,26.2,8.0,1.9,0.9,0.0,0.0,0.0,0.0,0,0,7,0,97,16.098,0.014,4.017,4.031,4.028,4.022,-0.8,-0.3,-0.2,-11.7,-0.7,-167.4,192.6,1024,1440,1024,1024,1403,,,,,
128,13.4,0m 13.4s,0,0,P-GPS,26.2,8.0,26.2,8.0,1.9,0.9,0.0,0.0,0.0,0.0,0,0,7,0,97,16.098,0.014,4.017,4.031,4.028,4.022,-0.8,-0.3,-0.2,-10.8,-1,-167.5,192.5,1024,1331,1024,1024,1407,,,,,
129,13.5,0m 13.5s,0,0,P-GPS,26.2,8.0,25.9,7.9,1.9,0.9,0.0,0.0,0.0,0.0,0,0,7,0,97,16.098,0.014,4.017,4.031,4.028,4.022,-0.9,-0.4,-0.2,-9.5,-1.8,-167.6,192.4,1024,1062,1024,1024,1415,,,,,
130,13.6,0m 13.6s,0,0,P-GPS,26.2,8.0,26.2,8.0,2.2,1.0,0.0,0.0,0.0,0.0,0,0,7,0,97,16.098,0.014,4.017,4.031,4.028,4.022,-0.9,-0.4,-0.2,-7.8,-2.1,-167.6,192.4,1024,1024,1024,1024,1419,,,,,
131,13.7,0m 13.7s,0,0,P-GPS,26.6,8.1,26.2,8.0,2.1,1.0,0.0,0.0,0.0,0.0,0,0,7,0,97,16.098,0.014,4.017,4.031,4.028,4.022,-0.9,-0.3,-0.1,-5.5,-1.6,-167.5,192.5,1024,1024,1024,1024,1426,,,,,
132,13.8,0m 13.8s,0,0,P-GPS,26.6,8.1,26.2,8.0,2.2,1.0,0.0,0.0,0.0,0.0,0,0,7,0,97,16.098,0.014,4.017,4.031,4.028,4.022,-0.9,-0.4,-0.1,-3.6,-1.4,-167.6,192.4,1024,1024,1024,1024,1423,,,,,
133,13.9,0m 13.9s,0,0,P-GPS,26.6,8.1,26.2,8.0,2.2,1.0,0.0,0.0,0.0,0.0,0,0,7,0,97,16.098,0.014,4.017,4.031,4.028,4.022,-0.9,-0.4,0,0,-1.9,-167.7,192.3,1024,1024,1024,1024,1426,,,,,
134,14,0m 14s,0,0,P-GPS,26.6,8.1,26.2,8.0,1.7,0.8,0.0,0.0,0.0,0.0,0,0,7,0,97,16.098,0.014,4.017,4.031,4.028,4.022,-0.7,-0.3,-0.1,2.7,-2.3,-167.7,192.3,1024,1024,1024,1024,1434,,,,,
135,14.1,0m 14.1s,0,0,P-GPS,26.6,8.1,26.2,8.0,1.5,0.7,0.0,0.0,0.0,0.0,0,0,7,0,97,16.098,0.014,4.017,4.031,4.028,4.022,-0.6,-0.3,0,3.8,-2.7,-167.8,192.2,1024,1024,1024,1024,1465,,,,,
136,14.2,0m 14.2s,0,0,P-GPS,26.6,8.1,25.9,7.9,1.0,0.5,0.0,0.0,0.0,0.0,0,0,7,0,97,16.098,0.014,4.017,4.031,4.028,4.022,-0.4,-0.2,0,4.2,-3.1,-167.8,192.2,1024,1024,1024,1024,1450,,,,,
137,14.3,0m 14.3s,0,0,P-GPS,26.6,8.1,25.9,7.9,0.8,0.4,0.0,0.0,0.0,0.0,0,0,7,0,97,16.098,0.014,4.017,4.031,4.028,4.022,-0.3,-0.2,0,3.3,-3.4,-167.7,192.3,1024,1024,1024,1024,1453,,,,,
138,14.4,0m 14.4s,0,0,P-GPS,26.6,8.1,25.9,7.9,0.5,0.2,0.0,0.0,0.0,0.0,0,0,7,0,97,16.098,0.014,4.017,4.031,4.028,4.022,-0.2,-0.1,0,1.5,-3.4,-167.6,192.4,1024,1024,1024,1024,1459,,,,,
139,14.5,0m 14.5s,0,0,P-GPS,26.2,8.0,25.9,7.9,0.5,0.2,0.0,0.0,0.0,0.0,0,0,7,0,97,16.098,0.014,4.017,4.031,4.028,4.022,-0.2,-0.1,0.1,-0.3,-3,-167.6,192.4,1024,1024,1024,1024,1475,,,,,
140,14.6,0m 14.6s,0,0,P-GPS,26.2,8.0,25.9,7.9,0.5,0.2,0.0,0.0,0.0,0.0,0,0,7,0,97,16.098,0.014,4.017,4.031,4.028,4.022,-0.2,-0.1,0.1,-1.3,-2.6,-167.5,192.5,1024,1024,1024,1024,1509,,,,,
141,14.7,0m 14.7s,0,0,P-GPS,26.2,8.0,25.9,7.9,0.6,0.3,0.0,0.0,0.0,0.0,0,0,7,0,97,16.098,0.014,4.017,4.031,4.028,4.022,-0.2,-0.2,0.1,-1.5,-2.6,-167.5,192.5,1024,1024,1024,1024,1644,,,,,
142,14.8,0m 14.8s,0,0,P-GPS,25.9,7.9,25.9,7.9,0.3,0.1,0.0,0.0,0.0,0.0,0,0,7,0,97,16.098,0.014,4.017,4.031,4.028,4.022,-0.1,-0.1,0.1,-1.7,-2.6,-167.4,192.6,1024,1024,1024,1024,1684,,,,,
143,14.9,0m 14.9s,0,0,P-GPS,25.9,7.9,25.9,7.9,0.3,0.1,0.0,0.0,0.0,0.0,0,0,7,0,97,16.098,0.014,4.017,4.031,4.028,4.022,-0.1,-0.1,0,-2,-2.4,-167.4,192.6,1024,1024,1024,1024,1684,,,,,
144,15,0m 15s,0,0,P-GPS,25.9,7.9,25.9,7.9,0.2,0.1,0.0,0.0,0.0,0.0,0,0,7,0,97,16.098,0.014,4.017,4.031,4.028,4.022,0,-0.1,0,-2.2,-2.1,-167.3,192.7,1024,1024,1024,1024,1684,,,,,
145,15.1,0m 15.1s,0,0,P-GPS,25.6,7.8,25.9,7.9,0.0,0.0,0.0,0.0,0.0,0.0,0,0,7,0,97,16.098,0.014,4.017,4.031,4.028,4.022,0,0,0,-2.7,-2,-167.4,192.6,1024,1024,1024,1024,1684,,,,,
146,15.2,0m 15.2s,0,0,P-GPS,25.6,7.8,25.9,7.9,0.2,0.1,0.0,0.0,0.0,0.0,0,0,7,0,97,16.026,0.019,4.004,4.016,4.009,3.997,0.1,0,0,-3.5,-2.2,-167.4,192.6,1024,1024,1024,1024,1624,,,,,
147,15.3,0m 15.3s,0,0,P-GPS,25.6,7.8,25.9,7.9,0.2,0.1,0.0,0.0,0.0,0.0,0,0,7,0,97,16.026,0.019,4.004,4.016,4.009,3.997,0.1,0,0,-4.1,-2.4,-167.4,192.6,1024,1024,1024,1024,1520,,,,,
148,15.4,0m 15.4s,0,0,P-GPS,25.6,7.8,26.2,8.0,0.2,0.1,0.0,0.0,0.0,0.0,0,0,7,0,97,16.026,0.019,4.004,4.016,4.009,3.997,0.1,0,0,-4.5,-2.6,-167.4,192.6,1024,1024,1024,1024,1403,,,,,
149,15.5,0m 15.5s,0,0,P-GPS,25.6,7.8,26.2,8.0,0.2,0.1,0.0,0.0,0.0,0.0,0,0,7,0,97,16.026,0.019,4.004,4.016,4.009,3.997,0.1,0,0,-4.8,-2.6,-167.4,192.6,1024,1024,1024,1024,1265,,,,,
150,15.6,0m 15.6s,0,0,P-GPS,25.6,7.8,26.2,8.0,0.2,0.1,0.0,0.0,0.0,0.0,0,0,7,0,97,16.026,0.019,4.004,4.016,4.009,3.997,0.1,0,0,-4.9,-2.9,-167.4,192.6,1024,1024,1024,1024,1134,,,,,
151,15.7,0m 15.7s,0,0,P-GPS,25.6,7.8,26.2,8.0,0.2,0.1,0.0,0.0,0.0,0.0,0,0,7,0,97,16.026,0.019,4.004,4.016,4.009,3.997,0.1,0,0,-5.2,-2.9,-167.3,192.7,1024,1024,1024,1038,1056,,,,,
152,15.8,0m 15.8s,0,0,P-GPS,25.6,7.8,26.2,8.0,0.2,0.1,0.0,0.0,0.0,0.0,0,0,7,0,97,16.026,0.019,4.004,4.016,4.009,3.997,0.1,0,0,-5.4,-2.7,-167.3,192.7,1024,1024,1024,1038,1056,,,,,
153,15.9,0m 15.9s,0,0,P-GPS,25.6,7.8,26.2,8.0,0.2,0.1,0.0,0.0,0.0,0.0,0,0,7,0,97,16.026,0.019,4.004,4.016,4.009,3.997,0.1,0,0,-5.6,-2.3,-167.4,192.6,1024,1024,1024,1024,1024,,,,,
154,16,0m 16s,0,0,P-GPS,25.6,7.8,26.2,8.0,0.2,0.1,0.0,0.0,0.0,0.0,0,0,7,0,97,16.026,0.019,4.004,4.016,4.009,3.997,0.1,0,0,-5.9,-2.3,-167.4,192.6,1024,1024,1024,1024,1024,,,,,
155,16.1,0m 16.1s,0,0,P-GPS,25.6,7.8,26.2,8.0,0.2,0.1,0.0,0.0,0.0,0.0,0,0,7,0,97,16.026,0.019,4.004,4.016,4.009,3.997,0.1,0,0.1,-6,-2.5,-167.4,192.6,1024,1024,1024,1024,1024,,,,,
156,16.2,0m 16.2s,0,0,P-GPS,25.6,7.8,26.2,8.0,0.2,0.1,0.0,0.0,0.0,0.0,0,0,7,0,96,16.003,0.017,4,4.009,4.002,3.992,0.1,0,0,-6,-2.6,-167.5,192.5,1024,1024,1024,1024,1024,,,,,
157,16.3,0m 16.3s,0,0,P-GPS,25.6,7.8,26.2,8.0,0.0,0.0,0.0,0.0,0.0,0.0,0,0,7,0,96,16.003,0.017,4,4.009,4.002,3.992,0,0,0,-5.8,-2.2,-167.4,192.6,1024,1024,1024,1024,1024,,,,,
158,16.4,0m 16.4s,0,0,P-GPS,25.6,7.8,26.2,8.0,0.0,0.0,0.0,0.0,0.0,0.0,0,0,7,0,96,16.003,0.017,4,4.009,4.002,3.992,0,0,0,-5.8,-2.1,-167.5,192.5,1024,1024,1024,1024,1024,,,,,
159,16.5,0m 16.5s,0,0,P-GPS,25.6,7.8,26.2,8.0,0.0,0.0,0.0,0.0,0.0,0.0,0,0,7,0,96,16.003,0.017,4,4.009,4.002,3.992,0,0,0,-6.2,-2.1,-167.6,192.4,1024,1024,1024,1024,1028,,,,,
160,16.6,0m 16.6s,0,0,P-GPS,25.6,7.8,26.2,8.0,0.0,0.0,0.0,0.0,0.0,0.0,0,0,7,0,96,16.003,0.017,4,4.009,4.002,3.992,0,0,0,-6.4,-1.8,-167.4,192.6,1024,1024,1024,1024,1026,,,,,
161,16.7,0m 16.7s,0,0,P-GPS,25.6,7.8,26.2,8.0,0.0,0.0,0.0,0.0,0.0,0.0,0,0,7,0,96,16.003,0.017,4,4.009,4.002,3.992,0,0,0,-6.2,-1.5,-167.5,192.5,1024,1024,1024,1024,1026,,,,,
162,16.8,0m 16.8s,0,0,P-GPS,25.6,7.8,26.2,8.0,0.0,0.0,0.0,0.0,0.0,0.0,0,0,7,0,96,16.003,0.017,4,4.009,4.002,3.992,0,0,0,-6,-1.1,-167.4,192.6,1024,1024,1024,1024,1025,,,,,
163,16.9,0m 16.9s,0,0,P-GPS,25.6,7.8,26.2,8.0,0.0,0.0,0.0,0.0,0.0,0.0,0,0,7,0,96,16.003,0.017,4,4.009,4.002,3.992,0,0,0,-5.9,-1,-167.4,192.6,1024,1024,1024,1024,1026,,,,,
164,17,0m 17s,0,0,P-GPS,25.6,7.8,26.2,8.0,0.0,0.0,0.0,0.0,0.0,0.0,0,0,7,0,96,16.003,0.017,4,4.009,4.002,3.992,0,0,0,-6,-1.1,-167.5,192.5,1024,1024,1024,1024,1025,,,,,
165,17.1,0m 17.1s,0,0,P-GPS,25.6,7.8,26.2,8.0,0.0,0.0,0.0,0.0,0.0,0.0,0,0,7,0,96,16.003,0.017,4,4.009,4.002,3.992,0,0,0,-6.5,-1.2,-167.6,192.4,1024,1024,1024,1024,1024,,,,,
166,17.2,0m 17.2s,0,0,P-GPS,25.3,7.7,26.2,8.0,0.0,0.0,0.0,0.0,0.0,0.0,0,0,7,0,96,15.998,0.016,3.996,4.008,4.002,3.992,0,0,0,-6.5,-1.4,-167.6,192.4,1024,1024,1024,1024,1024,,,,,
167,17.3,0m 17.3s,0,0,P-GPS,25.6,7.8,26.2,8.0,0.0,0.0,0.0,0.0,0.0,0.0,0,0,7,0,96,15.998,0.016,3.996,4.008,4.002,3.992,0,0,0,-6.3,-1.4,-167.6,192.4,1024,1024,1024,1024,1024,,,,,
168,17.4,0m 17.4s,0,0,P-GPS,25.3,7.7,26.2,8.0,0.0,0.0,0.0,0.0,0.0,0.0,0,0,7,0,96,15.998,0.016,3.996,4.008,4.002,3.992,0,0,0,-5.8,-1.1,-167.6,192.4,1024,1024,1024,1024,1024,,,,,
169,17.5,0m 17.5s,0,0,P-GPS,25.3,7.7,26.2,8.0,0.0,0.0,0.0,0.0,0.0,0.0,0,0,7,0,96,15.998,0.016,3.996,4.008,4.002,3.992,0,0,0.1,-5.3,-1.1,-167.6,192.4,1024,1024,1024,1024,1026,,,,,
170,17.6,0m 17.6s,0,0,P-GPS,25.3,7.7,26.2,8.0,0.0,0.0,0.0,0.0,0.0,0.0,0,0,7,0,96,15.998,0.016,3.996,4.008,4.002,3.992,0,0,0,-5.2,-1.2,-167.6,192.4,1024,1024,1024,1024,1026,,,,,
171,17.7,0m 17.7s,0,0,P-GPS,25.3,7.7,26.2,8.0,0.0,0.0,0.0,0.0,0.0,0.0,0,0,7,0,96,15.998,0.016,3.996,4.008,4.002,3.992,0,0,0,-5.4,-1,-167.6,192.4,1024,1024,1024,1024,1027,,,,,
172,17.8,0m 17.8s,0,0,P-GPS,25.3,7.7,26.2,8.0,0.2,0.1,0.0,0.0,0.0,0.0,0,0,7,0,96,15.998,0.016,3.996,4.008,4.002,3.992,-0.1,0,0,-5.5,-1,-167.5,192.5,1024,1024,1024,1024,1024,,,,,
173,17.9,0m 17.9s,0,0,P-GPS,25.3,7.7,26.2,8.0,0.2,0.1,0.0,0.0,0.0,0.0,0,0,7,0,96,15.998,0.016,3.996,4.008,4.002,3.992,-0.1,0,0,-5.1,-1.3,-167.6,192.4,1024,1024,1024,1024,1024,,,,,
174,18,0m 18s,0,0,P-GPS,25.3,7.7,26.2,8.0,0.2,0.1,0.0,0.0,0.0,0.0,0,0,7,0,96,15.998,0.016,3.996,4.008,4.002,3.992,-0.1,0,0,-4.8,-1.3,-167.5,192.5,1024,1024,1024,1024,1024,,,,,
175,18.1,0m 18.1s,0,0,P-GPS,25.3,7.7,26.2,8.0,0.2,0.1,0.0,0.0,0.0,0.0,0,0,7,0,96,15.998,0.016,3.996,4.008,4.002,3.992,-0.1,0,0,-4.5,-0.9,-167.6,192.4,1024,1024,1024,1024,1024,,,,,
176,18.2,0m 18.2s,0,0,P-GPS,25.3,7.7,26.2,8.0,0.0,0.0,0.0,0.0,0.0,0.0,0,0,7,0,96,15.998,0.016,3.996,4.008,4.002,3.992,0,0,0,-4.6,-1,-167.6,192.4,1024,1024,1024,1024,1024,,,,,
177,18.3,0m 18.3s,0,0,P-GPS,25.3,7.7,26.2,8.0,0.0,0.0,0.0,0.0,0.0,0.0,0,0,7,0,96,15.998,0.016,3.996,4.008,4.002,3.992,0,0,0,-4.9,-1.2,-167.7,192.3,1024,1024,1024,1024,1024,,,,,
178,18.4,0m 18.4s,0,0,P-GPS,25.3,7.7,26.2,8.0,0.0,0.0,0.0,0.0,0.0,0.0,0,0,7,0,96,15.998,0.016,3.996,4.008,4.002,3.992,0,0,0.1,-5,-1.5,-167.6,192.4,1024,1024,1024,1024,1024,,,,,
179,18.5,0m 18.5s,0,0,P-GPS,24.9,7.6,26.2,8.0,0.0,0.0,0.0,0.0,0.0,0.0,0,0,7,0,96,15.998,0.016,3.996,4.008,4.002,3.992,0,0,0.1,-5,-1,-167.6,192.4,1024,1024,1024,1024,1025,,,,,
180,18.6,0m 18.6s,0,0,P-GPS,24.9,7.6,26.2,8.0,0.0,0.0,0.0,0.0,0.0,0.0,0,0,7,0,96,15.998,0.016,3.996,4.008,4.002,3.992,0,0,0,-4.9,-0.7,-167.5,192.5,1024,1024,1024,1024,1025,,,,,
181,18.7,0m 18.7s,0,0,P-GPS,25.3,7.7,26.2,8.0,0.0,0.0,0.0,0.0,0.0,0.0,0,0,7,0,96,15.998,0.016,3.996,4.008,4.002,3.992,0,0,0,-4.8,-1,-167.6,192.4,1024,1024,1024,1024,1024,,,,,
182,18.8,0m 18.8s,0,0,P-GPS,25.3,7.7,26.2,8.0,0.0,0.0,0.0,0.0,0.0,0.0,0,0,7,0,96,15.998,0.016,3.996,4.008,4.002,3.992,0,0,0,-5.1,-1.8,-167.5,192.5,1024,1024,1024,1024,1024,,,,,
183,18.9,0m 18.9s,0,0,P-GPS,25.3,7.7,26.2,8.0,0.0,0.0,0.0,0.0,0.0,0.0,0,0,7,0,96,15.998,0.016,3.996,4.008,4.002,3.992,0,0,0,-5.2,-1.6,-167.5,192.5,1024,1024,1024,1024,1041,,,,,
184,19.1,0m 19.1s,0,0,P-GPS,25.3,7.7,26.2,8.0,0.0,0.0,0.0,0.0,0.0,0.0,0,0,7,0,96,15.998,0.016,3.996,4.008,4.002,3.992,0,0,-0.1,-5.5,-1.4,-167.5,192.5,1024,1024,1024,1024,1052,,,,,
185,19.2,0m 19.2s,0,0,P-GPS,25.3,7.7,26.2,8.0,0.0,0.0,0.0,0.0,0.0,0.0,0,0,7,0,96,16.002,0.015,3.998,4.009,4.001,3.994,0,0,0,-5.9,-2,-167.6,192.4,1024,1024,1024,1024,1026,,,,,
186,19.4,0m 19.4s,0,0,P-GPS,25.3,7.7,26.2,8.0,0.0,0.0,0.0,0.0,0.0,0.0,0,0,7,0,96,16.002,0.015,3.998,4.009,4.001,3.994,0,0,0,-5.2,-2,-167.5,192.5,1024,1024,1024,1024,1026,,,,,
187,19.5,0m 19.5s,0,0,P-GPS,25.3,7.7,26.2,8.0,0.0,0.0,0.0,0.0,0.0,0.0,0,0,7,0,96,16.002,0.015,3.998,4.009,4.001,3.994,0,0,0,-5.6,-1.1,-167.4,192.6,1024,1024,1024,1024,1024,,,,,
188,19.6,0m 19.6s,0,0,P-GPS,25.6,7.8,26.2,8.0,0.0,0.0,0.0,0.0,0.0,0.0,0,0,7,0,96,16.002,0.015,3.998,4.009,4.001,3.994,0,0,0,-5.6,-1.7,-167.5,192.5,1024,1024,1024,1024,1024,,,,,
189,19.7,0m 19.7s,0,0,P-GPS,25.6,7.8,26.2,8.0,0.2,0.1,0.0,0.0,0.0,0.0,0,0,7,0,96,16.002,0.015,3.998,4.009,4.001,3.994,0,-0.1,0,-5.3,-3,-167.5,192.5,1024,1024,1024,1024,1024,,,,,
190,19.8,0m 19.8s,0,0,P-GPS,25.3,7.7,26.2,8.0,0.0,0.0,0.0,0.0,0.0,0.0,0,0,7,0,96,16.002,0.015,3.998,4.009,4.001,3.994,0,0,0,-5.5,-2.9,-167.5,192.5,1024,1024,1024,1024,1024,,,,,
191,19.9,0m 19.9s,0,0,P-GPS,25.6,7.8,26.2,8.0,0.0,0.0,0.0,0.0,0.0,0.0,0,0,7,0,96,16.002,0.015,3.998,4.009,4.001,3.994,0,0,0,-5.8,-2.8,-167.4,192.6,1024,1024,1024,1024,1024,,,,,
192,20,0m 20s,0,0,P-GPS,25.6,7.8,26.2,8.0,0.0,0.0,0.0,0.0,0.0,0.0,0,0,7,0,96,16.002,0.015,3.998,4.009,4.001,3.994,0,0,0,-6.4,-2.5,-167.4,192.6,1024,1024,1024,1024,1024,,,,,
193,20.1,0m 20.1s,0,0,P-GPS,25.6,7.8,25.9,7.9,0.0,0.0,0.0,0.0,0.0,0.0,0,0,7,0,96,16.002,0.015,3.998,4.009,4.001,3.994,0,0,0,-6.6,-2.1,-167.3,192.7,1024,1024,1024,1024,1024,,,,,
194,20.2,0m 20.2s,0,0,P-GPS,25.6,7.8,25.9,7.9,0.2,0.1,0.0,0.0,0.0,0.0,0,0,7,0,96,15.99,0.016,3.994,4.006,4,3.99,0,-0.1,0,-6.3,-3,-167.3,192.7,1024,1024,1024,1024,1024,,,,,
195,20.3,0m 20.3s,0,0,P-GPS,25.6,7.8,25.9,7.9,0.3,0.1,0.0,0.0,0.0,0.0,0,0,7,0,96,15.99,0.016,3.994,4.006,4,3.99,-0.1,-0.1,0,-4.9,-3.7,-167.4,192.6,1024,1024,1024,1024,1024,,,,,
196,20.4,0m 20.4s,0,0,P-GPS,25.6,7.8,25.9,7.9,0.0,0.0,0.0,0.0,0.0,0.0,0,0,7,0,96,15.99,0.016,3.994,4.006,4,3.99,0,0,0,-4.9,-3.7,-167.4,192.6,1024,1024,1024,1024,1024,,,,,
197,20.5,0m 20.5s,0,0,P-GPS,25.6,7.8,25.9,7.9,0.0,0.0,0.0,0.0,0.0,0.0,0,0,7,0,96,15.99,0.016,3.994,4.006,4,3.99,0,0,-0.1,-4.7,-3.8,-167.5,192.5,1024,1024,1024,1024,1024,,,,,
198,20.6,0m 20.6s,0,0,P-GPS,25.9,7.9,25.9,7.9,0.0,0.0,0.0,0.0,0.0,0.0,0,0,7,0,96,15.99,0.016,3.994,4.006,4,3.99,0,0,-0.1,-4.6,-4.1,-167.5,192.5,1024,1024,1024,1024,1024,,,,,
199,20.7,0m 20.7s,0,0,P-GPS,25.9,7.9,25.6,7.8,0.2,0.1,0.0,0.0,0.0,0.0,0,0,7,0,96,15.99,0.016,3.994,4.006,4,3.99,-0.1,0,0,-4.1,-4.2,-167.5,192.5,1024,1024,1024,1024,1024,,,,,
200,20.8,0m 20.8s,0,0,P-GPS,25.9,7.9,25.6,7.8,0.2,0.1,0.0,0.0,0.0,0.0,0,0,7,0,96,15.99,0.016,3.994,4.006,4,3.99,-0.1,0,0,-4.2,-3.9,-167.7,192.3,1024,1024,1024,1024,1024,,,,,
201,20.9,0m 20.9s,0,0,P-GPS,25.6,7.8,25.6,7.8,0.2,0.1,0.0,0.0,0.0,0.0,0,0,7,0,96,15.99,0.016,3.994,4.006,4,3.99,-0.1,0,0.1,-4.2,-4.5,-167.8,192.2,1024,1024,1024,1024,1024,,,,,
202,21,0m 21s,0,0,P-GPS,25.6,7.8,25.6,7.8,0.2,0.1,0.0,0.0,0.0,0.0,0,0,7,0,96,15.99,0.016,3.994,4.006,4,3.99,-0.1,0,0.1,-4.5,-4.5,-167.7,192.3,1024,1024,1024,1024,1024,,,,,
203,21.1,0m 21.1s,0,0,P-GPS,25.6,7.8,25.6,7.8,0.2,0.1,0.0,0.0,0.0,0.0,0,0,7,0,96,15.99,0.016,3.994,4.006,4,3.99,-0.1,0,0.2,-4.7,-3.8,-167.5,192.5,1024,1024,1024,1024,1024,,,,,
204,21.2,0m 21.2s,0,0,P-GPS,25.3,7.7,25.3,7.7,0.3,0.1,0.0,0.0,0.0,0.0,0,0,7,0,96,15.941,0.015,3.983,3.993,3.987,3.978,-0.1,0.1,0.2,-4.3,-1.9,-167.4,192.6,1024,1024,1024,1024,1024,,,,,
205,21.3,0m 21.3s,0,0,P-GPS,25.3,7.7,25.3,7.7,0.2,0.1,0.0,0.0,0.0,0.0,0,0,7,0,96,15.941,0.015,3.983,3.993,3.987,3.978,-0.1,0,0.3,-3.6,-0.4,-167.4,192.6,1024,1024,1024,1024,1024,,,,,
206,21.4,0m 21.4s,0,0,P-GPS,25.3,7.7,25.3,7.7,0.0,0.0,0.0,0.0,0.0,0.0,0,0,7,0,96,15.941,0.015,3.983,3.993,3.987,3.978,0,0,0,-3.8,-1.2,-167.5,192.5,1024,1024,1024,1024,1024,,,,,
207,21.5,0m 21.5s,0,0,P-GPS,24.9,7.6,25.3,7.7,0.0,0.0,0.0,0.0,0.0,0.0,0,0,7,0,96,15.941,0.015,3.983,3.993,3.987,3.978,0,0,0,-4.7,-2.2,-167.5,192.5,1024,1024,1024,1024,1024,,,,,
208,21.6,0m 21.6s,0,0,P-GPS,24.9,7.6,25.3,7.7,0.2,0.1,0.0,0.0,0.0,0.0,0,0,7,0,96,15.941,0.015,3.983,3.993,3.987,3.978,-0.1,0,0.1,-5,-2.4,-167.4,192.6,1024,1024,1024,1024,1024,,,,,
209,21.7,0m 21.7s,0,0,P-GPS,24.9,7.6,25.3,7.7,0.2,0.1,0.0,0.0,0.0,0.0,0,0,7,0,96,15.941,0.015,3.983,3.993,3.987,3.978,-0.1,0,0,-4.6,-2.4,-167.3,192.7,1024,1024,1024,1024,1024,,,,,
210,21.8,0m 21.8s,0,0,P-GPS,24.9,7.6,25.3,7.7,0.2,0.1,0.0,0.0,0.0,0.0,0,0,7,0,96,15.941,0.015,3.983,3.993,3.987,3.978,-0.1,0,0,-4,-2.1,-167.3,192.7,1024,1024,1024,1024,1024,,,,,
211,21.9,0m 21.9s,0,0,P-GPS,24.9,7.6,25.3,7.7,0.2,0.1,0.0,0.0,0.0,0.0,0,0,7,0,96,15.941,0.015,3.983,3.993,3.987,3.978,0,0,-0.1,-4.1,-2.2,-167.3,192.7,1024,1024,1024,1024,1024,,,,,
212,22,0m 22s,0,0,P-GPS,24.9,7.6,25.3,7.7,0.0,0.0,0.0,0.0,0.0,0.0,0,0,7,0,96,15.941,0.015,3.983,3.993,3.987,3.978,0,0,0,-4.6,-2.8,-167.3,192.7,1024,1024,1024,1024,1024,,,,,
213,22.1,0m 22.1s,0,0,P-GPS,24.9,7.6,25.3,7.7,0.0,0.0,0.0,0.0,0.0,0.0,0,0,7,0,96,15.941,0.015,3.983,3.993,3.987,3.978,0,0,-0.1,-5.1,-2.6,-167.1,192.9,1024,1024,1024,1024,1024,,,,,
214,22.2,0m 22.2s,0,0,P-GPS,25.3,7.7,25.3,7.7,0.0,0.0,0.0,0.0,0.0,0.0,0,0,7,0,96,15.941,0.015,3.983,3.993,3.987,3.978,0,0,-0.1,-4.8,-1.9,-167.2,192.8,1024,1024,1024,1024,1024,,,,,
215,22.3,0m 22.3s,0,0,P-GPS,25.3,7.7,25.3,7.7,0.0,0.0,0.0,0.0,0.0,0.0,0,0,7,0,96,15.941,0.015,3.983,3.993,3.987,3.978,0,0,0,-4.7,-2.2,-167.2,192.8,1024,1024,1024,1024,1024,,,,,
216,22.4,0m 22.4s,0,0,P-GPS,25.3,7.7,25.3,7.7,0.0,0.0,0.0,0.0,0.0,0.0,0,0,7,0,96,15.941,0.015,3.983,3.993,3.987,3.978,0,0,0,-3.9,-1.7,-167.4,192.6,1024,1024,1024,1024,1024,,,,,
217,22.5,0m 22.5s,0,0,P-GPS,25.3,7.7,25.3,7.7,0.0,0.0,0.0,0.0,0.0,0.0,0,0,7,0,96,15.941,0.015,3.983,3.993,3.987,3.978,0,0,0,-4.4,-2,-167.5,192.5,1024,1024,1024,1024,1024,,,,,
218,22.6,0m 22.6s,0,0,P-GPS,25.3,7.7,25.3,7.7,0.0,0.0,0.0,0.0,0.0,0.0,0,0,7,0,96,15.941,0.015,3.983,3.993,3.987,3.978,0,0,0,-5.5,-2.8,-167.5,192.5,1024,1024,1024,1024,1024,,,,,
219,22.7,0m 22.7s,0,0,P-GPS,24.9,7.6,25.3,7.7,0.0,0.0,0.0,0.0,0.0,0.0,0,0,7,0,96,15.941,0.015,3.983,3.993,3.987,3.978,0,0,0,-5.4,-2.6,-167.6,192.4,1024,1024,1024,1024,1024,,,,,
220,22.8,0m 22.8s,0,0,P-GPS,24.9,7.6,25.3,7.7,0.3,0.1,0.0,0.0,0.0,0.0,0,0,7,0,96,15.941,0.015,3.983,3.993,3.987,3.978,-0.1,0.1,0,-4.9,-1.3,-167.5,192.5,1024,1024,1024,1024,1024,,,,,
221,22.9,0m 22.9s,0,0,P-GPS,24.9,7.6,25.3,7.7,0.2,0.1,0.0,0.0,0.0,0.0,0,0,7,0,96,15.941,0.015,3.983,3.993,3.987,3.978,-0.1,0,0,-4.8,-0.3,-167.5,192.5,1024,1024,1024,1024,1024,,,,,
222,23,0m 23s,0,0,P-GPS,24.9,7.6,25.3,7.7,0.2,0.1,0.0,0.0,0.0,0.0,0,0,7,0,96,15.941,0.015,3.983,3.993,3.987,3.978,0,0,0,-5.1,-1,-167.6,192.4,1024,1024,1024,1024,1024,,,,,
223,23.1,0m 23.1s,0,0,P-GPS,24.9,7.6,25.3,7.7,0.0,0.0,0.0,0.0,0.0,0.0,0,0,7,0,96,15.941,0.015,3.983,3.993,3.987,3.978,0,0,0,-5.1,-2.2,-167.5,192.5,1024,1024,1024,1024,1024,,,,,
224,23.2,0m 23.2s,0,0,P-GPS,24.9,7.6,25.6,7.8,0.0,0.0,0.0,0.0,0.0,0.0,0,0,7,0,96,15.932,0.018,3.981,3.992,3.985,3.974,-0.1,0,0,-5,-2.2,-167.5,192.5,1024,1024,1024,1024,1024,,,,,
225,23.3,0m 23.3s,0,0,P-GPS,24.9,7.6,25.6,7.8,0.3,0.1,0.0,0.0,0.0,0.0,0,0,7,0,96,15.932,0.018,3.981,3.992,3.985,3.974,-0.1,0.1,-0.1,-4.8,-1.3,-167.4,192.6,1024,1024,1024,1024,1024,,,,,
226,23.4,0m 23.4s,0,0,P-GPS,24.9,7.6,25.6,7.8,0.3,0.1,0.0,0.0,0.0,0.0,0,0,7,0,96,15.932,0.018,3.981,3.992,3.985,3.974,-0.1,0.1,-0.1,-4.8,-0.8,-167.5,192.5,1024,1024,1024,1024,1024,,,,,
227,23.5,0m 23.5s,0,0,P-GPS,24.9,7.6,25.6,7.8,0.3,0.1,0.0,0.0,0.0,0.0,0,0,7,0,96,15.932,0.018,3.981,3.992,3.985,3.974,-0.1,0.1,0,-4.7,-0.6,-167.5,192.5,1024,1024,1024,1024,1024,,,,,
228,23.6,0m 23.6s,0,0,P-GPS,24.9,7.6,25.6,7.8,0.3,0.1,0.0,0.0,0.0,0.0,0,0,7,0,96,15.932,0.018,3.981,3.992,3.985,3.974,-0.1,0,0,-4.7,-0.4,-167.5,192.5,1024,1024,1024,1024,1024,,,,,
229,23.7,0m 23.7s,0,0,P-GPS,24.9,7.6,25.6,7.8,0.2,0.1,0.0,0.0,0.0,0.0,0,0,7,0,96,15.932,0.018,3.981,3.992,3.985,3.974,-0.1,0,0,-4.7,-0.3,-167.4,192.6,1024,1024,1024,1024,1024,,,,,
230,23.8,0m 23.8s,0,0,P-GPS,24.9,7.6,25.6,7.8,0.2,0.1,0.0,0.0,0.0,0.0,0,0,7,0,96,15.932,0.018,3.981,3.992,3.985,3.974,0,0,0,-4.8,-0.5,-167.5,192.5,1024,1024,1024,1024,1024,,,,,
231,23.9,0m 23.9s,0,0,P-GPS,24.9,7.6,25.6,7.8,0.0,0.0,0.0,0.0,0.0,0.0,0,0,7,0,96,15.932,0.018,3.981,3.992,3.985,3.974,0,0,0,-4.9,-0.6,-167.5,192.5,1024,1024,1024,1024,1024,,,,,
232,24,0m 24s,0,0,P-GPS,24.9,7.6,25.6,7.8,0.0,0.0,0.0,0.0,0.0,0.0,0,0,7,0,96,15.932,0.018,3.981,3.992,3.985,3.974,0,0,0,-4.9,-0.6,-167.5,192.5,1024,1024,1024,1024,1024,,,,,
233,24.1,0m 24.1s,0,0,P-GPS,24.6,7.5,25.6,7.8,0.0,0.0,0.0,0.0,0.0,0.0,0,0,7,0,96,15.932,0.018,3.981,3.992,3.985,3.974,0,0,0,-5.1,-0.8,-167.5,192.5,1024,1024,1024,1024,1024,,,,,
234,24.2,0m 24.2s,0,0,P-GPS,24.6,7.5,25.9,7.9,0.0,0.0,0.0,0.0,0.0,0.0,0,0,7,0,96,15.945,0.016,3.982,3.995,3.989,3.979,0,0,0,-5.3,-0.8,-167.4,192.6,1024,1024,1024,1024,1024,,,,,
235,24.3,0m 24.3s,0,0,P-GPS,24.6,7.5,25.9,7.9,0.0,0.0,0.0,0.0,0.0,0.0,0,0,7,0,96,15.945,0.016,3.982,3.995,3.989,3.979,0,0,-0.1,-5.3,-0.9,-167.4,192.6,1024,1024,1024,1024,1024,,,,,
236,24.4,0m 24.4s,0,0,P-GPS,24.6,7.5,25.9,7.9,0.0,0.0,0.0,0.0,0.0,0.0,0,0,7,0,96,15.945,0.016,3.982,3.995,3.989,3.979,0,0,0,-5,-1.5,-167.5,192.5,1024,1024,1024,1024,1024,,,,,
237,24.5,0m 24.5s,0,0,P-GPS,24.6,7.5,25.9,7.9,0.0,0.0,0.0,0.0,0.0,0.0,0,0,7,0,96,15.945,0.016,3.982,3.995,3.989,3.979,0,0,0,-5.2,-1.9,-167.5,192.5,1024,1024,1024,1024,1024,,,,,
238,24.6,0m 24.6s,0,0,P-GPS,24.6,7.5,25.9,7.9,0.0,0.0,0.0,0.0,0.0,0.0,0,0,7,0,96,15.945,0.016,3.982,3.995,3.989,3.979,0,0,-0.1,-5.5,-2.4,-167.6,192.4,1024,1024,1024,1024,1024,,,,,
239,24.7,0m 24.7s,0,0,P-GPS,24.9,7.6,26.2,8.0,0.0,0.0,0.0,0.0,0.0,0.0,0,0,7,0,96,15.945,0.016,3.982,3.995,3.989,3.979,0,0,-0.1,-5.2,-2.2,-167.6,192.4,1024,1024,1024,1024,1024,,,,,
240,24.8,0m 24.8s,0,0,P-GPS,24.9,7.6,26.2,8.0,0.0,0.0,0.0,0.0,0.0,0.0,0,0,7,0,96,15.945,0.016,3.982,3.995,3.989,3.979,0,0,0,-4.9,-1.1,-167.5,192.5,1024,1024,1024,1024,1024,,,,,
241,24.9,0m 24.9s,0,0,P-GPS,24.9,7.6,26.2,8.0,0.0,0.0,0.0,0.0,0.0,0.0,0,0,7,0,96,15.945,0.016,3.982,3.995,3.989,3.979,0,0,0,-4.9,-0.6,-167.4,192.6,1024,1024,1024,1024,1024,,,,,
242,25.1,0m 25.1s,0,0,P-GPS,24.9,7.6,26.2,8.0,0.0,0.0,0.0,0.0,0.0,0.0,0,0,7,0,96,15.945,0.016,3.982,3.995,3.989,3.979,0,0,0,-5.5,-1.8,-167.4,192.6,1024,1024,1024,1024,1024,,,,,
243,25.2,0m 25.2s,0,0,P-GPS,24.9,7.6,26.2,8.0,0.0,0.0,0.0,0.0,0.0,0.0,0,0,7,0,96,15.91,0.018,3.975,3.987,3.979,3.969,0,0,-0.1,-5.6,-2.4,-167.3,192.7,1024,1024,1024,1024,1024,,,,,
244,25.3,0m 25.3s,0,0,P-GPS,24.9,7.6,26.2,8.0,0.0,0.0,0.0,0.0,0.0,0.0,0,0,7,0,96,15.91,0.018,3.975,3.987,3.979,3.969,0,0,0,-5.7,-2.6,-167.3,192.7,1024,1024,1024,1024,1024,,,,,
245,25.4,0m 25.4s,0,0,P-GPS,24.9,7.6,26.2,8.0,0.0,0.0,0.0,0.0,0.0,0.0,0,0,7,0,96,15.91,0.018,3.975,3.987,3.979,3.969,0,0,0,-5.6,-1.9,-167.4,192.6,1024,1024,1024,1024,1024,,,,,
246,25.5,0m 25.5s,0,0,P-GPS,24.9,7.6,26.2,8.0,0.0,0.0,0.0,0.0,0.0,0.0,0,0,7,0,96,15.91,0.018,3.975,3.987,3.979,3.969,0,0,0,-5.2,-1.7,-167.4,192.6,1024,1024,1024,1024,1024,,,,,
247,25.6,0m 25.6s,0,0,P-GPS,24.9,7.6,26.6,8.1,0.0,0.0,0.0,0.0,0.0,0.0,0,0,7,0,96,15.91,0.018,3.975,3.987,3.979,3.969,0,0,0,-5.1,-2.2,-167.4,192.6,1024,1024,1024,1024,1024,,,,,
248,25.7,0m 25.7s,0,0,P-GPS,24.9,7.6,26.6,8.1,0.0,0.0,0.0,0.0,0.0,0.0,0,0,7,0,96,15.91,0.018,3.975,3.987,3.979,3.969,0,0,0,-5,-2.6,-167.5,192.5,1024,1024,1024,1024,1024,,,,,
249,25.8,0m 25.8s,0,0,P-GPS,24.9,7.6,26.6,8.1,0.0,0.0,0.0,0.0,0.0,0.0,0,0,8,0,96,15.91,0.018,3.975,3.987,3.979,3.969,-0.1,0,0,-4.9,-2.7,-167.8,192.2,1024,1024,1024,1024,1024,,,,,
250,25.9,0m 25.9s,0,0,P-GPS,24.9,7.6,26.6,8.1,0.2,0.1,0.0,0.0,0.0,0.0,0,0,8,0,96,15.91,0.018,3.975,3.987,3.979,3.969,-0.1,0,0,-5,-2.6,-167.9,192.1,1024,1024,1024,1024,1024,,,,,
251,26,0m 26s,0,0,P-GPS,24.9,7.6,26.6,8.1,0.2,0.1,0.0,0.0,0.0,0.0,0,0,8,0,96,15.91,0.018,3.975,3.987,3.979,3.969,-0.1,0,0,-5.1,-2.3,-168.1,191.9,1024,1024,1024,1024,1024,,,,,
252,26.1,0m 26.1s,0,0,P-GPS,24.9,7.6,26.6,8.1,0.2,0.1,0.0,0.0,0.0,0.0,0,0,8,0,96,15.91,0.018,3.975,3.987,3.979,3.969,-0.1,0,0,-4.9,-1.5,-168.3,191.7,1024,1024,1024,1024,1024,,,,,
253,26.2,0m 26.2s,0,0,P-GPS,24.9,7.6,26.6,8.1,0.2,0.1,0.0,0.0,0.0,0.0,0,0,8,0,96,15.91,0.018,3.975,3.987,3.979,3.969,-0.1,0,0,-4.8,-0.8,-168.2,191.8,1024,1024,1024,1024,1024,,,,,
254,26.3,0m 26.3s,0,0,P-GPS,24.9,7.6,26.6,8.1,0.0,0.0,0.0,0.0,0.0,0.0,0,0,8,0,96,15.91,0.018,3.975,3.987,3.979,3.969,0,0,-0.1,-5,-1.2,-168.3,191.7,1024,1024,1024,1024,1024,,,,,
255,26.4,0m 26.4s,0,0,P-GPS,24.9,7.6,26.6,8.1,0.0,0.0,0.0,0.0,0.0,0.0,0,0,8,0,96,15.91,0.018,3.975,3.987,3.979,3.969,0,0,-0.1,-5.1,-1.8,-168.5,191.5,1024,1024,1024,1024,1024,,,,,
256,26.5,0m 26.5s,0,0,P-GPS,24.9,7.6,26.6,8.1,0.0,0.0,0.0,0.0,0.0,0.0,0,0,8,0,96,15.91,0.018,3.975,3.987,3.979,3.969,0,0,0,-5.5,-2.5,-168.5,191.5,1024,1024,1024,1024,1024,,,,,
257,26.6,0m 26.6s,0,0,P-GPS,25.3,7.7,26.6,8.1,0.0,0.0,0.0,0.0,0.0,0.0,0,0,8,0,96,15.91,0.018,3.975,3.987,3.979,3.969,0,0,0,-5.7,-2.7,-168.2,191.8,1024,1024,1024,1024,1024,,,,,
258,26.7,0m 26.7s,0,0,P-GPS,25.3,7.7,26.6,8.1,0.0,0.0,0.0,0.0,0.0,0.0,0,0,8,0,96,15.91,0.018,3.975,3.987,3.979,3.969,0,0,0,-5.6,-2.3,-168.2,191.8,1024,1024,1024,1024,1024,,,,,
259,26.8,0m 26.8s,0,0,P-GPS,25.3,7.7,26.6,8.1,0.0,0.0,0.0,0.0,0.0,0.0,0,0,8,0,96,15.91,0.018,3.975,3.987,3.979,3.969,0,0,0,-5.5,-2.1,-168.2,191.8,1024,1024,1024,1024,1024,,,,,
260,26.9,0m 26.9s,0,0,P-GPS,25.3,7.7,26.6,8.1,0.0,0.0,0.0,0.0,0.0,0.0,0,0,8,0,96,15.91,0.018,3.975,3.987,3.979,3.969,0,0,0,-5.6,-2.4,-168.3,191.7,1024,1024,1024,1024,1024,,,,,
261,27,0m 27s,0,0,P-GPS,25.3,7.7,26.6,8.1,0.0,0.0,0.0,0.0,0.0,0.0,0,0,8,0,96,15.91,0.018,3.975,3.987,3.979,3.969,0,0,0,-5.6,-3,-168.4,191.6,1024,1024,1024,1024,1024,,,,,
262,27.1,0m 27.1s,0,0,P-GPS,25.3,7.7,26.6,8.1,0.0,0.0,0.0,0.0,0.0,0.0,0,0,8,0,96,15.91,0.018,3.975,3.987,3.979,3.969,0,0,0,-5.4,-3.4,-168.3,191.7,1024,1024,1024,1024,1024,,,,,
263,27.2,0m 27.2s,0,0,P-GPS,25.3,7.7,26.6,8.1,0.0,0.0,0.0,0.0,0.0,0.0,0,0,8,0,96,15.889,0.018,3.968,3.982,3.975,3.964,0,0,-0.1,-5.5,-3.5,-168.4,191.6,1024,1024,1024,1024,1024,,,,,
264,27.3,0m 27.3s,0,0,P-GPS,25.3,7.7,26.6,8.1,0.0,0.0,0.0,0.0,0.0,0.0,0,0,8,0,96,15.889,0.018,3.968,3.982,3.975,3.964,0,0,0,-6.4,-3.1,-168.3,191.7,1024,1024,1024,1024,1024,,,,,
265,27.4,0m 27.4s,0,0,P-GPS,25.3,7.7,26.6,8.1,0.2,0.1,0.0,0.0,0.0,0.0,0,0,8,0,96,15.889,0.018,3.968,3.982,3.975,3.964,0,0.1,0,-6.9,-1.4,-168.1,191.9,1024,1024,1024,1024,1024,,,,,
266,27.5,0m 27.5s,0,0,P-GPS,25.3,7.7,26.6,8.1,0.2,0.1,0.0,0.0,0.0,0.0,0,0,8,0,96,15.889,0.018,3.968,3.982,3.975,3.964,-0.1,0,0,-6.1,-0.3,-168,192,1024,1024,1024,1024,1024,,,,,
267,27.6,0m 27.6s,0,0,P-GPS,25.3,7.7,26.6,8.1,0.2,0.1,0.0,0.0,0.0,0.0,0,0,8,0,96,15.889,0.018,3.968,3.982,3.975,3.964,-0.1,0,0,-5.9,-1,-168.1,191.9,1024,1024,1024,1024,1024,,,,,
268,27.7,0m 27.7s,0,0,P-GPS,25.6,7.8,26.2,8.0,0.2,0.1,0.0,0.0,0.0,0.0,0,0,8,0,96,15.889,0.018,3.968,3.982,3.975,3.964,-0.1,0,0,-6.2,-1.3,-168,192,1024,1024,1024,1024,1024,,,,,
269,27.8,0m 27.8s,-23.74319766,-46.57859916,P-GPS,25.6,7.8,26.2,8.0,0.2,0.1,0.0,0.0,0.0,0.0,0,0,8,0,96,15.889,0.018,3.968,3.982,3.975,3.964,-0.1,0,0,-6,-1.1,-168,192,1024,1024,1024,1024,1024,,,,,
270,27.9,0m 27.9s,-23.74319786,-46.57859913,P-GPS,25.6,7.8,26.2,8.0,0.4,0.2,0.0,0.0,0.0,0.0,0,0,8,0,96,15.889,0.018,3.968,3.982,3.975,3.964,-0.2,0,0,-5.5,-1.6,-168,192,1024,1024,1024,1024,1024,,,,,
271,28,0m 28s,-23.7431981,-46.5785991,P-GPS,25.6,7.8,26.2,8.0,0.4,0.2,1.1,0.5,0.0,0.0,0,0,8,0,96,15.889,0.018,3.968,3.982,3.975,3.964,-0.2,0,0,-5,-1.8,-167.8,192.2,1024,1024,1024,1012,1111,,,,,
272,28.1,0m 28.1s,-23.74319834,-46.57859906,P-GPS,25.6,7.8,26.2,8.0,0.5,0.2,1.1,0.5,0.0,0.0,0,0,8,0,96,15.889,0.018,3.968,3.982,3.975,3.964,-0.2,0.1,0,-4.7,-1.7,-167.9,192.1,1024,1024,1024,1003,1251,,,,,
273,28.2,0m 28.2s,-23.74319858,-46.57859897,P-GPS,25.6,7.8,26.2,8.0,0.5,0.2,1.1,0.5,0.0,0.0,0,0,8,0,96,15.892,0.024,3.972,3.984,3.976,3.96,-0.2,0.1,0,-4.2,-1.2,-167.7,192.3,1024,1024,1024,1007,1365,,,,,
274,28.3,0m 28.3s,-23.74319882,-46.57859888,P-GPS,25.6,7.8,26.2,8.0,0.5,0.2,0.0,0.0,0.0,0.0,0,0,8,0,96,15.892,0.024,3.972,3.984,3.976,3.96,-0.2,0.1,0,-3.7,-0.3,-167.9,192.1,1024,1024,1024,986,1446,,,,,
275,28.4,0m 28.4s,-23.743199,-46.57859877,P-GPS,25.6,7.8,26.2,8.0,0.5,0.2,0.0,0.0,0.0,0.0,0,0,8,0,96,15.892,0.024,3.972,3.984,3.976,3.96,-0.2,0.1,-0.1,-3.6,0,-168.1,191.9,1024,1024,1024,978,1476,,,,,
276,28.5,0m 28.5s,-23.74319918,-46.57859871,P-GPS,25.6,7.8,26.2,8.0,0.2,0.1,0.0,0.0,0.0,0.0,0,0,8,0,96,15.892,0.024,3.972,3.984,3.976,3.96,-0.1,0,-0.4,-3.7,0.4,-168.2,191.8,1024,1024,1024,964,1487,,,,,
277,28.6,0m 28.6s,-23.74319919,-46.57859864,P-GPS,25.9,7.9,26.6,8.1,0.2,0.1,0.0,0.0,0.0,0.0,0,0,8,0,96,15.892,0.024,3.972,3.984,3.976,3.96,-0.1,0,-0.8,-4.3,-0.1,-168.5,191.5,1024,1024,1024,930,1517,,,,,
278,28.7,0m 28.7s,-23.74319927,-46.57859865,P-GPS,26.2,8.0,26.9,8.2,0.2,0.1,0.0,0.0,0.0,0.0,0,0,8,0,96,15.892,0.024,3.972,3.984,3.976,3.96,-0.1,0,-1,-4.7,-1.6,-168.7,191.3,1024,1024,1024,951,1531,,,,,
279,28.8,0m 28.8s,-23.74319919,-46.57859879,P-GPS,26.6,8.1,27.2,8.3,0.2,0.1,1.1,0.5,0.0,0.0,0,0,9,0,96,15.892,0.024,3.972,3.984,3.976,3.96,-0.1,0,-1.2,-4.5,-2,-168.7,191.3,1024,1024,1024,981,1544,,,,,
280,28.9,0m 28.9s,-23.74319922,-46.57859891,P-GPS,27.2,8.3,27.6,8.4,0.2,0.1,0.0,0.0,0.0,0.0,0,0,9,0,96,15.892,0.024,3.972,3.984,3.976,3.96,-0.1,0,-1.4,-4.2,-1.2,-168.7,191.3,1024,1024,1024,974,1582,,,,,
281,29,0m 29s,-23.74319898,-46.57859908,P-GPS,27.9,8.5,28.2,8.6,0.2,0.1,0.0,0.0,0.0,0.0,0,0,9,1,96,15.892,0.024,3.972,3.984,3.976,3.96,-0.1,0,-1.7,-4.1,-1.3,-168.9,191.1,1024,1024,1024,964,1618,,,,,
282,29.1,0m 29.1s,-23.74319887,-46.57859927,P-GPS,28.5,8.7,28.5,8.7,0.2,0.1,0.0,0.0,0.0,0.0,0,0,9,1,96,15.892,0.024,3.972,3.984,3.976,3.96,-0.1,0,-1.9,-4.3,-2.1,-169.1,190.9,1024,1024,1024,968,1632,,,,,
283,29.2,0m 29.2s,-23.74319861,-46.57859958,P-GPS,29.2,8.9,29.2,8.9,0.2,0.1,0.0,0.0,0.0,0.0,0,0,9,1,96,15.892,0.024,3.972,3.984,3.976,3.96,0,-0.1,-2.1,-5,-2.9,-169.2,190.8,1024,1024,1024,971,1643,,,,,
284,29.3,0m 29.3s,-23.7431985,-46.57859984,P-GPS,29.9,9.1,29.9,9.1,0.2,0.1,0.0,0.0,0.0,0.0,0,0,9,1,96,15.892,0.024,3.972,3.984,3.976,3.96,0,-0.1,-2.2,-5.3,-3.6,-169.2,190.8,1024,1024,1024,976,1646,,,,,
285,29.4,0m 29.4s,-23.74319798,-46.57860002,P-GPS,30.8,9.4,30.5,9.3,0.2,0.1,1.5,0.7,0.0,0.0,0,0,9,1,96,15.892,0.024,3.972,3.984,3.976,3.96,0,-0.1,-2.4,-4.8,-3,-169.1,190.9,1024,1024,1024,977,1658,,,,,
286,29.5,0m 29.5s,-23.74319767,-46.57860018,P-GPS,31.5,9.6,31.5,9.6,0.2,0.1,1.1,0.5,0.0,0.0,0,0,9,1,96,15.892,0.024,3.972,3.984,3.976,3.96,0,-0.1,-2.5,-4.2,-2.7,-169.1,190.9,1024,1024,1024,971,1684,,,,,
287,29.6,0m 29.6s,-23.74319723,-46.57860039,P-GPS,32.5,9.9,32.2,9.8,0.2,0.1,1.5,0.7,0.0,0.0,0,0,9,1,96,15.892,0.024,3.972,3.984,3.976,3.96,0,-0.1,-2.6,-4.4,-3.1,-169.2,190.8,1024,1024,1024,961,1684,,,,,
288,29.7,0m 29.7s,-23.74319695,-46.57860057,P-GPS,33.5,10.2,32.8,10.0,0.2,0.1,1.1,0.5,0.0,0.0,0,0,9,1,96,15.892,0.024,3.972,3.984,3.976,3.96,0,-0.1,-2.6,-4.8,-3.8,-169.3,190.7,1024,1024,1024,957,1684,,,,,
289,29.8,0m 29.8s,-23.74319654,-46.5786008,P-GPS,34.1,10.4,33.5,10.2,0.2,0.1,1.1,0.5,0.0,0.0,0,0,9,1,96,15.892,0.024,3.972,3.984,3.976,3.96,0,-0.1,-2.7,-4.5,-4.2,-169.4,190.6,1024,1024,1024,970,1684,,,,,
290,29.9,0m 29.9s,-23.74319628,-46.57860097,P-GPS,35.1,10.7,34.1,10.4,0.2,0.1,1.1,0.5,0.0,0.0,0,0,9,1,96,15.892,0.024,3.972,3.984,3.976,3.96,0,-0.1,-2.7,-4.3,-4.3,-169.4,190.6,1024,1024,1024,974,1684,,,,,
291,30.2,0m 30.2s,-23.74319525,-46.57860137,P-GPS,38.4,11.7,35.8,10.9,0.2,0.1,0.8,0.3,0.0,0.0,0,0,9,1,96,15.694,0.025,3.928,3.936,3.919,3.911,0,0,-3.2,-5.8,-4.2,-169.3,190.7,1024,1024,1024,974,1684,,,,,
292,30.3,0m 30.3s,-23.74319504,-46.57860141,P-GPS,39.4,12.0,36.4,11.1,0.2,0.1,0.5,0.2,0.0,0.0,0,0,9,1,96,15.694,0.025,3.928,3.936,3.919,3.911,-0.1,0,-3.3,-5.8,-4.3,-169.1,190.9,1024,1024,1024,973,1684,,,,,
293,30.4,0m 30.4s,-23.74319481,-46.57860148,P-GPS,40.7,12.4,37.7,11.5,0.2,0.1,1.1,0.5,0.0,0.0,0,0,9,1,96,15.694,0.025,3.928,3.936,3.919,3.911,-0.1,0,-3.5,-5.1,-3.9,-169.1,190.9,1024,1024,1024,972,1684,,,,,
294,30.5,0m 30.5s,-23.74319469,-46.57860149,P-GPS,42.0,12.8,38.7,11.8,0.2,0.1,0.0,0.0,0.0,0.0,0,0,9,1,96,15.694,0.025,3.928,3.936,3.919,3.911,-0.1,0,-3.6,-4.6,-3.3,-169,191,1024,1024,1024,977,1684,,,,,
295,30.6,0m 30.6s,-23.7431944,-46.57860141,P-GPS,43.0,13.1,39.7,12.1,0.2,0.1,0.0,0.0,0.0,0.0,0,0,9,1,96,15.694,0.025,3.928,3.936,3.919,3.911,-0.1,0,-3.7,-4.2,-3,-169.1,190.9,1024,1024,1024,980,1682,,,,,
296,30.7,0m 30.7s,-23.74319422,-46.5786013,P-GPS,44.3,13.5,41.0,12.5,0.0,0.0,0.0,0.0,0.0,0.0,0,0,9,1,96,15.694,0.025,3.928,3.936,3.919,3.911,0,0,-3.6,-4.7,-3.6,-169.1,190.9,1024,1024,1024,980,1682,,,,,
297,30.9,0m 30.9s,-23.74319368,-46.57860096,P-GPS,46.9,14.3,,,0.3,0.1,0.0,0.0,0.0,0.0,0,0,9,4,96,15.694,0.025,3.928,3.936,3.919,3.911,-0.1,0.1,-3.9,-5,-1.7,-168.6,191.4,1024,1024,1024,991,1684,,,,,
298,31,0m 31s,-23.74319334,-46.57860077,P-GPS,48.2,14.7,,,0.3,0.1,1.0,0.4,0.0,0.0,0,0,9,4,96,15.694,0.025,3.928,3.936,3.919,3.911,-0.1,0.1,-4,-4.6,-1.5,-168.5,191.5,1024,1024,1024,1009,1684,,,,,
299,31.1,0m 31.1s,-23.74319311,-46.57860057,P-GPS,49.5,15.1,,,0.3,0.1,1.1,0.5,0.0,0.0,0,0,9,4,96,15.694,0.025,3.928,3.936,3.919,3.911,-0.1,0.1,-4.2,-4.2,-1.6,-168.4,191.6,1024,1024,1024,1012,1684,,,,,
300,31.2,0m 31.2s,-23.7431927,-46.57860032,P-GPS,51.2,15.6,,,0.5,0.2,1.1,0.5,0.6,0.2,-23.74319408,-46.57860127,9,4,96,15.571,0.029,3.894,3.907,3.892,3.878,-0.1,0.2,-4.4,-4.4,-1.8,-168.5,191.5,1024,1024,1024,1012,1684,,,Home Point recorded. Return-to-Home Altitude:80M,,
301,31.3,0m 31.3s,-23.74319239,-46.57860004,P-GPS,52.5,16.0,,,0.5,0.2,1.5,0.7,0.8,0.2,-23.74319408,-46.57860127,9,4,96,15.571,0.029,3.894,3.907,3.892,3.878,0,0.2,-4.4,-5.7,-1.4,-168.6,191.4,1024,1024,1024,1013,1684,,,,,
302,31.4,0m 31.4s,-23.74319194,-46.57859973,P-GPS,54.1,16.5,,,0.5,0.2,1.1,0.5,1.0,0.3,-23.74319408,-46.57860127,9,4,96,15.571,0.029,3.894,3.907,3.892,3.878,-0.1,0.2,-4.5,-6.1,0.2,-168.5,191.5,1024,1024,1024,1010,1684,,,,,
303,31.5,0m 31.5s,-23.74319164,-46.57859942,P-GPS,55.8,17.0,,,0.5,0.2,1.5,0.7,1.1,0.3,-23.74319408,-46.57860127,9,4,96,15.571,0.029,3.894,3.907,3.892,3.878,-0.1,0.2,-4.5,-6,1.1,-168.6,191.4,1024,1024,1024,1008,1684,,,,,
304,31.6,0m 31.6s,-23.74319117,-46.57859911,P-GPS,57.1,17.4,,,0.3,0.1,1.5,0.7,1.3,0.4,-23.74319408,-46.57860127,9,4,96,15.571,0.029,3.894,3.907,3.892,3.878,-0.1,0.1,-4.5,-5.5,0.9,-168.5,191.5,1024,1024,1024,1002,1684,,,,,
305,31.7,0m 31.7s,-23.74319085,-46.57859884,P-GPS,58.7,17.9,,,0.5,0.2,0.0,0.0,1.5,0.4,-23.74319408,-46.57860127,9,4,96,15.571,0.029,3.894,3.907,3.892,3.878,-0.2,0.1,-4.5,-4.7,0.1,-168.5,191.5,1024,1024,1024,1001,1684,,,,,
306,31.8,0m 31.8s,-23.74319037,-46.57859858,P-GPS,60.0,18.3,,,0.5,0.2,1.1,0.5,1.6,0.5,-23.74319408,-46.57860127,9,4,96,15.571,0.029,3.894,3.907,3.892,3.878,-0.2,0.1,-4.7,-5.1,-0.6,-168.4,191.6,1024,1024,1024,992,1684,,,,,
307,31.9,0m 31.9s,-23.74319003,-46.5785983,P-GPS,61.7,18.8,,,0.5,0.2,1.1,0.5,1.8,0.5,-23.74319408,-46.57860127,9,4,96,15.571,0.029,3.894,3.907,3.892,3.878,-0.2,0.1,-4.9,-5.4,0.4,-168.3,191.7,1024,1024,1024,989,1684,,,,,
308,32,0m 32s,-23.74318957,-46.57859807,P-GPS,63.3,19.3,,,0.7,0.3,1.1,0.5,2.0,0.6,-23.74319408,-46.57860127,9,4,96,15.571,0.029,3.894,3.907,3.892,3.878,-0.3,0,-5,-4.2,2,-168.2,191.8,1024,1024,1024,1015,1629,,,,,
309,32.1,0m 32.1s,-23.74318923,-46.57859787,P-GPS,65.0,19.8,,,0.4,0.2,1.5,0.7,2.1,0.6,-23.74319408,-46.57860127,9,4,96,15.571,0.029,3.894,3.907,3.892,3.878,-0.2,0,-4.9,-3.2,1.3,-168,192,1024,1024,1024,1024,1547,,,,,
310,32.2,0m 32.2s,-23.74318871,-46.57859774,P-GPS,66.6,20.3,,,0.4,0.2,1.5,0.7,2.3,0.7,-23.74319408,-46.57860127,9,4,95,15.436,0.028,3.857,3.874,3.859,3.846,-0.2,0,-4.6,-4.2,1,-168,192,1024,1024,1024,1024,1409,,,,,
311,32.3,0m 32.3s,-23.74318831,-46.57859762,P-GPS,68.2,20.8,,,0.4,0.2,1.5,0.7,2.4,0.7,-23.74319408,-46.57860127,9,4,95,15.436,0.028,3.857,3.874,3.859,3.846,-0.2,0,-4,-4.4,1.2,-167.9,192.1,1024,1024,1024,1024,1242,,,,,
312,32.4,0m 32.4s,-23.74318769,-46.57859755,P-GPS,69.2,21.1,,,0.3,0.1,1.1,0.5,2.7,0.8,-23.74319408,-46.57860127,9,4,95,15.436,0.028,3.857,3.874,3.859,3.846,-0.1,-0.1,-3.3,-3.6,-0.4,-168.2,191.8,1024,1024,1024,1024,1028,,,,,
313,32.5,0m 32.5s,-23.74318718,-46.57859749,P-GPS,70.2,21.4,,,0.3,0.1,1.5,0.7,2.8,0.9,-23.74319408,-46.57860127,9,4,95,15.436,0.028,3.857,3.874,3.859,3.846,-0.1,-0.1,-2.7,-3.1,-2.6,-168.1,191.9,1024,1024,1024,1024,1024,,,,,
314,32.6,0m 32.6s,-23.74318646,-46.57859742,P-GPS,71.2,21.7,,,0.3,0.1,1.5,0.7,3.1,0.9,-23.74319408,-46.57860127,9,4,95,15.436,0.028,3.857,3.874,3.859,3.846,0,-0.1,-2.1,-3.4,-3.5,-168,192,1024,1024,1024,1024,1024,,,,,
315,32.7,0m 32.7s,-23.74318587,-46.57859734,P-GPS,71.5,21.8,,,0.2,0.1,1.5,0.7,3.3,1.0,-23.74319408,-46.57860127,9,4,95,15.436,0.028,3.857,3.874,3.859,3.846,0,-0.1,-1.4,-4,-3.7,-168,192,1024,1024,1024,1024,1024,,,,,
316,32.8,0m 32.8s,-23.74318515,-46.57859722,P-GPS,71.9,21.9,,,0.2,0.1,1.5,0.7,3.5,1.1,-23.74319408,-46.57860127,9,4,95,15.436,0.028,3.857,3.874,3.859,3.846,0.1,0,-0.9,-4.8,-3.6,-167.8,192.2,1024,1024,1024,1024,1024,,,,,
317,32.9,0m 32.9s,-23.74318454,-46.57859711,P-GPS,72.2,22.0,,,0.2,0.1,1.5,0.7,3.8,1.1,-23.74319408,-46.57860127,9,4,95,15.436,0.028,3.857,3.874,3.859,3.846,0.1,0,-0.7,-5.9,-2.5,-167.9,192.1,1024,1024,1024,1024,1024,,,,,
318,33,0m 33s,-23.74318387,-46.57859696,P-GPS,72.5,22.1,,,0.4,0.2,1.5,0.7,4.0,1.2,-23.74319408,-46.57860127,9,4,95,15.436,0.028,3.857,3.874,3.859,3.846,0.2,0,-0.4,-7.1,-2,-167.8,192.2,1024,1024,1024,1024,1024,,,,,
319,33.1,0m 33.1s,-23.74318333,-46.57859686,P-GPS,72.8,22.2,,,0.5,0.2,1.5,0.7,4.2,1.3,-23.74319408,-46.57860127,9,4,95,15.436,0.028,3.857,3.874,3.859,3.846,0.2,0.1,-0.3,-8,-2,-167.9,192.1,1024,1024,1024,1024,1024,,,,,
320,33.2,0m 33.2s,-23.74318275,-46.57859674,P-GPS,73.2,22.3,,,0.5,0.2,1.5,0.7,4.4,1.3,-23.74319408,-46.57860127,9,4,95,15.436,0.028,3.857,3.874,3.859,3.846,0.3,0.1,-0.3,-8.9,-1.9,-167.8,192.2,1024,1024,1024,1024,1024,GPS Position NoMatch,,,GPS Position NoMatch,
321,33.3,0m 33.3s,-23.74318232,-46.57859668,P-GPS,73.2,22.3,,,0.8,0.4,1.1,0.5,4.6,1.4,-23.74319408,-46.57860127,9,4,95,15.436,0.028,3.857,3.874,3.859,3.846,0.3,0.2,-0.3,-10.3,-1.7,-168,192,1024,1024,1024,1024,1024,GPS Position NoMatch,,,GPS Position NoMatch,
322,33.4,0m 33.4s,-23.74318186,-46.57859664,P-GPS,73.5,22.4,,,0.8,0.4,1.1,0.5,4.7,1.4,-23.74319408,-46.57860127,9,4,95,15.436,0.028,3.857,3.874,3.859,3.846,0.2,0.2,-0.3,-11.6,-1.5,-168.2,191.8,1024,1024,1024,1024,1024,GPS Position NoMatch,,,GPS Position NoMatch,
323,33.5,0m 33.5s,-23.74318159,-46.57859663,P-GPS,73.5,22.4,,,0.8,0.4,0.0,0.0,4.8,1.5,-23.74319408,-46.57860127,9,4,95,15.436,0.028,3.857,3.874,3.859,3.846,0.2,0.3,-0.2,-12.6,-0.4,-168.3,191.7,1024,1024,1024,1024,1024,GPS Position NoMatch,,,GPS Position NoMatch,
