Id,Time(seconds),Time(text),Latitude,Longitude,FlightMode,Altitude(feet),Altitude(meters),VpsAltitude(feet),VpsAltitude(meters),HSpeed(mph),HSpeed(m/s),GpsSpeed(mph),GpsSpeed(m/s),HomeDistance(feet),HomeDistance(meters),HomeLatitude,HomeLongitude,GpsCount,GpsLevel,BatteryPower(%),BatteryVoltage,BatteryVoltageDeviation,BatteryCell1Voltage,BatteryCell2Voltage,BatteryCell3Voltage,BatteryCell4Voltage,VelocityX,VelocityY,VelocityZ,Pitch,Roll,Yaw,Yaw(360),RcAileron,RcElevator,RcGyro,RcRudder,RcThrottle,NonGpsError,GoHomeStatus,AppTip,AppWarning,AppMessage
1,0.5,0m 0.5s,0,0,Starting Motors,0.0,0.0,0.3,0.1,0.0,0.0,0.0,0.0,0.0,0.0,0,0,4,0,98,16.972,0,Infinity,Infinity,0,0,0,2.8,1.4,46.4,46.4,0,0,0,0,0,,,,Your aircraft is flying in an Altitude Zone (150 m). Please fly with caution.,
2,0.6,0m 0.6s,0,0,Starting Motors,0.0,0.0,0.3,0.1,0.0,0.0,0.0,0.0,0.0,0.0,0,0,4,0,98,16.972,0,Infinity,Infinity,0,0,0,2.8,1.4,46.3,46.3,0,0,0,0,0,,,,,
3,0.7,0m 0.7s,0,0,Starting Motors,0.0,0.0,0.3,0.1,0.0,0.0,0.0,0.0,0.0,0.0,0,0,4,0,98,16.972,0,Infinity,Infinity,0,0,0,2.8,1.4,46.4,46.4,0,0,0,0,0,,,,,
4,0.8,0m 0.8s,0,0,Starting Motors,0.0,0.0,0.3,0.1,0.0,0.0,0.0,0.0,0.0,0.0,0,0,4,0,98,16.972,0,Infinity,Infinity,0,0,0,2.8,1.4,46.4,46.4,0,0,0,0,0,,,,,
5,0.9,0m 0.9s,0,0,Starting Motors,0.0,0.0,0.3,0.1,0.0,0.0,0.0,0.0,0.0,0.0,0,0,4,0,98,16.972,0,Infinity,Infinity,0,0,0,2.7,1.4,46.3,46.3,0,0,0,0,0,,,,,
6,1,0m 1s,0,0,Starting Motors,0.0,0.0,0.3,0.1,0.0,0.0,0.0,0.0,0.0,0.0,0,0,4,0,98,16.972,0,Infinity,Infinity,0,0,0,2.7,1.4,46.4,46.4,0,0,0,0,0,,,,,
7,1.1,0m 1.1s,0,0,Starting Motors,0.0,0.0,0.3,0.1,0.0,0.0,0.0,0.0,0.0,0.0,0,0,4,0,98,16.972,0,Infinity,Infinity,0,0,0,2.6,1.5,46.4,46.4,0,0,0,0,0,,,,,
8,1.2,0m 1.2s,0,0,Starting Motors,0.0,0.0,0.3,0.1,0.0,0.0,0.0,0.0,0.0,0.0,0,0,4,0,98,16.972,0,Infinity,Infinity,0,0,0,2.8,1.5,46.3,46.3,0,0,0,0,0,,,,,
9,1.3,0m 1.3s,0,0,Starting Motors,0.0,0.0,0.3,0.1,0.0,0.0,0.0,0.0,0.0,0.0,0,0,4,0,98,16.972,0,Infinity,Infinity,0,0,0,2.8,1.5,46.4,46.4,0,0,0,0,0,,,,,
10,1.4,0m 1.4s,0,0,Starting Motors,0.0,0.0,0.3,0.1,0.0,0.0,0.0,0.0,0.0,0.0,0,0,4,0,98,16.972,0,Infinity,Infinity,0,0,0,2.7,1.5,46.4,46.4,0,0,0,0,0,,,,,
11,1.5,0m 1.5s,0,0,Starting Motors,0.0,0.0,0.3,0.1,0.0,0.0,0.0,0.0,0.0,0.0,0,0,4,0,98,17.046,0.01,4.267,4.262,4.257,4.26,0,0,0,2.7,1.5,46.4,46.4,0,0,0,0,0,,,,,
12,1.6,0m 1.6s,0,0,Auto Takeoff,0.0,0.0,0.3,0.1,0.0,0.0,0.0,0.0,0.0,0.0,0,0,4,0,98,17.046,0.01,4.267,4.262,4.257,4.26,0,0,0,2.8,1.4,46.4,46.4,0,0,0,0,0,,,,,
13,1.7,0m 1.7s,0,0,Auto Takeoff,0.0,0.0,0.3,0.1,0.0,0.0,0.0,0.0,0.0,0.0,0,0,4,0,98,17.046,0.01,4.267,4.262,4.257,4.26,0,0,0,2.7,1.4,46.4,46.4,0,0,0,0,0,,,,,
14,1.8,0m 1.8s,0,0,Auto Takeoff,0.0,0.0,0.3,0.1,0.0,0.0,0.0,0.0,0.0,0.0,0,0,4,0,98,17.046,0.01,4.267,4.262,4.257,4.26,0,0,0,2.7,1.4,46.4,46.4,0,0,0,0,0,,,,,
15,1.9,0m 1.9s,0,0,Auto Takeoff,0.0,0.0,0.3,0.1,0.0,0.0,0.0,0.0,0.0,0.0,0,0,4,0,98,17.046,0.01,4.267,4.262,4.257,4.26,0,0,0,2.6,1.4,46.3,46.3,0,0,0,0,0,,,,,
16,2,0m 2s,0,0,Auto Takeoff,0.0,0.0,0.3,0.1,0.0,0.0,0.0,0.0,0.0,0.0,0,0,4,0,98,17.046,0.01,4.267,4.262,4.257,4.26,0,0,0,2.5,1.5,46.3,46.3,0,0,0,0,0,,,,,
17,2.1,0m 2.1s,0,0,Auto Takeoff,0.0,0.0,0.3,0.1,0.0,0.0,0.0,0.0,0.0,0.0,0,0,4,0,98,17.046,0.01,4.267,4.262,4.257,4.26,0,0,0,2,1.5,46.4,46.4,0,0,0,0,0,,,,,
18,2.2,0m 2.2s,0,0,Auto Takeoff,0.0,0.0,0.3,0.1,0.0,0.0,0.0,0.0,0.0,0.0,0,0,4,0,98,17.046,0.01,4.267,4.262,4.257,4.26,0,0,0,0.9,1.6,46.2,46.2,0,0,0,0,0,,,,,
19,2.3,0m 2.3s,0,0,Auto Takeoff,0.0,0.0,0.3,0.1,0.0,0.0,0.0,0.0,0.0,0.0,0,0,4,0,98,17.046,0.01,4.267,4.262,4.257,4.26,0,0,0,-0.8,2,46,46,0,0,0,0,0,,,,,
20,2.4,0m 2.4s,0,0,Auto Takeoff,0.0,0.0,0.3,0.1,0.2,0.1,0.0,0.0,0.0,0.0,0,0,4,0,98,17.046,0.01,4.267,4.262,4.257,4.26,0,0.1,-0.1,-2.9,2.4,46.1,46.1,0,0,0,0,0,,,,,
21,2.5,0m 2.5s,0,0,Auto Takeoff,0.0,0.0,0.3,0.1,0.4,0.2,0.0,0.0,0.0,0.0,0,0,4,0,98,16.903,0.029,4.224,4.22,4.215,4.244,0,0.2,-0.2,-3.5,2,46.2,46.2,0,0,0,0,0,,,,,
22,2.7,0m 2.7s,0,0,Auto Takeoff,0.3,0.1,0.7,0.2,0.9,0.4,0.0,0.0,0.0,0.0,0,0,4,0,98,16.903,0.029,4.224,4.22,4.215,4.244,0.1,0.4,-0.5,0.7,-1.3,46.3,46.3,0,0,0,0,0,,,,,
23,2.8,0m 2.8s,0,0,Auto Takeoff,0.3,0.1,1.0,0.3,0.7,0.3,0.0,0.0,0.0,0.0,0,0,4,0,98,16.903,0.029,4.224,4.22,4.215,4.244,0.1,0.3,-0.5,2.3,-1.2,46.2,46.2,0,0,0,0,0,,,,,
24,2.9,0m 2.9s,0,0,Auto Takeoff,0.7,0.2,1.0,0.3,0.7,0.3,0.0,0.0,0.0,0.0,0,0,4,0,98,16.903,0.029,4.224,4.22,4.215,4.244,0.1,0.3,-0.5,3.6,-0.7,46.3,46.3,0,0,0,0,0,,,,,
25,3,0m 3s,0,0,Auto Takeoff,0.7,0.2,1.3,0.4,0.7,0.3,0.0,0.0,0.0,0.0,0,0,4,0,98,16.903,0.029,4.224,4.22,4.215,4.244,0.1,0.3,-0.5,4.6,-1.2,46.3,46.3,0,0,0,0,0,,,,,
26,3.1,0m 3.1s,0,0,Auto Takeoff,1.0,0.3,1.3,0.4,0.7,0.3,0.0,0.0,0.0,0.0,0,0,4,0,98,16.903,0.029,4.224,4.22,4.215,4.244,0,0.3,-0.5,5.4,-2,46.2,46.2,0,0,0,0,0,,,,,
27,3.2,0m 3.2s,0,0,Auto Takeoff,1.0,0.3,1.6,0.5,0.4,0.2,0.0,0.0,0.0,0.0,0,0,4,0,98,16.903,0.029,4.224,4.22,4.215,4.244,0,0.2,-0.4,5.2,-2.5,46.2,46.2,0,0,0,0,0,,,,,
28,3.3,0m 3.3s,0,0,Auto Takeoff,1.3,0.4,1.6,0.5,0.4,0.2,0.0,0.0,0.0,0.0,0,0,4,0,98,16.903,0.029,4.224,4.22,4.215,4.244,0,0.2,-0.4,4.2,-1.9,46.3,46.3,0,0,0,0,0,,,,,
29,3.4,0m 3.4s,0,0,Auto Takeoff,1.3,0.4,2.0,0.6,0.4,0.2,0.0,0.0,0.0,0.0,0,0,4,0,98,16.903,0.029,4.224,4.22,4.215,4.244,0,0.2,-0.4,3.6,-1.4,46.3,46.3,0,0,0,0,0,,,,,
30,3.5,0m 3.5s,0,0,Auto Takeoff,1.6,0.5,2.0,0.6,0.5,0.2,0.0,0.0,0.0,0.0,0,0,4,0,98,16.903,0.029,4.224,4.22,4.215,4.244,0.1,0.2,-0.5,3.4,-1.4,46.3,46.3,1024,1024,1024,1024,1038,,,,,
31,3.6,0m 3.6s,0,0,Auto Takeoff,1.6,0.5,2.3,0.7,0.5,0.2,0.0,0.0,0.0,0.0,0,0,4,0,98,16.903,0.029,4.224,4.22,4.215,4.244,0.1,0.2,-0.5,4.7,-1.2,46.3,46.3,1024,1024,1024,1024,1126,,,,,
32,3.7,0m 3.7s,0,0,Auto Takeoff,2.0,0.6,2.3,0.7,0.5,0.2,0.0,0.0,0.0,0.0,0,0,4,0,98,16.903,0.029,4.224,4.22,4.215,4.244,0.1,0.2,-0.4,4.5,-1.1,46.2,46.2,1024,1024,1024,1024,1180,,,,,
33,3.8,0m 3.8s,0,0,Auto Takeoff,2.0,0.6,2.3,0.7,0.5,0.2,0.0,0.0,0.0,0.0,0,0,4,0,98,16.903,0.029,4.224,4.22,4.215,4.244,0.1,0.2,-0.4,3.6,-0.7,46.3,46.3,1024,1024,1024,1024,1209,,,,,
34,3.9,0m 3.9s,0,0,Auto Takeoff,2.3,0.7,2.6,0.8,0.5,0.2,0.0,0.0,0.0,0.0,0,0,4,0,98,16.903,0.029,4.224,4.22,4.215,4.244,0.1,0.2,-0.4,3.8,-0.5,46.5,46.5,1024,1024,1024,1024,1266,,,,,
35,4.1,0m 4.1s,0,0,Auto Takeoff,2.6,0.8,3.0,0.9,0.3,0.1,0.0,0.0,0.0,0.0,0,0,4,0,98,16.903,0.029,4.224,4.22,4.215,4.244,0.1,0.1,-0.5,4.5,-1.7,46.4,46.4,1024,1024,1024,1006,1331,,,,,
36,4.2,0m 4.2s,0,0,Auto Takeoff,2.6,0.8,3.0,0.9,0.3,0.1,0.0,0.0,0.0,0.0,0,0,3,0,98,16.903,0.029,4.224,4.22,4.215,4.244,0.1,0.1,-0.5,4.8,-2.1,46.4,46.4,1024,1024,1024,984,1376,,,,,
37,4.3,0m 4.3s,0,0,Auto Takeoff,3.0,0.9,3.3,1.0,0.2,0.1,0.0,0.0,0.0,0.0,0,0,3,0,98,16.903,0.029,4.224,4.22,4.215,4.244,0.1,0,-0.6,4.7,-0.1,46.5,46.5,1024,1024,1024,973,1417,,,,,
38,4.4,0m 4.4s,0,0,Auto Takeoff,3.0,0.9,3.6,1.1,0.0,0.0,0.0,0.0,0.0,0.0,0,0,4,0,98,16.903,0.029,4.224,4.22,4.215,4.244,0,0,-0.7,3.9,1.8,46.8,46.8,1024,1024,1024,972,1441,,,,,
39,4.5,0m 4.5s,0,0,P-GPS,3.3,1.0,3.6,1.1,0.2,0.1,0.0,0.0,0.0,0.0,0,0,4,0,98,16.469,0.009,4.116,4.116,4.114,4.123,0,0.1,-0.8,3.5,0.3,46.8,46.8,1024,1024,1024,973,1447,,,,,
40,4.6,0m 4.6s,0,0,P-GPS,3.6,1.1,3.9,1.2,0.2,0.1,0.0,0.0,0.0,0.0,0,0,3,0,98,16.469,0.009,4.116,4.116,4.114,4.123,0,0.1,-0.9,5.2,-1,46.7,46.7,1024,1024,1024,972,1449,,,,,
41,4.7,0m 4.7s,0,0,P-GPS,3.9,1.2,4.3,1.3,0.2,0.1,0.0,0.0,0.0,0.0,0,0,3,0,98,16.469,0.009,4.116,4.116,4.114,4.123,0.1,0,-0.9,5.5,-0.3,46.8,46.8,1024,1024,1024,955,1472,,,,,
42,4.8,0m 4.8s,0,0,P-GPS,4.3,1.3,4.6,1.4,0.0,0.0,0.0,0.0,0.0,0.0,0,0,3,0,98,16.469,0.009,4.116,4.116,4.114,4.123,0,0,-0.9,4.5,0.3,46.9,46.9,1024,1024,1024,939,1497,,,,,
43,4.9,0m 4.9s,0,0,P-GPS,4.6,1.4,4.9,1.5,0.2,0.1,0.0,0.0,0.0,0.0,0,0,3,0,98,16.469,0.009,4.116,4.116,4.114,4.123,0,0.1,-1,5,-1,46.9,46.9,1024,1024,1024,925,1584,,,,,
44,5,0m 5s,0,0,P-GPS,4.9,1.5,5.2,1.6,0.2,0.1,0.0,0.0,0.0,0.0,0,0,3,0,98,16.469,0.009,4.116,4.116,4.114,4.123,0,0.1,-1.1,4.8,-1.2,47.1,47.1,1024,1024,1024,938,1641,,,,,
45,5.1,0m 5.1s,0,0,P-GPS,5.2,1.6,5.6,1.7,0.2,0.1,0.0,0.0,0.0,0.0,0,0,3,0,98,16.469,0.009,4.116,4.116,4.114,4.123,0,0.1,-1.4,4,-2.4,47.2,47.2,1024,1024,1024,926,1665,,,,,
46,5.2,0m 5.2s,0,0,P-GPS,5.9,1.8,6.2,1.9,0.2,0.1,0.0,0.0,0.0,0.0,0,0,3,0,98,16.469,0.009,4.116,4.116,4.114,4.123,0,0,-1.9,3.4,-3,47.3,47.3,1024,1024,1024,925,1653,,,,,
47,5.3,0m 5.3s,0,0,P-GPS,6.6,2.0,6.9,2.1,0.2,0.1,0.0,0.0,0.0,0.0,0,0,3,0,98,16.469,0.009,4.116,4.116,4.114,4.123,0.1,0,-2.4,5.3,-2.1,47.3,47.3,1024,1024,1024,930,1640,,,,,
48,5.4,0m 5.4s,0,0,P-GPS,7.5,2.3,7.5,2.3,0.2,0.1,0.0,0.0,0.0,0.0,0,0,4,0,98,16.469,0.009,4.116,4.116,4.114,4.123,0,-0.1,-2.8,6.3,-1.1,47.1,47.1,1024,1024,1024,934,1642,,,,,
49,5.5,0m 5.5s,0,0,P-GPS,8.5,2.6,8.5,2.6,0.2,0.1,0.0,0.0,0.0,0.0,0,0,4,0,98,16.374,0.014,4.087,4.093,4.093,4.101,0,-0.1,-3,4.5,1.8,47.1,47.1,1024,1024,1024,942,1650,,,,,
50,5.6,0m 5.6s,0,0,P-GPS,9.5,2.9,9.5,2.9,0.2,0.1,0.0,0.0,0.0,0.0,0,0,4,0,98,16.374,0.014,4.087,4.093,4.093,4.101,0,-0.1,-3.2,2.6,3.2,46.9,46.9,1024,1024,1024,945,1655,,,,,
51,5.8,0m 5.8s,0,0,P-GPS,11.8,3.6,11.8,3.6,0.0,0.0,0.0,0.0,0.0,0.0,0,0,4,0,98,16.374,0.014,4.087,4.093,4.093,4.101,0,0,-3.3,2.5,0.4,46.7,46.7,1024,1024,1024,959,1648,,,,,
52,5.9,0m 5.9s,0,0,P-GPS,12.8,3.9,12.8,3.9,0.2,0.1,0.0,0.0,0.0,0.0,0,0,4,0,98,16.374,0.014,4.087,4.093,4.093,4.101,0,-0.1,-3.2,2.6,0.3,46.6,46.6,1024,1024,1024,974,1655,,,,,
53,6,0m 6s,0,0,P-GPS,13.8,4.2,13.8,4.2,0.2,0.1,0.0,0.0,0.0,0.0,0,0,4,0,98,16.374,0.014,4.087,4.093,4.093,4.101,0,-0.1,-3,3.3,1.1,46.5,46.5,1024,1024,1024,973,1655,,,,,
54,6.1,0m 6.1s,0,0,P-GPS,14.8,4.5,14.8,4.5,0.2,0.1,0.0,0.0,0.0,0.0,0,0,4,0,98,16.374,0.014,4.087,4.093,4.093,4.101,0,-0.1,-2.7,2.5,1.6,46.4,46.4,1024,1024,1024,965,1668,,,,,
55,6.2,0m 6.2s,0,0,P-GPS,15.7,4.8,15.4,4.7,0.2,0.1,0.0,0.0,0.0,0.0,0,0,4,0,98,16.374,0.014,4.087,4.093,4.093,4.101,0,-0.1,-2.5,0.9,1.4,46.3,46.3,1024,1024,1024,987,1684,,,,,
56,6.3,0m 6.3s,0,0,P-GPS,16.4,5.0,16.4,5.0,0.2,0.1,0.0,0.0,0.0,0.0,0,0,4,0,98,16.374,0.014,4.087,4.093,4.093,4.101,0,-0.1,-2.3,0.6,1,46.2,46.2,1024,1024,1024,1002,1684,,,,,
57,6.4,0m 6.4s,0,0,P-GPS,17.1,5.2,17.1,5.2,0.0,0.0,0.0,0.0,0.0,0.0,0,0,6,0,98,16.374,0.014,4.087,4.093,4.093,4.101,0,0,-2,0.7,1,46.2,46.2,1024,1024,1024,973,1684,,,,,
58,6.5,0m 6.5s,0,0,P-GPS,17.7,5.4,17.7,5.4,0.0,0.0,0.0,0.0,0.0,0.0,0,0,6,0,98,16.126,0.05,4.019,4.013,4.031,4.063,0,0,-1.8,1.2,1.4,46.1,46.1,1024,1024,1024,979,1684,,,,,
59,6.6,0m 6.6s,0,0,P-GPS,18.4,5.6,18.4,5.6,0.0,0.0,0.0,0.0,0.0,0.0,0,0,6,0,98,16.126,0.05,4.019,4.013,4.031,4.063,0,0,-1.7,1.9,1.7,45.9,45.9,1024,1024,1024,991,1684,,,,,
60,6.7,0m 6.7s,0,0,P-GPS,19.0,5.8,18.7,5.7,0.0,0.0,0.0,0.0,0.0,0.0,0,0,6,0,98,16.126,0.05,4.019,4.013,4.031,4.063,0,0,-1.5,1.8,2,45.8,45.8,1024,1024,1024,997,1684,,,,,
61,6.8,0m 6.8s,0,0,P-GPS,19.4,5.9,19.4,5.9,0.0,0.0,0.0,0.0,0.0,0.0,0,0,6,0,98,16.126,0.05,4.019,4.013,4.031,4.063,0,0,-1.4,1.7,1.7,45.7,45.7,1024,1024,1024,991,1684,,,,,
62,6.9,0m 6.9s,0,0,P-GPS,20.0,6.1,19.7,6.0,0.0,0.0,0.0,0.0,0.0,0.0,0,0,6,0,98,16.126,0.05,4.019,4.013,4.031,4.063,0,0,-1.4,1.8,1.3,45.7,45.7,1024,1024,1024,990,1684,,,,,
63,7,0m 7s,0,0,P-GPS,20.3,6.2,20.3,6.2,0.0,0.0,0.0,0.0,0.0,0.0,0,0,6,0,98,16.126,0.05,4.019,4.013,4.031,4.063,0,0,-1.3,1.6,0.9,45.7,45.7,1024,1024,1024,981,1684,,,,,
64,7.1,0m 7.1s,0,0,P-GPS,20.7,6.3,20.7,6.3,0.0,0.0,0.0,0.0,0.0,0.0,0,0,6,0,98,16.126,0.05,4.019,4.013,4.031,4.063,0,0,-1.2,1.7,0.8,45.7,45.7,1024,1024,1024,976,1684,,,,,
65,7.2,0m 7.2s,0,0,P-GPS,21.0,6.4,21.0,6.4,0.0,0.0,0.0,0.0,0.0,0.0,0,0,6,0,98,16.126,0.05,4.019,4.013,4.031,4.063,0,0,-1.1,1.8,0.4,45.7,45.7,1024,1024,1024,979,1684,,,,,
66,7.3,0m 7.3s,0,0,P-GPS,21.7,6.6,21.7,6.6,0.0,0.0,0.0,0.0,0.0,0.0,0,0,6,0,98,16.126,0.05,4.019,4.013,4.031,4.063,0,0,-1,1.5,0.6,45.4,45.4,1024,1024,1024,997,1684,,,,,
67,7.4,0m 7.4s,0,0,P-GPS,22.0,6.7,22.0,6.7,0.0,0.0,0.0,0.0,0.0,0.0,0,0,6,0,98,16.126,0.05,4.019,4.013,4.031,4.063,0,0,-1,1.1,1.6,45,45,1024,1024,1024,964,1684,,,,,
68,7.5,0m 7.5s,0,0,P-GPS,22.3,6.8,22.3,6.8,0.0,0.0,0.0,0.0,0.0,0.0,0,0,6,0,98,16.126,0.05,4.019,4.013,4.031,4.063,0,0,-0.9,0.9,2.1,44.9,44.9,1024,1024,1024,969,1684,,,,,
69,7.6,0m 7.6s,0,0,P-GPS,22.6,6.9,22.6,6.9,0.0,0.0,0.0,0.0,0.0,0.0,0,0,6,0,98,16.126,0.05,4.019,4.013,4.031,4.063,0,0,-0.8,1,1.5,44.9,44.9,1024,1024,1024,986,1684,,,,,
70,7.7,0m 7.7s,0,0,P-GPS,22.6,6.9,23.0,7.0,0.0,0.0,0.0,0.0,0.0,0.0,0,0,6,0,98,16.126,0.05,4.019,4.013,4.031,4.063,0,0,-0.8,1.2,0.9,44.8,44.8,1024,1024,1024,968,1684,,,,,
71,7.8,0m 7.8s,0,0,P-GPS,23.0,7.0,23.0,7.0,0.0,0.0,0.0,0.0,0.0,0.0,0,0,6,0,98,16.126,0.05,4.019,4.013,4.031,4.063,0,0,-0.7,1.3,1,44.7,44.7,1024,1024,1024,981,1684,,,,,
72,7.9,0m 7.9s,0,0,P-GPS,23.3,7.1,23.3,7.1,0.2,0.1,0.0,0.0,0.0,0.0,0,0,6,0,98,16.126,0.05,4.019,4.013,4.031,4.063,0,-0.1,-0.7,1.5,1.7,44.6,44.6,1024,1024,1024,1024,1684,,,,,
73,8,0m 8s,0,0,P-GPS,23.6,7.2,23.6,7.2,0.2,0.1,0.0,0.0,0.0,0.0,0,0,6,0,98,16.126,0.05,4.019,4.013,4.031,4.063,0,-0.1,-0.7,1.3,3.1,44.6,44.6,1024,1024,1024,1015,1684,,,,,
74,8.1,0m 8.1s,0,0,P-GPS,23.6,7.2,24.0,7.3,0.0,0.0,0.0,0.0,0.0,0.0,0,0,6,0,98,16.126,0.05,4.019,4.013,4.031,4.063,0,0,-0.6,1.3,2.8,44.5,44.5,1024,1024,1024,1001,1684,,,,,
75,8.2,0m 8.2s,0,0,P-GPS,24.0,7.3,24.3,7.4,0.0,0.0,0.0,0.0,0.0,0.0,0,0,6,0,98,16.126,0.05,4.019,4.013,4.031,4.063,0,0,-0.5,1.2,1.7,44.5,44.5,1024,1024,1024,1001,1684,,,,,
76,8.3,0m 8.3s,0,0,P-GPS,24.0,7.3,24.3,7.4,0.0,0.0,0.0,0.0,0.0,0.0,0,0,6,0,98,16.126,0.05,4.019,4.013,4.031,4.063,0,0,-0.5,1.2,2.1,44.5,44.5,1024,1024,1024,1006,1665,,,,,
77,8.4,0m 8.4s,0,0,P-GPS,24.3,7.4,24.6,7.5,0.2,0.1,0.0,0.0,0.0,0.0,0,0,6,0,98,16.126,0.05,4.019,4.013,4.031,4.063,0,-0.1,-0.5,1.4,2.9,44.7,44.7,1024,1024,1024,1024,1684,,,,,
78,8.5,0m 8.5s,0,0,P-GPS,24.6,7.5,24.6,7.5,0.2,0.1,0.0,0.0,0.0,0.0,0,0,6,0,98,16.375,0.012,4.091,4.092,4.09,4.102,0,-0.1,-0.4,1.3,3.5,44.6,44.6,1024,1024,1024,1024,1684,,,,,
79,8.6,0m 8.6s,0,0,P-GPS,24.6,7.5,24.9,7.6,0.2,0.1,0.0,0.0,0.0,0.0,0,0,6,0,98,16.375,0.012,4.091,4.092,4.09,4.102,0,-0.1,-0.4,0.9,4.7,44.6,44.6,1024,1024,1024,1024,1421,,,,,
80,8.7,0m 8.7s,0,0,P-GPS,24.6,7.5,24.9,7.6,0.0,0.0,0.0,0.0,0.0,0.0,0,0,6,0,98,16.375,0.012,4.091,4.092,4.09,4.102,0,0,-0.4,1.4,4.4,44.6,44.6,1024,1024,1024,1024,1421,,,,,
81,8.8,0m 8.8s,0,0,P-GPS,24.9,7.6,25.3,7.7,0.0,0.0,0.0,0.0,0.0,0.0,0,0,6,0,98,16.375,0.012,4.091,4.092,4.09,4.102,0,0,-0.3,1.2,3.3,44.6,44.6,1024,1024,1024,1024,1148,,,,,Maximum Flight Altitude Reached
82,8.9,0m 8.9s,0,0,P-GPS,24.9,7.6,25.3,7.7,0.0,0.0,0.0,0.0,0.0,0.0,0,0,6,0,98,16.375,0.012,4.091,4.092,4.09,4.102,0,0,-0.3,0.7,2.7,44.5,44.5,1024,1024,1024,982,1664,,,,,
83,9,0m 9s,0,0,P-GPS,24.9,7.6,25.6,7.8,0.0,0.0,0.0,0.0,0.0,0.0,0,0,6,0,98,16.375,0.012,4.091,4.092,4.09,4.102,0,0,-0.1,1,3.1,44.6,44.6,1024,1024,1024,1024,1684,,,,,
84,9.1,0m 9.1s,0,0,P-GPS,24.9,7.6,25.6,7.8,0.0,0.0,0.0,0.0,0.0,0.0,0,0,6,0,98,16.375,0.012,4.091,4.092,4.09,4.102,0,0,-0.1,0.8,3.2,44.6,44.6,1024,1024,1024,1024,1684,,,,,
85,9.2,0m 9.2s,0,0,P-GPS,25.3,7.7,25.6,7.8,0.0,0.0,0.0,0.0,0.0,0.0,0,0,6,0,98,16.375,0.012,4.091,4.092,4.09,4.102,0,0,-0.2,0.6,2.6,44.6,44.6,1024,1024,1024,1024,1684,,,,,
86,9.3,0m 9.3s,0,0,P-GPS,25.3,7.7,25.6,7.8,0.0,0.0,0.0,0.0,0.0,0.0,0,0,6,0,98,16.375,0.012,4.091,4.092,4.09,4.102,0,0,-0.2,0,3.7,44.6,44.6,1024,1024,1024,996,1684,,,,,
87,9.4,0m 9.4s,0,0,P-GPS,25.3,7.7,25.9,7.9,0.0,0.0,0.0,0.0,0.0,0.0,0,0,6,0,98,16.375,0.012,4.091,4.092,4.09,4.102,0,0,-0.1,0.2,4.8,44.6,44.6,1024,1024,1024,997,1684,,,,,
88,9.5,0m 9.5s,0,0,P-GPS,25.3,7.7,25.9,7.9,0.0,0.0,0.0,0.0,0.0,0.0,0,0,6,0,98,16.343,0.009,4.085,4.085,4.082,4.091,0,0,-0.1,-0.1,4,44.7,44.7,1024,1024,1024,997,1684,,,,,
89,9.6,0m 9.6s,0,0,P-GPS,25.3,7.7,25.9,7.9,0.0,0.0,0.0,0.0,0.0,0.0,0,0,6,0,98,16.343,0.009,4.085,4.085,4.082,4.091,0,0,-0.1,-0.6,3,44.5,44.5,1024,1024,1024,1013,1684,,,,,
90,9.7,0m 9.7s,0,0,P-GPS,25.3,7.7,25.9,7.9,0.0,0.0,0.0,0.0,0.0,0.0,0,0,6,0,98,16.343,0.009,4.085,4.085,4.082,4.091,0,0,-0.1,0.3,3,44.5,44.5,1024,1024,1024,974,1684,,,,,
91,9.8,0m 9.8s,0,0,P-GPS,25.6,7.8,25.9,7.9,0.0,0.0,0.0,0.0,0.0,0.0,0,0,6,0,98,16.343,0.009,4.085,4.085,4.082,4.091,0,0,-0.1,0.8,3.8,44.3,44.3,1024,1024,1024,990,1586,,,,,
92,9.9,0m 9.9s,0,0,P-GPS,25.6,7.8,25.9,7.9,0.0,0.0,0.0,0.0,0.0,0.0,0,0,6,0,98,16.343,0.009,4.085,4.085,4.082,4.091,0,0,-0.1,0.2,3.2,44.1,44.1,1024,1024,1024,1024,1099,,,,,
93,10,0m 10s,0,0,P-GPS,25.6,7.8,25.9,7.9,0.0,0.0,0.0,0.0,0.0,0.0,0,0,6,0,98,16.343,0.009,4.085,4.085,4.082,4.091,0,0,-0.1,0.3,2.6,44,44,1024,1024,1024,1024,1024,,,,,
94,10.1,0m 10.1s,0,0,P-GPS,25.6,7.8,25.9,7.9,0.0,0.0,0.0,0.0,0.0,0.0,0,0,6,0,98,16.343,0.009,4.085,4.085,4.082,4.091,0,0,0,0,2.9,44,44,1024,1024,1024,1024,1024,,,,,
95,10.2,0m 10.2s,0,0,P-GPS,25.6,7.8,25.9,7.9,0.0,0.0,0.0,0.0,0.0,0.0,0,0,6,0,98,16.343,0.009,4.085,4.085,4.082,4.091,0,0,0,0.1,3.1,44.1,44.1,1024,1024,1024,1024,1024,,,,,
96,10.3,0m 10.3s,0,0,P-GPS,25.6,7.8,26.2,8.0,0.0,0.0,0.0,0.0,0.0,0.0,0,0,6,0,98,16.343,0.009,4.085,4.085,4.082,4.091,0,0,0,0.9,3.1,44,44,1024,1024,1024,1024,1024,,,,,
97,10.4,0m 10.4s,0,0,P-GPS,25.6,7.8,25.9,7.9,0.0,0.0,0.0,0.0,0.0,0.0,0,0,6,0,98,16.343,0.009,4.085,4.085,4.082,4.091,0,0,0,0.7,2.7,44.1,44.1,1024,1024,1024,1024,389,,,,,
98,10.5,0m 10.5s,0,0,P-GPS,25.6,7.8,25.9,7.9,0.0,0.0,0.0,0.0,0.0,0.0,0,0,6,0,98,16.328,0.004,4.082,4.084,4.08,4.082,0,0,0,0.1,1.6,44,44,1024,1024,1024,979,364,,,,,
99,10.6,0m 10.6s,0,0,P-GPS,25.6,7.8,25.9,7.9,0.0,0.0,0.0,0.0,0.0,0.0,0,0,6,0,98,16.328,0.004,4.082,4.084,4.08,4.082,0,0,0.2,0.6,2.3,44,44,1024,1024,1024,979,364,,,,,
100,10.7,0m 10.7s,0,0,P-GPS,25.3,7.7,25.9,7.9,0.0,0.0,0.0,0.0,0.0,0.0,0,0,6,0,98,16.328,0.004,4.082,4.084,4.08,4.082,0,0,0.9,0.7,2.6,44,44,1024,1024,1024,1001,364,,,,,
101,10.8,0m 10.8s,0,0,P-GPS,24.9,7.6,25.6,7.8,0.0,0.0,0.0,0.0,0.0,0.0,0,0,6,0,98,16.328,0.004,4.082,4.084,4.08,4.082,0,0,1.6,0.3,1.6,44.1,44.1,1024,1024,1024,1003,364,,,,,
102,10.9,0m 10.9s,0,0,P-GPS,24.0,7.3,24.9,7.6,0.0,0.0,0.0,0.0,0.0,0.0,0,0,6,0,98,16.328,0.004,4.082,4.084,4.08,4.082,0,0,2,0.3,0.5,44.1,44.1,1024,1024,1024,1024,364,,,,,
103,11,0m 11s,0,0,P-GPS,23.3,7.1,24.3,7.4,0.2,0.1,0.0,0.0,0.0,0.0,0,0,6,0,98,16.328,0.004,4.082,4.084,4.08,4.082,0,0.1,2.3,1.5,-0.7,44.2,44.2,1024,1024,1024,1024,364,,,,,
104,11.1,0m 11.1s,0,0,P-GPS,22.3,6.8,23.6,7.2,0.0,0.0,0.0,0.0,0.0,0.0,0,0,6,0,98,16.328,0.004,4.082,4.084,4.08,4.082,0,0,2.4,1.5,-2.5,44.2,44.2,1024,1024,1024,1024,364,,,,,
105,11.2,0m 11.2s,0,0,P-GPS,21.3,6.5,22.6,6.9,0.0,0.0,0.0,0.0,0.0,0.0,0,0,6,0,98,16.328,0.004,4.082,4.084,4.08,4.082,0,0,2.5,-1.4,-2.2,44.7,44.7,1024,1024,1024,1024,427,,,,,
106,11.3,0m 11.3s,0,0,P-GPS,20.3,6.2,22.0,6.7,0.0,0.0,0.0,0.0,0.0,0.0,0,0,6,0,98,16.328,0.004,4.082,4.084,4.08,4.082,0,0,2.4,-3.3,1.5,44.8,44.8,1024,1024,1024,1024,450,,,,,
107,11.4,0m 11.4s,0,0,P-GPS,19.7,6.0,21.3,6.5,0.3,0.1,0.0,0.0,0.0,0.0,0,0,6,0,98,16.328,0.004,4.082,4.084,4.08,4.082,0.1,0.1,2.2,0.1,-0.9,44.5,44.5,1024,1024,1024,1024,504,,,,,
108,11.5,0m 11.5s,0,0,P-GPS,19.0,5.8,20.7,6.3,0.2,0.1,0.0,0.0,0.0,0.0,0,0,6,0,98,16.328,0.004,4.082,4.084,4.08,4.082,0.1,0,1.8,5,-3.7,43.8,43.8,1024,1024,1024,1024,475,,,,,
109,11.6,0m 11.6s,0,0,P-GPS,18.4,5.6,20.0,6.1,0.6,0.3,0.0,0.0,0.0,0.0,0,0,6,0,98,16.328,0.004,4.082,4.084,4.08,4.082,0.2,-0.2,1.4,-1,6.8,44.1,44.1,1024,1024,1024,1024,475,,,,,
110,11.7,0m 11.7s,0,0,P-GPS,18.0,5.5,19.4,5.9,0.2,0.1,0.0,0.0,0.0,0.0,0,0,6,0,98,16.328,0.004,4.082,4.084,4.08,4.082,0.1,0,1.2,0.5,9.8,44.1,44.1,1024,1024,1024,1024,478,,,,,
111,11.8,0m 11.8s,0,0,P-GPS,18.0,5.5,18.7,5.7,0.2,0.1,0.0,0.0,0.0,0.0,0,0,6,0,98,16.328,0.004,4.082,4.084,4.08,4.082,0,0.1,1,3.7,6.1,44.5,44.5,1024,1024,1024,1024,467,,,,,
112,11.9,0m 11.9s,0,0,P-GPS,17.7,5.4,18.4,5.6,0.0,0.0,0.0,0.0,0.0,0.0,0,0,6,0,98,16.328,0.004,4.082,4.084,4.08,4.082,0,0,1,3.2,5.3,44.3,44.3,1024,1024,1024,1024,480,,,,,
113,12,0m 12s,0,0,P-GPS,17.4,5.3,17.7,5.4,0.0,0.0,0.0,0.0,0.0,0.0,0,0,6,0,98,16.328,0.004,4.082,4.084,4.08,4.082,0,0,1,2.4,4.4,44.2,44.2,1024,1024,1024,1024,504,,,,,
114,12.1,0m 12.1s,0,0,P-GPS,17.1,5.2,17.4,5.3,0.2,0.1,0.0,0.0,0.0,0.0,0,0,6,0,98,16.328,0.004,4.082,4.084,4.08,4.082,0,0.1,1.1,2.7,2.6,44.1,44.1,1024,1024,1024,1024,500,,,,,
115,12.2,0m 12.2s,0,0,P-GPS,16.7,5.1,16.7,5.1,0.2,0.1,0.0,0.0,0.0,0.0,0,0,6,0,98,16.328,0.004,4.082,4.084,4.08,4.082,0,0.1,1.1,2.2,2,43.9,43.9,1024,1024,1024,1024,483,,,,,
116,12.3,0m 12.3s,0,0,P-GPS,16.4,5.0,16.4,5.0,0.2,0.1,0.0,0.0,0.0,0.0,0,0,6,0,98,16.328,0.004,4.082,4.084,4.08,4.082,0,0.1,1.1,2.3,2.1,43.9,43.9,1024,1024,1024,1024,515,,,,,
117,12.4,0m 12.4s,0,0,P-GPS,15.7,4.8,15.7,4.8,0.2,0.1,0.0,0.0,0.0,0.0,0,0,6,0,98,16.328,0.004,4.082,4.084,4.08,4.082,0,0.1,1.1,2.2,2.9,43.9,43.9,1024,1024,1024,1024,525,,,,,
118,12.5,0m 12.5s,0,0,P-GPS,15.4,4.7,15.4,4.7,0.2,0.1,0.0,0.0,0.0,0.0,0,0,6,0,98,16.396,0.055,4.117,4.116,4.101,4.062,0,0.1,0.9,2.2,1.5,43.7,43.7,1024,1024,1024,1024,553,,,,,
119,12.6,0m 12.6s,0,0,P-GPS,15.4,4.7,15.1,4.6,0.2,0.1,0.0,0.0,0.0,0.0,0,0,6,0,98,16.396,0.055,4.117,4.116,4.101,4.062,0,0.1,0.9,3,1.1,43.8,43.8,1024,1024,1024,1024,549,,,,,
120,12.7,0m 12.7s,0,0,P-GPS,14.8,4.5,13.8,4.2,0.2,0.1,0.0,0.0,0.0,0.0,0,0,6,0,98,16.396,0.055,4.117,4.116,4.101,4.062,0,0.1,0.9,2.8,2.3,43.7,43.7,1024,1024,1024,1024,540,,,,,
121,12.8,0m 12.8s,0,0,P-GPS,14.4,4.4,13.1,4.0,0.2,0.1,0.0,0.0,0.0,0.0,0,0,6,0,98,16.396,0.055,4.117,4.116,4.101,4.062,0,0.1,0.9,2.5,1.1,43.6,43.6,1024,1024,1024,1024,542,,,,,
122,12.9,0m 12.9s,0,0,P-GPS,14.1,4.3,12.8,3.9,0.2,0.1,0.0,0.0,0.0,0.0,0,0,6,0,98,16.396,0.055,4.117,4.116,4.101,4.062,0,0.1,0.9,2.8,0.1,43.6,43.6,1024,1024,1024,1024,534,,,,,
123,13,0m 13s,0,0,P-GPS,13.8,4.2,12.5,3.8,0.2,0.1,0.0,0.0,0.0,0.0,0,0,6,0,98,16.396,0.055,4.117,4.116,4.101,4.062,0,0.1,1.1,3.2,0.4,43.8,43.8,1024,1024,1024,1024,532,,,,,
124,13.1,0m 13.1s,0,0,P-GPS,13.1,4.0,12.1,3.7,0.2,0.1,0.0,0.0,0.0,0.0,0,0,6,0,98,16.396,0.055,4.117,4.116,4.101,4.062,0,0.1,1.1,3.3,-0.6,43.8,43.8,1024,1024,1024,1024,549,,,,,
125,13.2,0m 13.2s,0,0,P-GPS,12.8,3.9,11.8,3.6,0.2,0.1,0.0,0.0,0.0,0.0,0,0,6,0,98,16.396,0.055,4.117,4.116,4.101,4.062,0,0.1,1.1,2.9,-1.8,43.8,43.8,1024,1024,1024,1024,551,,,,,
126,13.3,0m 13.3s,0,0,P-GPS,12.5,3.8,11.5,3.5,0.2,0.1,0.0,0.0,0.0,0.0,0,0,6,0,98,16.396,0.055,4.117,4.116,4.101,4.062,0,0.1,1,3,-1.7,43.8,43.8,1024,1024,1024,1024,584,,,,,
127,13.4,0m 13.4s,0,0,P-GPS,11.8,3.6,11.2,3.4,0.2,0.1,0.0,0.0,0.0,0.0,0,0,6,0,98,16.396,0.055,4.117,4.116,4.101,4.062,0,0.1,1.1,3,-1.3,44,44,1024,1024,1024,1024,637,,,,,
128,13.5,0m 13.5s,0,0,P-GPS,11.5,3.5,11.2,3.4,0.2,0.1,0.0,0.0,0.0,0.0,0,0,6,0,98,16.322,0.031,4.088,4.081,4.061,4.092,-0.1,0,1,2.4,-1.2,44.1,44.1,1024,1024,1024,1024,667,,,,,
129,13.6,0m 13.6s,0,0,P-GPS,11.2,3.4,10.8,3.3,0.3,0.1,0.0,0.0,0.0,0.0,0,0,6,0,98,16.322,0.031,4.088,4.081,4.061,4.092,-0.1,0.1,0.8,2.2,-1.7,44.2,44.2,1024,1024,1024,1024,689,,,,,
130,13.7,0m 13.7s,0,0,P-GPS,10.8,3.3,10.8,3.3,0.2,0.1,0.0,0.0,0.0,0.0,0,0,6,0,98,16.322,0.031,4.088,4.081,4.061,4.092,-0.1,0,0.5,2.3,-2.3,44.3,44.3,1024,1024,1024,1024,836,,,,,
131,13.8,0m 13.8s,0,0,P-GPS,10.8,3.3,10.5,3.2,0.2,0.1,0.0,0.0,0.0,0.0,0,0,6,0,98,16.322,0.031,4.088,4.081,4.061,4.092,-0.1,0,0.4,2.5,-2,44.4,44.4,1024,1024,1024,1024,858,,,,,
132,13.9,0m 13.9s,0,0,P-GPS,11.5,3.5,10.5,3.2,0.2,0.1,0.0,0.0,0.0,0.0,0,0,6,0,98,16.322,0.031,4.088,4.081,4.061,4.092,-0.1,0,0,1.9,-1.8,44.4,44.4,1024,1024,1024,1024,825,,,,,
133,14,0m 14s,0,0,P-GPS,11.2,3.4,10.5,3.2,0.2,0.1,0.0,0.0,0.0,0.0,0,0,6,0,98,16.322,0.031,4.088,4.081,4.061,4.092,-0.1,0,0,2.2,-2.6,44.4,44.4,1024,1024,1024,1024,811,,,,,
134,14.1,0m 14.1s,0,0,P-GPS,11.2,3.4,10.5,3.2,0.2,0.1,0.0,0.0,0.0,0.0,0,0,6,0,98,16.322,0.031,4.088,4.081,4.061,4.092,-0.1,0,0,2.7,-3.1,44.5,44.5,1024,1024,1024,1024,803,,,,,
135,14.2,0m 14.2s,0,0,P-GPS,11.2,3.4,10.5,3.2,0.0,0.0,0.0,0.0,0.0,0.0,0,0,6,0,98,16.322,0.031,4.088,4.081,4.061,4.092,0,0,0,2.3,-3.9,44.6,44.6,1024,1024,1024,1024,692,,,,,
136,14.3,0m 14.3s,0,0,P-GPS,11.2,3.4,10.2,3.1,0.0,0.0,0.0,0.0,0.0,0.0,0,0,6,0,98,16.322,0.031,4.088,4.081,4.061,4.092,0,0,0,1.6,-3.5,44.6,44.6,1024,1024,1024,1024,739,,,,,
137,14.4,0m 14.4s,0,0,P-GPS,11.2,3.4,10.2,3.1,0.0,0.0,0.0,0.0,0.0,0.0,0,0,6,0,98,16.322,0.031,4.088,4.081,4.061,4.092,0,0,0,1.8,-3.2,44.5,44.5,1024,1024,1024,1024,678,,,,,
138,14.5,0m 14.5s,0,0,P-GPS,10.8,3.3,10.2,3.1,0.0,0.0,0.0,0.0,0.0,0.0,0,0,6,0,98,16.322,0.031,4.088,4.081,4.061,4.092,0,0,0.1,2.1,-3.1,44.5,44.5,1024,1024,1024,1024,880,,,,,
139,14.6,0m 14.6s,0,0,P-GPS,10.8,3.3,10.2,3.1,0.0,0.0,0.0,0.0,0.0,0.0,0,0,6,0,98,16.322,0.031,4.088,4.081,4.061,4.092,0,0,0.1,1.4,-3.2,44.5,44.5,1024,1024,1024,1024,1024,,,,,
140,14.7,0m 14.7s,0,0,P-GPS,10.8,3.3,10.2,3.1,0.0,0.0,0.0,0.0,0.0,0.0,0,0,6,0,98,16.322,0.031,4.088,4.081,4.061,4.092,0,0,0.2,0.9,-2.8,44.3,44.3,1024,1024,1024,1024,1024,,,,,
141,14.8,0m 14.8s,0,0,P-GPS,10.5,3.2,10.2,3.1,0.2,0.1,0.0,0.0,0.0,0.0,0,0,6,0,98,16.322,0.031,4.088,4.081,4.061,4.092,0.1,0,0.1,0.7,-1.2,44.4,44.4,1024,1024,1024,1024,1024,,,,,
142,14.9,0m 14.9s,0,0,P-GPS,10.5,3.2,10.2,3.1,0.2,0.1,0.0,0.0,0.0,0.0,0,0,6,0,98,16.322,0.031,4.088,4.081,4.061,4.092,0.1,0,0.1,2.6,0.1,44.4,44.4,1024,1024,1024,1024,1024,,,,,
143,15,0m 15s,0,0,P-GPS,10.5,3.2,9.8,3.0,0.0,0.0,0.0,0.0,0.0,0.0,0,0,6,0,98,16.322,0.031,4.088,4.081,4.061,4.092,0,0,0,2.8,-0.4,44.4,44.4,1024,1024,1024,1024,1024,,,,,
144,15.1,0m 15.1s,0,0,P-GPS,10.5,3.2,9.8,3.0,0.0,0.0,0.0,0.0,0.0,0.0,0,0,6,0,98,16.322,0.031,4.088,4.081,4.061,4.092,0,0,0,2.4,-2,44.3,44.3,1024,1024,1024,1024,1024,,,,,
145,15.2,0m 15.2s,0,0,P-GPS,10.5,3.2,9.8,3.0,0.3,0.1,0.0,0.0,0.0,0.0,0,0,6,0,98,16.322,0.031,4.088,4.081,4.061,4.092,0.1,-0.1,0,2.4,0.2,44.3,44.3,1024,1024,1024,1024,1024,,,,,
146,15.3,0m 15.3s,0,0,P-GPS,10.5,3.2,9.8,3.0,0.2,0.1,0.0,0.0,0.0,0.0,0,0,6,0,98,16.322,0.031,4.088,4.081,4.061,4.092,0.1,0,0,2.3,0.8,44.2,44.2,1024,1024,1024,1024,1024,,,,,
147,15.4,0m 15.4s,0,0,P-GPS,10.2,3.1,9.8,3.0,0.2,0.1,0.0,0.0,0.0,0.0,0,0,6,0,98,16.322,0.031,4.088,4.081,4.061,4.092,0.1,0,0,2,0.3,44.1,44.1,1024,1024,1024,1024,1024,,,,,
148,15.5,0m 15.5s,0,0,P-GPS,10.2,3.1,9.8,3.0,0.2,0.1,0.0,0.0,0.0,0.0,0,0,6,0,98,16.222,0.01,4.058,4.054,4.05,4.06,0.1,0,0,2.8,0.4,44.1,44.1,1024,1024,1024,1024,1025,,,,,
149,15.6,0m 15.6s,0,0,P-GPS,10.2,3.1,9.8,3.0,0.2,0.1,0.0,0.0,0.0,0.0,0,0,6,0,98,16.222,0.01,4.058,4.054,4.05,4.06,0.1,0,0,2.9,0.1,44.1,44.1,1024,1024,1024,1024,1025,,,,,
150,15.7,0m 15.7s,0,0,P-GPS,10.2,3.1,9.8,3.0,0.2,0.1,0.0,0.0,0.0,0.0,0,0,6,0,98,16.222,0.01,4.058,4.054,4.05,4.06,0.1,-0.1,0,3,-0.4,44.2,44.2,1024,1024,1024,1024,1044,,,,,
151,15.8,0m 15.8s,0,0,P-GPS,10.2,3.1,9.8,3.0,0.3,0.1,0.0,0.0,0.0,0.0,0,0,6,0,98,16.222,0.01,4.058,4.054,4.05,4.06,0.1,-0.1,0,2.8,0.2,44.1,44.1,1024,1024,1024,1024,1064,,,,,
152,15.9,0m 15.9s,0,0,P-GPS,10.2,3.1,9.8,3.0,0.3,0.1,0.0,0.0,0.0,0.0,0,0,6,0,98,16.222,0.01,4.058,4.054,4.05,4.06,0.1,-0.1,0,2.6,0.8,44.2,44.2,1024,1024,1024,1024,1073,,,,,
153,16,0m 16s,0,0,P-GPS,10.2,3.1,9.8,3.0,0.3,0.1,0.0,0.0,0.0,0.0,0,0,6,0,98,16.222,0.01,4.058,4.054,4.05,4.06,0.1,-0.1,0,2.6,1,44.2,44.2,1024,1024,1024,1024,1054,,,,,
154,16.1,0m 16.1s,0,0,P-GPS,10.2,3.1,9.8,3.0,0.3,0.1,0.0,0.0,0.0,0.0,0,0,6,0,98,16.222,0.01,4.058,4.054,4.05,4.06,0.1,-0.1,0,1.6,0.6,44,44,1024,1024,1024,1024,1024,,,,,
155,16.2,0m 16.2s,0,0,P-GPS,10.2,3.1,9.8,3.0,0.3,0.1,0.0,0.0,0.0,0.0,0,0,6,0,98,16.222,0.01,4.058,4.054,4.05,4.06,0.1,-0.1,0,1.7,2.8,43.8,43.8,1024,1024,1024,1024,1024,,,,,
156,16.3,0m 16.3s,0,0,P-GPS,10.2,3.1,9.8,3.0,0.0,0.0,0.0,0.0,0.0,0.0,0,0,6,0,98,16.222,0.01,4.058,4.054,4.05,4.06,0,0,0,1.8,4,43.8,43.8,1024,1024,1024,1024,1026,,,,,
157,16.4,0m 16.4s,0,0,P-GPS,10.2,3.1,9.8,3.0,0.0,0.0,0.0,0.0,0.0,0.0,0,0,6,0,98,16.222,0.01,4.058,4.054,4.05,4.06,0,0,0,1.8,2.6,43.9,43.9,1024,1024,1024,1024,1108,,,,,
158,16.5,0m 16.5s,0,0,P-GPS,10.2,3.1,9.8,3.0,0.0,0.0,0.0,0.0,0.0,0.0,0,0,6,0,98,16.243,0.014,4.059,4.058,4.056,4.07,0,0,0,2.5,1.3,44,44,1024,1024,1024,1024,1121,,,,,
159,16.6,0m 16.6s,0,0,P-GPS,10.2,3.1,9.8,3.0,0.2,0.1,0.0,0.0,0.0,0.0,0,0,6,0,98,16.243,0.014,4.059,4.058,4.056,4.07,0.1,0,0,3.3,0.6,44.1,44.1,1024,1024,1024,1024,1188,,,,,
160,16.7,0m 16.7s,0,0,P-GPS,10.2,3.1,9.8,3.0,0.0,0.0,0.0,0.0,0.0,0.0,0,0,6,0,98,16.243,0.014,4.059,4.058,4.056,4.07,0,0,0,3.5,0.2,44.1,44.1,1024,1024,1024,1024,1332,,,,,
161,16.8,0m 16.8s,0,0,P-GPS,10.2,3.1,9.8,3.0,0.0,0.0,0.0,0.0,0.0,0.0,0,0,6,0,98,16.243,0.014,4.059,4.058,4.056,4.07,0,0,0,3.1,0,44.1,44.1,1024,1024,1024,1024,1375,,,,,
162,16.9,0m 16.9s,0,0,P-GPS,10.2,3.1,9.8,3.0,0.0,0.0,0.0,0.0,0.0,0.0,0,0,6,0,98,16.243,0.014,4.059,4.058,4.056,4.07,0,0,0,3,0.6,44.2,44.2,1024,1024,1024,1024,1410,,,,,
163,17,0m 17s,0,0,P-GPS,10.2,3.1,9.8,3.0,0.0,0.0,0.0,0.0,0.0,0.0,0,0,6,0,98,16.243,0.014,4.059,4.058,4.056,4.07,0,0,-0.2,3.9,0.6,44.2,44.2,1024,1024,1024,1024,1332,,,,,
164,17.1,0m 17.1s,0,0,P-GPS,10.2,3.1,9.8,3.0,0.0,0.0,0.0,0.0,0.0,0.0,0,0,6,0,98,16.243,0.014,4.059,4.058,4.056,4.07,0,0,-0.4,4.1,-0.4,44.3,44.3,1024,1024,1024,1024,1024,,,,,
165,17.2,0m 17.2s,0,0,P-GPS,10.5,3.2,10.2,3.1,0.0,0.0,0.0,0.0,0.0,0.0,0,0,6,0,98,16.243,0.014,4.059,4.058,4.056,4.07,0,0,-0.3,4.6,-0.3,44.2,44.2,1024,1024,1024,883,1557,,,,,
166,17.4,0m 17.4s,0,0,P-GPS,10.5,3.2,10.2,3.1,0.0,0.0,0.0,0.0,0.0,0.0,0,0,6,0,98,16.243,0.014,4.059,4.058,4.056,4.07,0,0,-0.2,2.1,0,44.1,44.1,1024,1024,1024,812,1667,,,,,
167,17.5,0m 17.5s,0,0,P-GPS,10.5,3.2,10.2,3.1,0.0,0.0,0.0,0.0,0.0,0.0,0,0,6,0,97,16.229,0.012,4.064,4.059,4.052,4.054,0,0,-0.5,0.5,-0.6,43.8,43.8,1024,1024,1024,833,1684,,,,,
168,17.7,0m 17.7s,0,0,P-GPS,11.2,3.4,10.8,3.3,0.0,0.0,0.0,0.0,0.0,0.0,0,0,6,0,97,16.229,0.012,4.064,4.059,4.052,4.054,0,0,-1.5,2.8,-1.2,42.9,42.9,1024,1024,1024,798,1684,,,,,
169,17.8,0m 17.8s,0,0,P-GPS,11.8,3.6,11.5,3.5,0.2,0.1,0.0,0.0,0.0,0.0,0,0,6,0,97,16.229,0.012,4.064,4.059,4.052,4.054,0,-0.1,-2.2,3.7,-1.1,42.5,42.5,1024,1024,1024,820,1684,,,,,
170,17.9,0m 17.9s,0,0,P-GPS,12.5,3.8,12.1,3.7,0.4,0.2,0.0,0.0,0.0,0.0,0,0,6,0,97,16.229,0.012,4.064,4.059,4.052,4.054,0,-0.2,-2.7,2.9,0.5,42.3,42.3,1024,1024,1024,842,1684,,,,,
171,18,0m 18s,0,0,P-GPS,13.5,4.1,13.1,4.0,0.4,0.2,0.0,0.0,0.0,0.0,0,0,6,0,97,16.229,0.012,4.064,4.059,4.052,4.054,0,-0.2,-3,1.3,1.7,42,42,1024,1024,1024,854,1684,,,,,
172,18.1,0m 18.1s,0,0,P-GPS,14.4,4.4,13.8,4.2,0.2,0.1,0.0,0.0,0.0,0.0,0,0,6,0,97,16.229,0.012,4.064,4.059,4.052,4.054,0,-0.1,-3.1,0.9,2,41.9,41.9,1024,1024,1024,882,1684,,,,,
173,18.2,0m 18.2s,0,0,P-GPS,15.4,4.7,14.8,4.5,0.0,0.0,0.0,0.0,0.0,0.0,0,0,6,0,97,16.229,0.012,4.064,4.059,4.052,4.054,0,0,-2.9,1.2,1.5,41.8,41.8,1024,1024,1024,872,1684,,,,,
174,18.3,0m 18.3s,0,0,P-GPS,16.4,5.0,15.7,4.8,0.0,0.0,0.0,0.0,0.0,0.0,0,0,6,0,97,16.229,0.012,4.064,4.059,4.052,4.054,0,0,-2.6,2.6,1.2,41.9,41.9,1024,1024,1024,870,1684,,,,,
175,18.4,0m 18.4s,0,0,P-GPS,17.1,5.2,16.4,5.0,0.0,0.0,0.0,0.0,0.0,0.0,0,0,6,0,97,16.229,0.012,4.064,4.059,4.052,4.054,0,-0.1,-2.3,2.6,0.8,41.7,41.7,1024,1024,1024,894,1684,,,,,
176,18.5,0m 18.5s,0,0,P-GPS,18.0,5.5,17.1,5.2,0.2,0.1,0.0,0.0,0.0,0.0,0,0,6,0,97,16.229,0.012,4.064,4.059,4.052,4.054,0,-0.1,-2.1,0.4,0.6,41.6,41.6,1024,1024,1024,886,1684,,,,,
177,18.6,0m 18.6s,0,0,P-GPS,18.7,5.7,17.7,5.4,0.4,0.2,0.0,0.0,0.0,0.0,0,0,6,0,97,16.229,0.012,4.064,4.059,4.052,4.054,0,-0.2,-1.8,-1.4,0.6,41.7,41.7,1024,1024,1024,889,1684,,,,,
178,18.7,0m 18.7s,0,0,P-GPS,19.0,5.8,18.4,5.6,0.2,0.1,0.0,0.0,0.0,0.0,0,0,6,0,97,16.229,0.012,4.064,4.059,4.052,4.054,0,-0.1,-1.7,-1.3,1.3,41.6,41.6,1024,1024,1024,886,1684,,,,,
179,18.8,0m 18.8s,0,0,P-GPS,19.7,6.0,19.0,5.8,0.2,0.1,0.0,0.0,0.0,0.0,0,0,6,0,97,16.229,0.012,4.064,4.059,4.052,4.054,0,-0.1,-1.5,-0.5,2.9,41.4,41.4,1024,1024,1024,883,1684,,,,,
180,18.9,0m 18.9s,0,0,P-GPS,20.0,6.1,19.4,5.9,0.2,0.1,0.0,0.0,0.0,0.0,0,0,6,0,97,16.229,0.012,4.064,4.059,4.052,4.054,0,-0.1,-1.4,-0.6,3.1,41.2,41.2,1024,1024,1024,878,1684,,,,,
181,19,0m 19s,0,0,P-GPS,20.7,6.3,19.7,6.0,0.2,0.1,0.0,0.0,0.0,0.0,0,0,6,0,97,16.229,0.012,4.064,4.059,4.052,4.054,0,-0.1,-1.2,-0.9,2.3,41.1,41.1,1024,1024,1024,886,1684,,,,,
182,19.1,0m 19.1s,0,0,P-GPS,21.0,6.4,20.3,6.2,0.2,0.1,0.0,0.0,0.0,0.0,0,0,6,0,97,16.229,0.012,4.064,4.059,4.052,4.054,0,-0.1,-1.2,-0.5,2.5,41,41,1024,1024,1024,888,1684,,,,,
183,19.2,0m 19.2s,0,0,P-GPS,21.3,6.5,20.7,6.3,0.0,0.0,0.0,0.0,0.0,0.0,0,0,6,0,97,16.229,0.012,4.064,4.059,4.052,4.054,0,0,-1.1,0.1,2.4,41.1,41.1,1024,1024,1024,884,1684,,,,,
184,19.3,0m 19.3s,0,0,P-GPS,21.7,6.6,21.0,6.4,0.0,0.0,0.0,0.0,0.0,0.0,0,0,6,0,97,16.229,0.012,4.064,4.059,4.052,4.054,0,0,-1.1,0.5,2,41.1,41.1,1024,1024,1024,885,1684,,,,,
185,19.4,0m 19.4s,0,0,P-GPS,22.0,6.7,21.3,6.5,0.0,0.0,0.0,0.0,0.0,0.0,0,0,6,0,97,16.229,0.012,4.064,4.059,4.052,4.054,0,0,-1,0.7,2,41.1,41.1,1024,1024,1024,898,1684,,,,,
186,19.5,0m 19.5s,0,0,P-GPS,22.3,6.8,21.7,6.6,0.0,0.0,0.0,0.0,0.0,0.0,0,0,6,0,97,16.045,0.046,3.996,3.997,4.01,4.042,0,0,-1,0.7,2.2,41.2,41.2,1024,1024,1024,898,1684,,,,,
187,19.6,0m 19.6s,0,0,P-GPS,22.6,6.9,22.3,6.8,0.2,0.1,0.0,0.0,0.0,0.0,0,0,6,0,97,16.045,0.046,3.996,3.997,4.01,4.042,0,-0.1,-0.9,0.5,1.9,41.3,41.3,1024,1024,1024,906,1684,,,,,
188,19.7,0m 19.7s,0,0,P-GPS,23.0,7.0,22.6,6.9,0.2,0.1,0.0,0.0,0.0,0.0,0,0,6,0,97,16.045,0.046,3.996,3.997,4.01,4.042,0,-0.1,-0.9,-0.4,2.3,41.4,41.4,1024,1024,1024,903,1684,,,,,
189,19.8,0m 19.8s,0,0,P-GPS,23.3,7.1,23.0,7.0,0.0,0.0,0.0,0.0,0.0,0.0,0,0,6,0,97,16.045,0.046,3.996,3.997,4.01,4.042,0,0,-0.8,-0.9,3.1,41.2,41.2,1024,1024,1024,880,1684,,,,,
190,19.9,0m 19.9s,0,0,P-GPS,23.6,7.2,23.0,7.0,0.0,0.0,0.0,0.0,0.0,0.0,0,0,6,0,97,16.045,0.046,3.996,3.997,4.01,4.042,0,0,-0.8,-0.7,2.2,41.1,41.1,1024,1024,1024,868,1684,,,,,
191,20,0m 20s,0,0,P-GPS,23.6,7.2,23.3,7.1,0.0,0.0,0.0,0.0,0.0,0.0,0,0,6,0,97,16.045,0.046,3.996,3.997,4.01,4.042,0,0,-0.7,0.1,2.2,40.9,40.9,1024,1024,1024,873,1684,,,,,
192,20.1,0m 20.1s,0,0,P-GPS,24.0,7.3,23.6,7.2,0.0,0.0,0.0,0.0,0.0,0.0,0,0,6,0,97,16.045,0.046,3.996,3.997,4.01,4.042,0,0,-0.6,0,2.7,40.7,40.7,1024,1024,1024,871,1684,,,,,
193,20.2,0m 20.2s,0,0,P-GPS,24.3,7.4,24.0,7.3,0.0,0.0,0.0,0.0,0.0,0.0,0,0,6,0,97,16.045,0.046,3.996,3.997,4.01,4.042,0,0,-0.6,-0.3,2.1,40.4,40.4,1024,1024,1024,881,1684,,,,,
194,20.3,0m 20.3s,0,0,P-GPS,24.3,7.4,24.3,7.4,0.0,0.0,0.0,0.0,0.0,0.0,0,0,6,0,97,16.045,0.046,3.996,3.997,4.01,4.042,0,0,-0.5,0,2.3,40.2,40.2,1024,1024,1024,889,1684,,,,,
195,20.4,0m 20.4s,0,0,P-GPS,24.6,7.5,24.3,7.4,0.0,0.0,0.0,0.0,0.0,0.0,0,0,6,0,97,16.045,0.046,3.996,3.997,4.01,4.042,0,0,-0.5,0,2.1,39.9,39.9,1024,1024,1024,877,1684,,,,,
196,20.5,0m 20.5s,0,0,P-GPS,24.6,7.5,24.6,7.5,0.0,0.0,0.0,0.0,0.0,0.0,0,0,6,0,97,16.223,0.013,4.055,4.053,4.051,4.064,0,0,-0.5,0.3,2.1,39.8,39.8,1024,1024,1024,881,1684,,,,,
197,20.6,0m 20.6s,0,0,P-GPS,24.9,7.6,24.9,7.6,0.0,0.0,0.0,0.0,0.0,0.0,0,0,6,0,97,16.223,0.013,4.055,4.053,4.051,4.064,0,0,-0.4,0.4,2.3,39.6,39.6,1024,1024,1024,886,1684,,,,,Maximum Flight Altitude Reached
198,20.7,0m 20.7s,0,0,P-GPS,24.9,7.6,24.9,7.6,0.0,0.0,0.0,0.0,0.0,0.0,0,0,6,0,97,16.223,0.013,4.055,4.053,4.051,4.064,0,0,-0.4,0,2.1,39.5,39.5,1024,1024,1024,886,1684,,,,,
199,20.8,0m 20.8s,0,0,P-GPS,24.9,7.6,25.3,7.7,0.0,0.0,0.0,0.0,0.0,0.0,0,0,6,0,97,16.223,0.013,4.055,4.053,4.051,4.064,0,0,-0.3,-0.1,1.9,39.4,39.4,1024,1024,1024,935,1604,,,,,
200,20.9,0m 20.9s,0,0,P-GPS,25.3,7.7,25.3,7.7,0.0,0.0,0.0,0.0,0.0,0.0,0,0,6,0,97,16.223,0.013,4.055,4.053,4.051,4.064,0,0,-0.3,0.5,1.2,39.3,39.3,1024,1024,1024,935,1604,,,,,
201,21,0m 21s,0,0,P-GPS,25.3,7.7,25.6,7.8,0.0,0.0,0.0,0.0,0.0,0.0,0,0,6,0,97,16.223,0.013,4.055,4.053,4.051,4.064,0,0,-0.3,0.5,0.9,39.3,39.3,1024,1024,1024,1024,1024,,,,,
202,21.1,0m 21.1s,0,0,P-GPS,25.3,7.7,25.6,7.8,0.0,0.0,0.0,0.0,0.0,0.0,0,0,6,0,97,16.223,0.013,4.055,4.053,4.051,4.064,0,0,-0.2,0,1.5,39.5,39.5,1024,1024,1024,1024,1024,,,,,
203,21.2,0m 21.2s,0,0,P-GPS,25.3,7.7,25.6,7.8,0.0,0.0,0.0,0.0,0.0,0.0,0,0,6,0,97,16.223,0.013,4.055,4.053,4.051,4.064,0,0,-0.1,-0.2,1.8,39.6,39.6,1024,1024,1024,1024,1024,,,,,
204,21.3,0m 21.3s,0,0,P-GPS,25.6,7.8,25.9,7.9,0.0,0.0,0.0,0.0,0.0,0.0,0,0,6,0,97,16.223,0.013,4.055,4.053,4.051,4.064,0,0,-0.1,0.1,1.6,39.6,39.6,1024,1024,1024,1024,1024,,,,,
205,21.4,0m 21.4s,0,0,P-GPS,25.6,7.8,25.9,7.9,0.0,0.0,0.0,0.0,0.0,0.0,0,0,6,0,97,16.223,0.013,4.055,4.053,4.051,4.064,0,0,-0.1,0.2,1.3,39.5,39.5,1024,1024,1024,1024,759,,,,,
206,21.5,0m 21.5s,0,0,P-GPS,25.6,7.8,25.9,7.9,0.0,0.0,0.0,0.0,0.0,0.0,0,0,6,0,97,16.246,0.011,4.061,4.06,4.057,4.068,0,0,0,-0.6,1.4,39.5,39.5,1024,1024,1024,1024,759,,,,,
207,21.6,0m 21.6s,0,0,P-GPS,25.6,7.8,25.9,7.9,0.0,0.0,0.0,0.0,0.0,0.0,0,0,6,0,97,16.246,0.011,4.061,4.06,4.057,4.068,0,0,0,-0.2,1,39.6,39.6,1024,1024,1024,1006,608,,,,,
208,21.7,0m 21.7s,0,0,P-GPS,25.6,7.8,25.9,7.9,0.0,0.0,0.0,0.0,0.0,0.0,0,0,6,0,97,16.246,0.011,4.061,4.06,4.057,4.068,0,0,0,0.6,0,39.6,39.6,1024,1024,1024,1009,552,,,,,
209,21.8,0m 21.8s,0,0,P-GPS,25.6,7.8,25.9,7.9,0.0,0.0,0.0,0.0,0.0,0.0,0,0,6,0,97,16.246,0.011,4.061,4.06,4.057,4.068,0,0,0.3,0.2,0,39.7,39.7,1024,1024,1024,1024,481,,,,,
210,21.9,0m 21.9s,0,0,P-GPS,25.3,7.7,25.9,7.9,0.0,0.0,0.0,0.0,0.0,0.0,0,0,6,0,97,16.246,0.011,4.061,4.06,4.057,4.068,0,0,0.5,-0.8,0,39.7,39.7,1024,1024,1024,1020,471,,,,,
211,22,0m 22s,0,0,P-GPS,24.9,7.6,25.6,7.8,0.0,0.0,0.0,0.0,0.0,0.0,0,0,6,0,97,16.246,0.011,4.061,4.06,4.057,4.068,0,0,1,-0.7,0,39.8,39.8,1024,1024,1024,1024,450,,,,,
212,22.1,0m 22.1s,0,0,P-GPS,24.6,7.5,25.3,7.7,0.0,0.0,0.0,0.0,0.0,0.0,0,0,6,0,97,16.246,0.011,4.061,4.06,4.057,4.068,0,0,1.2,0.1,-1.2,39.6,39.6,1024,1024,1024,1024,506,,,,,
213,22.2,0m 22.2s,0,0,P-GPS,24.3,7.4,24.6,7.5,0.0,0.0,0.0,0.0,0.0,0.0,0,0,6,0,97,16.246,0.011,4.061,4.06,4.057,4.068,0,0,1.3,0.8,-2.7,39.4,39.4,1024,1024,1024,1024,548,,,,,
214,22.3,0m 22.3s,0,0,P-GPS,23.6,7.2,24.3,7.4,0.2,0.1,0.0,0.0,0.0,0.0,0,0,6,0,97,16.246,0.011,4.061,4.06,4.057,4.068,0,-0.1,1.2,0,-2.1,39.2,39.2,1024,1024,1024,1024,600,,,,,
215,22.4,0m 22.4s,0,0,P-GPS,23.6,7.2,24.0,7.3,0.5,0.2,0.0,0.0,0.0,0.0,0,0,6,0,97,16.246,0.011,4.061,4.06,4.057,4.068,0.1,-0.2,0.9,-0.9,2.7,39.3,39.3,1024,1024,1024,1024,613,,,,,
216,22.5,0m 22.5s,0,0,P-GPS,23.3,7.1,23.6,7.2,0.3,0.1,0.0,0.0,0.0,0.0,0,0,6,0,97,16.246,0.011,4.061,4.06,4.057,4.068,0.1,-0.1,0.8,-0.8,5.7,39.2,39.2,1024,1024,1024,1024,674,,,,,
217,22.6,0m 22.6s,0,0,P-GPS,23.0,7.0,23.3,7.1,0.0,0.0,0.0,0.0,0.0,0.0,0,0,6,0,97,16.246,0.011,4.061,4.06,4.057,4.068,0,0,0.7,-0.5,3.9,39.5,39.5,1024,1024,1024,1024,665,,,,,
218,22.7,0m 22.7s,0,0,P-GPS,22.6,6.9,23.0,7.0,0.0,0.0,0.0,0.0,0.0,0.0,0,0,6,0,97,16.246,0.011,4.061,4.06,4.057,4.068,0,0,0.6,-1.5,2.6,39.5,39.5,1024,1024,1024,1024,644,,,,,
219,22.8,0m 22.8s,0,0,P-GPS,22.3,6.8,22.6,6.9,0.0,0.0,0.0,0.0,0.0,0.0,0,0,6,0,97,16.246,0.011,4.061,4.06,4.057,4.068,0,0,0.4,-1.4,2,39.7,39.7,1024,1024,1024,1024,644,,,,,
220,22.9,0m 22.9s,0,0,P-GPS,22.3,6.8,22.6,6.9,0.2,0.1,0.0,0.0,0.0,0.0,0,0,6,0,97,16.246,0.011,4.061,4.06,4.057,4.068,0.1,0,0.4,0,3.5,39.7,39.7,1024,1024,1024,1024,659,,,,,
221,23,0m 23s,0,0,P-GPS,22.0,6.7,22.3,6.8,0.0,0.0,0.0,0.0,0.0,0.0,0,0,6,0,97,16.246,0.011,4.061,4.06,4.057,4.068,0,0,0.5,0.9,3.6,39.8,39.8,1024,1024,1024,1024,632,,,,,
222,23.1,0m 23.1s,0,0,P-GPS,22.0,6.7,22.3,6.8,0.2,0.1,0.0,0.0,0.0,0.0,0,0,6,0,97,16.246,0.011,4.061,4.06,4.057,4.068,0,-0.1,0.5,0.3,2.9,39.9,39.9,1024,1024,1024,1024,614,,,,,
223,23.2,0m 23.2s,0,0,P-GPS,21.7,6.6,22.0,6.7,0.2,0.1,0.0,0.0,0.0,0.0,0,0,6,0,97,16.246,0.011,4.061,4.06,4.057,4.068,0,-0.1,0.5,-1.7,2.8,40,40,1024,1024,1024,1024,619,,,,,
224,23.3,0m 23.3s,0,0,P-GPS,21.7,6.6,22.0,6.7,0.2,0.1,0.0,0.0,0.0,0.0,0,0,6,0,97,16.246,0.011,4.061,4.06,4.057,4.068,0,-0.1,0.6,-2.2,2.1,40,40,1024,1024,1024,1024,584,,,,,
225,23.4,0m 23.4s,0,0,P-GPS,21.3,6.5,21.7,6.6,0.0,0.0,0.0,0.0,0.0,0.0,0,0,6,0,97,16.246,0.011,4.061,4.06,4.057,4.068,0,0,0.6,-2.3,0.9,40,40,1024,1024,1024,1024,566,,,,,
226,23.5,0m 23.5s,0,0,P-GPS,21.0,6.4,21.3,6.5,0.2,0.1,0.0,0.0,0.0,0.0,0,0,6,0,97,16.023,0.052,4.023,4.006,3.971,4.023,0,-0.1,0.6,-1.4,0.9,40.1,40.1,1024,1024,1024,1024,566,,,,,
227,23.6,0m 23.6s,0,0,P-GPS,20.7,6.3,21.3,6.5,0.2,0.1,0.0,0.0,0.0,0.0,0,0,6,0,97,16.023,0.052,4.023,4.006,3.971,4.023,0,-0.1,0.6,-1.2,2.1,40,40,1024,1024,1024,1024,499,,,,,
228,23.7,0m 23.7s,0,0,P-GPS,20.3,6.2,21.0,6.4,0.2,0.1,0.0,0.0,0.0,0.0,0,0,6,0,97,16.023,0.052,4.023,4.006,3.971,4.023,0,-0.1,1,-2.4,2.4,40,40,1024,1024,1024,1024,507,,,,,
229,23.8,0m 23.8s,0,0,P-GPS,20.0,6.1,20.7,6.3,0.2,0.1,0.0,0.0,0.0,0.0,0,0,6,0,97,16.023,0.052,4.023,4.006,3.971,4.023,-0.1,0,1.2,-3.7,1.3,39.9,39.9,1024,1024,1024,1024,512,,,,,
230,24,0m 24s,0,0,P-GPS,19.4,5.9,20.0,6.1,0.2,0.1,0.0,0.0,0.0,0.0,0,0,6,0,97,16.023,0.052,4.023,4.006,3.971,4.023,0.1,0,1,-6.4,0.4,39.3,39.3,1024,1024,1024,1024,504,,,,,
231,24.1,0m 24.1s,0,0,P-GPS,18.7,5.7,19.4,5.9,0.5,0.2,0.0,0.0,0.0,0.0,0,0,6,0,97,16.023,0.052,4.023,4.006,3.971,4.023,0.2,0.1,1,-3,2.9,38.9,38.9,1024,1024,1024,1024,502,,,,,
232,24.2,0m 24.2s,0,0,P-GPS,18.4,5.6,19.0,5.8,0.6,0.3,0.0,0.0,0.0,0.0,0,0,6,0,97,16.023,0.052,4.023,4.006,3.971,4.023,0.2,0.2,1.1,-1,3.1,38.9,38.9,1024,1024,1024,1024,482,,,,,
233,24.3,0m 24.3s,0,0,P-GPS,18.0,5.5,18.7,5.7,0.6,0.3,0.0,0.0,0.0,0.0,0,0,6,0,97,16.023,0.052,4.023,4.006,3.971,4.023,0.2,0.2,1,0.2,1.9,39.1,39.1,1024,1024,1024,1024,488,,,,,
234,24.4,0m 24.4s,0,0,P-GPS,17.7,5.4,18.4,5.6,0.8,0.4,0.0,0.0,0.0,0.0,0,0,6,0,97,16.023,0.052,4.023,4.006,3.971,4.023,0.2,0.3,1.1,3.3,1.1,39.3,39.3,1024,1024,1024,1024,457,,,,,
235,24.5,0m 24.5s,0,0,P-GPS,17.1,5.2,17.7,5.4,0.8,0.4,0.0,0.0,0.0,0.0,0,0,6,0,97,16.15,0.035,4.051,4.02,4.024,4.055,0.2,0.3,1.1,5.1,-1.2,39.2,39.2,1024,1024,1024,1007,436,,,,,
236,24.6,0m 24.6s,0,0,P-GPS,16.7,5.1,17.4,5.3,0.6,0.3,0.0,0.0,0.0,0.0,0,0,6,0,97,16.15,0.035,4.051,4.02,4.024,4.055,0.2,0.2,1,5,-2.5,39.3,39.3,1024,1024,1024,994,429,,,,,
237,24.7,0m 24.7s,0,0,P-GPS,16.4,5.0,16.7,5.1,0.5,0.2,0.0,0.0,0.0,0.0,0,0,6,0,97,16.15,0.035,4.051,4.02,4.024,4.055,0.2,0.1,1.3,4.8,-1.2,39.4,39.4,1024,1024,1024,1006,458,,,,,
238,24.8,0m 24.8s,0,0,P-GPS,15.7,4.8,16.4,5.0,0.3,0.1,0.0,0.0,0.0,0.0,0,0,6,0,97,16.15,0.035,4.051,4.02,4.024,4.055,0.1,0.1,1.6,3.8,-0.2,39.5,39.5,1024,1024,1024,1013,435,,,,,
239,24.9,0m 24.9s,0,0,P-GPS,15.1,4.6,15.7,4.8,0.5,0.2,0.0,0.0,0.0,0.0,0,0,6,0,97,16.15,0.035,4.051,4.02,4.024,4.055,0.1,0.2,1.8,4.5,-1.1,39.3,39.3,1024,1024,1024,1017,444,,,,,
240,25,0m 25s,0,0,P-GPS,14.4,4.4,15.1,4.6,0.3,0.1,0.0,0.0,0.0,0.0,0,0,6,0,97,16.15,0.035,4.051,4.02,4.024,4.055,0.1,0.1,1.5,5,-2.6,39.8,39.8,1024,1024,1024,1005,447,,,,,
241,25.1,0m 25.1s,0,0,P-GPS,14.1,4.3,14.8,4.5,0.2,0.1,0.0,0.0,0.0,0.0,0,0,6,0,97,16.15,0.035,4.051,4.02,4.024,4.055,0.1,0,1.5,3.7,-3.1,40,40,1024,1024,1024,1013,458,,,,,
242,25.2,0m 25.2s,0,0,P-GPS,13.5,4.1,14.1,4.3,0.3,0.1,0.0,0.0,0.0,0.0,0,0,6,0,97,16.15,0.035,4.051,4.02,4.024,4.055,0.1,-0.1,1.3,3.8,-1.6,39.9,39.9,1024,1024,1024,1024,449,,,,,
243,25.3,0m 25.3s,0,0,P-GPS,13.5,4.1,13.5,4.1,0.5,0.2,0.0,0.0,0.0,0.0,0,0,6,0,97,16.15,0.035,4.051,4.02,4.024,4.055,0.1,-0.2,1.2,2.3,1.6,39.7,39.7,1024,1024,1024,1010,466,,,,,
244,25.4,0m 25.4s,0,0,P-GPS,12.8,3.9,13.1,4.0,0.3,0.1,0.0,0.0,0.0,0.0,0,0,6,0,97,16.15,0.035,4.051,4.02,4.024,4.055,0.1,-0.1,1.2,0.5,4.4,39.5,39.5,1024,1024,1024,1024,504,,,,,
245,25.5,0m 25.5s,0,0,P-GPS,12.5,3.8,12.5,3.8,0.0,0.0,0.0,0.0,0.0,0.0,0,0,6,0,97,16.16,0.065,4.063,4.007,4.018,4.072,0,0,1.4,0.9,4.4,39.3,39.3,1024,1024,1024,1024,535,,,,,
246,25.6,0m 25.6s,0,0,P-GPS,11.8,3.6,11.2,3.4,0.0,0.0,0.0,0.0,0.0,0.0,0,0,6,0,97,16.16,0.065,4.063,4.007,4.018,4.072,0,0,1.2,0,2.5,39.4,39.4,1024,1024,1024,1024,512,,,,,
247,25.7,0m 25.7s,0,0,P-GPS,11.5,3.5,11.2,3.4,0.2,0.1,0.0,0.0,0.0,0.0,0,0,6,0,97,16.16,0.065,4.063,4.007,4.018,4.072,0.1,0,1.1,1,1.4,39.4,39.4,1024,1024,1024,1024,515,,,,,
248,25.8,0m 25.8s,0,0,P-GPS,11.5,3.5,10.8,3.3,0.2,0.1,0.0,0.0,0.0,0.0,0,0,6,0,97,16.16,0.065,4.063,4.007,4.018,4.072,0.1,0,0.8,2.3,1.1,39.5,39.5,1024,1024,1024,1024,524,,,,,
249,25.9,0m 25.9s,0,0,P-GPS,11.2,3.4,10.5,3.2,0.2,0.1,0.0,0.0,0.0,0.0,0,0,6,0,97,16.16,0.065,4.063,4.007,4.018,4.072,0.1,0,0.9,2.8,1.2,39.5,39.5,1024,1024,1024,1024,502,,,,,
250,26,0m 26s,0,0,P-GPS,10.8,3.3,10.2,3.1,0.0,0.0,0.0,0.0,0.0,0.0,0,0,6,0,97,16.16,0.065,4.063,4.007,4.018,4.072,0,0,0.9,2.5,1.7,39.6,39.6,1024,1024,1024,1024,502,,,,,
251,26.1,0m 26.1s,0,0,P-GPS,10.5,3.2,9.5,2.9,0.0,0.0,0.0,0.0,0.0,0.0,0,0,6,0,97,16.16,0.065,4.063,4.007,4.018,4.072,0,0,0.9,2.1,1.7,39.7,39.7,1024,1024,1024,1024,502,,,,,
252,26.2,0m 26.2s,0,0,P-GPS,10.2,3.1,9.2,2.8,0.0,0.0,0.0,0.0,0.0,0.0,0,0,6,0,97,16.16,0.065,4.063,4.007,4.018,4.072,0,0,0.9,1.1,1,39.7,39.7,1024,1024,1024,1024,541,,,,,
253,26.3,0m 26.3s,0,0,P-GPS,9.8,3.0,8.5,2.6,0.0,0.0,0.0,0.0,0.0,0.0,0,0,6,0,97,16.16,0.065,4.063,4.007,4.018,4.072,0,0,0.9,1,0.2,39.6,39.6,1024,1024,1024,1024,543,,,,,
254,26.4,0m 26.4s,0,0,P-GPS,9.5,2.9,8.2,2.5,0.2,0.1,0.0,0.0,0.0,0.0,0,0,10,0,97,16.16,0.065,4.063,4.007,4.018,4.072,0.1,0,0.9,1.4,0,39.4,39.4,1024,1024,1024,1024,563,,,,,
255,26.5,0m 26.5s,0,0,P-GPS,9.2,2.8,7.9,2.4,0.2,0.1,0.0,0.0,0.0,0.0,0,0,10,0,97,16.16,0.065,4.063,4.007,4.018,4.072,0.1,0,0.8,2.5,0.7,39,39,1024,1024,1024,1024,551,,,,,
256,26.6,0m 26.6s,0,0,P-GPS,8.9,2.7,7.5,2.3,0.0,0.0,0.0,0.0,0.0,0.0,0,0,10,0,97,16.16,0.065,4.063,4.007,4.018,4.072,0,0,0.8,2.5,1.8,38.9,38.9,1024,1024,1024,1024,594,,,,,
257,26.7,0m 26.7s,0,0,P-GPS,8.9,2.7,7.2,2.2,0.0,0.0,0.0,0.0,0.0,0.0,0,0,10,0,97,16.16,0.065,4.063,4.007,4.018,4.072,0,0,0.7,1.5,1.7,38.7,38.7,1024,1024,1024,1024,625,,,,,
258,26.8,0m 26.8s,0,0,P-GPS,8.5,2.6,7.2,2.2,0.2,0.1,0.0,0.0,0.0,0.0,0,0,10,0,97,16.16,0.065,4.063,4.007,4.018,4.072,0.1,0,0.7,2.3,2.2,38.7,38.7,1024,1024,1024,1024,602,,,,,
259,26.9,0m 26.9s,0,0,P-GPS,8.2,2.5,6.9,2.1,0.2,0.1,0.0,0.0,0.0,0.0,0,0,10,0,97,16.16,0.065,4.063,4.007,4.018,4.072,0.1,0,0.5,2.2,1.6,39,39,1024,1024,1024,1024,637,,,,,
260,27,0m 27s,0,0,P-GPS,7.9,2.4,6.6,2.0,0.2,0.1,0.0,0.0,0.0,0.0,0,0,10,0,97,16.16,0.065,4.063,4.007,4.018,4.072,0.1,0,0.5,2.3,0.4,39,39,1024,1024,1024,1024,732,,,,,
261,27.1,0m 27.1s,0,0,P-GPS,7.9,2.4,6.6,2.0,0.3,0.1,0.0,0.0,0.0,0.0,0,0,10,0,97,16.16,0.065,4.063,4.007,4.018,4.072,0.1,-0.1,0.4,2.5,1,39.1,39.1,1024,1024,1024,1024,732,,,,,
262,27.2,0m 27.2s,0,0,P-GPS,7.9,2.4,6.2,1.9,0.3,0.1,0.0,0.0,0.0,0.0,0,0,10,0,97,16.16,0.065,4.063,4.007,4.018,4.072,0.1,-0.1,0.3,1.9,2.3,38.9,38.9,1024,1024,1024,1024,902,,,,,
263,27.3,0m 27.3s,0,0,P-GPS,7.5,2.3,6.2,1.9,0.2,0.1,0.0,0.0,0.0,0.0,0,0,10,0,97,16.16,0.065,4.063,4.007,4.018,4.072,0,-0.1,0.2,0.8,3.3,38.8,38.8,1024,1024,1024,1024,1015,,,,,
264,27.4,0m 27.4s,0,0,P-GPS,7.5,2.3,6.2,1.9,0.0,0.0,0.0,0.0,0.0,0.0,0,0,10,0,97,16.16,0.065,4.063,4.007,4.018,4.072,0,0,0.1,0.6,2.7,38.5,38.5,1024,1024,1024,1024,1024,,,,,
265,27.5,0m 27.5s,0,0,P-GPS,7.2,2.2,5.9,1.8,0.2,0.1,0.0,0.0,0.0,0.0,0,0,10,0,97,16.09,0.039,4.043,4.028,4.004,4.015,0,-0.1,0.1,1.9,2.6,38.3,38.3,1024,1024,1024,1024,1024,,,,,
266,27.6,0m 27.6s,0,0,P-GPS,7.2,2.2,5.9,1.8,0.2,0.1,0.0,0.0,0.0,0.0,0,0,10,0,97,16.09,0.039,4.043,4.028,4.004,4.015,0,-0.1,0,2,3.1,38.6,38.6,1024,1024,1024,1024,1024,,,,,
267,27.7,0m 27.7s,0,0,P-GPS,7.2,2.2,5.9,1.8,0.2,0.1,0.0,0.0,0.0,0.0,0,0,10,0,97,16.09,0.039,4.043,4.028,4.004,4.015,0,-0.1,0,0.8,3,38.6,38.6,1024,1024,1024,1024,1024,,,,,
268,27.8,0m 27.8s,0,0,P-GPS,7.2,2.2,5.9,1.8,0.2,0.1,0.0,0.0,0.0,0.0,0,0,10,0,97,16.09,0.039,4.043,4.028,4.004,4.015,0,-0.1,0,-0.1,2.6,39,39,1024,1024,1024,1024,1024,,,,,
269,27.9,0m 27.9s,0,0,P-GPS,7.2,2.2,5.9,1.8,0.0,0.0,0.0,0.0,0.0,0.0,0,0,10,0,97,16.09,0.039,4.043,4.028,4.004,4.015,0,0,0,-0.5,1,38.9,38.9,1024,1024,1024,1024,1024,,,,,
270,28,0m 28s,0,0,P-GPS,7.2,2.2,5.9,1.8,0.0,0.0,0.0,0.0,0.0,0.0,0,0,10,0,97,16.09,0.039,4.043,4.028,4.004,4.015,0,0,0,-0.4,0.5,39.2,39.2,1024,1024,1024,1024,1024,,,,,
271,28.1,0m 28.1s,0,0,P-GPS,6.9,2.1,5.9,1.8,0.0,0.0,0.0,0.0,0.0,0.0,0,0,10,0,97,16.09,0.039,4.043,4.028,4.004,4.015,0,0,0,-1.1,0.5,39.2,39.2,1024,1024,1024,1024,1024,,,,,
272,28.2,0m 28.2s,0,0,P-GPS,6.9,2.1,5.9,1.8,0.0,0.0,0.0,0.0,0.0,0.0,0,0,10,0,97,16.09,0.039,4.043,4.028,4.004,4.015,0,0,0,-0.8,0.5,39,39,1024,1024,1024,1024,1024,,,,,
273,28.3,0m 28.3s,0,0,P-GPS,6.9,2.1,5.9,1.8,0.0,0.0,0.0,0.0,0.0,0.0,0,0,10,0,97,16.09,0.039,4.043,4.028,4.004,4.015,0,0,0,0.2,0.2,39.1,39.1,1024,1024,1024,1024,1024,,,,,
274,28.4,0m 28.4s,0,0,P-GPS,6.9,2.1,5.9,1.8,0.0,0.0,0.0,0.0,0.0,0.0,0,0,10,0,97,16.09,0.039,4.043,4.028,4.004,4.015,0,0,0,0.2,0.9,39,39,1024,1024,1024,1024,1024,,,,,
275,28.5,0m 28.5s,0,0,P-GPS,6.9,2.1,5.9,1.8,0.0,0.0,0.0,0.0,0.0,0.0,0,0,10,0,97,16.092,0.015,4.025,4.02,4.016,4.031,0,0,0,0.4,1,38.9,38.9,1024,1024,1024,1024,1024,,,,,
276,28.6,0m 28.6s,-23.74785971,-46.57691817,P-GPS,6.9,2.1,5.9,1.8,0.0,0.0,0.0,0.0,0.0,0.0,0,0,10,0,97,16.092,0.015,4.025,4.02,4.016,4.031,0,0,0,0.2,0.8,38.7,38.7,1024,1024,1024,1024,1024,,,,,
277,28.7,0m 28.7s,-23.74785964,-46.57691826,P-GPS,6.9,2.1,5.9,1.8,0.0,0.0,0.0,0.0,0.0,0.0,0,0,10,0,97,16.092,0.015,4.025,4.02,4.016,4.031,0,0,0,-0.5,0.7,38.9,38.9,1024,1024,1024,1024,1024,,,,,
278,28.8,0m 28.8s,-23.74785961,-46.57691833,P-GPS,6.9,2.1,5.9,1.8,0.0,0.0,0.0,0.0,0.0,0.0,0,0,10,0,97,16.092,0.015,4.025,4.02,4.016,4.031,0,0,0,0.1,0.5,38.9,38.9,1024,1024,1024,1024,1024,,,,,
279,28.9,0m 28.9s,-23.74785961,-46.57691838,P-GPS,6.9,2.1,5.9,1.8,0.0,0.0,0.0,0.0,0.0,0.0,0,0,10,0,97,16.092,0.015,4.025,4.02,4.016,4.031,0,0,0,1,0.8,38.9,38.9,1024,1024,1024,1024,1024,,,,,
280,29,0m 29s,-23.74785966,-46.57691842,P-GPS,6.6,2.0,5.9,1.8,0.0,0.0,0.0,0.0,0.0,0.0,0,0,10,0,97,16.092,0.015,4.025,4.02,4.016,4.031,0,0,0,0.8,0.9,39.1,39.1,1024,1024,1024,1024,1024,,,,,
281,29.1,0m 29.1s,-23.74785965,-46.57691851,P-GPS,6.6,2.0,5.9,1.8,0.0,0.0,0.0,0.0,0.0,0.0,0,0,10,0,97,16.092,0.015,4.025,4.02,4.016,4.031,0,0,0,0,1.3,39.2,39.2,1024,1024,1024,1024,1024,,,,,
282,29.2,0m 29.2s,-23.74785977,-46.57691852,P-GPS,6.6,2.0,5.9,1.8,0.0,0.0,0.0,0.0,0.0,0.0,0,0,10,0,97,16.092,0.015,4.025,4.02,4.016,4.031,0,0,0,-0.2,0.7,38.9,38.9,1024,1024,1024,1024,1024,,,,,
283,29.3,0m 29.3s,-23.74785983,-46.57691854,P-GPS,6.6,2.0,5.9,1.8,0.2,0.1,0.0,0.0,0.0,0.0,0,0,10,0,97,16.092,0.015,4.025,4.02,4.016,4.031,0.1,0,0,0.3,0.2,39.2,39.2,1024,1024,1024,1024,1024,,,,,
284,29.4,0m 29.4s,-23.74786004,-46.57691849,P-GPS,6.6,2.0,5.9,1.8,0.0,0.0,0.0,0.0,0.0,0.0,0,0,10,0,97,16.092,0.015,4.025,4.02,4.016,4.031,0,0,0,0.6,0.4,39.3,39.3,1024,1024,1024,1024,1024,,,,,
285,29.5,0m 29.5s,-23.74786015,-46.57691852,P-GPS,6.6,2.0,5.9,1.8,0.0,0.0,0.0,0.0,0.0,0.0,0,0,10,0,97,16.092,0.015,4.025,4.02,4.016,4.031,0,0,0,0.6,0.6,39.2,39.2,1024,1024,1024,1024,1024,,,,,
286,29.6,0m 29.6s,-23.74786041,-46.57691846,P-GPS,6.6,2.0,6.2,1.9,0.0,0.0,1.1,0.5,0.0,0.0,0,0,10,0,97,16.092,0.015,4.025,4.02,4.016,4.031,0,0,0,0.7,0.4,39.4,39.4,1024,1024,1024,1024,1024,,,,,
287,29.7,0m 29.7s,-23.74786057,-46.57691848,P-GPS,6.6,2.0,6.2,1.9,0.0,0.0,0.0,0.0,0.0,0.0,0,0,10,0,97,16.092,0.015,4.025,4.02,4.016,4.031,0,0,0,0.7,0.1,39.3,39.3,1024,1024,1024,1024,1024,,,,,
288,29.8,0m 29.8s,-23.74786082,-46.57691846,P-GPS,6.6,2.0,6.2,1.9,0.2,0.1,1.1,0.5,0.0,0.0,0,0,9,1,97,16.092,0.015,4.025,4.02,4.016,4.031,0.1,0,0,0.2,0.9,39.3,39.3,1024,1024,1024,1024,1024,,,,,
289,29.9,0m 29.9s,-23.74786096,-46.57691852,P-GPS,6.6,2.0,6.2,1.9,0.0,0.0,0.0,0.0,0.0,0.0,0,0,9,1,97,16.092,0.015,4.025,4.02,4.016,4.031,0,0,0,0.3,1,39.3,39.3,1024,1024,1024,1024,1024,,,,,
290,30,0m 30s,-23.74786121,-46.57691851,P-GPS,6.6,2.0,6.2,1.9,0.0,0.0,0.0,0.0,0.0,0.0,0,0,9,1,97,16.092,0.015,4.025,4.02,4.016,4.031,0,0,0,0.2,1.6,39.2,39.2,1024,1024,1024,1024,1034,,,,,
291,30.1,0m 30.1s,-23.74786137,-46.57691857,P-GPS,6.6,2.0,6.2,1.9,0.0,0.0,0.0,0.0,0.0,0.0,0,0,9,1,97,16.092,0.015,4.025,4.02,4.016,4.031,0,0,0,0.2,1.5,39.3,39.3,1024,1024,1024,872,1250,,,,,
292,30.2,0m 30.2s,-23.7478616,-46.57691854,P-GPS,6.6,2.0,6.2,1.9,0.0,0.0,0.0,0.0,0.0,0.0,0,0,9,1,97,16.092,0.015,4.025,4.02,4.016,4.031,0,0,0,-0.1,1,39.4,39.4,1024,1024,1024,876,1346,,,,,
293,30.3,0m 30.3s,-23.74786173,-46.57691858,P-GPS,6.6,2.0,6.2,1.9,0.0,0.0,0.0,0.0,0.0,0.0,0,0,9,1,97,16.092,0.015,4.025,4.02,4.016,4.031,0,0,0,-0.1,0.9,39.1,39.1,1024,1024,1024,859,1409,,,,,
294,30.4,0m 30.4s,-23.74786191,-46.57691869,P-GPS,6.6,2.0,6.2,1.9,0.0,0.0,0.0,0.0,0.0,0.0,0,0,10,1,97,16.092,0.015,4.025,4.02,4.016,4.031,0,0,-0.1,-0.7,0.8,39,39,1024,1024,1024,850,1454,,,,,
295,30.5,0m 30.5s,-23.74786202,-46.57691889,P-GPS,6.9,2.1,6.2,1.9,0.0,0.0,0.0,0.0,0.0,0.0,0,0,10,1,97,16.113,0.015,4.026,4.026,4.023,4.038,0,0,-0.3,-0.8,0.9,38.7,38.7,1024,1024,1024,882,1447,,,,,
296,30.6,0m 30.6s,-23.74786219,-46.57691915,P-GPS,6.9,2.1,6.2,1.9,0.0,0.0,0.0,0.0,0.0,0.0,0,0,11,1,97,16.113,0.015,4.026,4.026,4.023,4.038,0,0,-0.5,-0.4,1.1,38.4,38.4,1024,1024,1024,898,1420,,,,,
297,30.7,0m 30.7s,-23.74786227,-46.57691945,P-GPS,7.2,2.2,6.6,2.0,0.0,0.0,0.0,0.0,0.0,0.0,0,0,11,1,97,16.113,0.015,4.026,4.026,4.023,4.038,0,0,-0.8,0,1.5,38.2,38.2,1024,1024,1024,903,1425,,,,,
298,30.8,0m 30.8s,-23.74786241,-46.57691974,P-GPS,7.2,2.2,6.9,2.1,0.0,0.0,0.0,0.0,0.0,0.0,0,0,11,1,97,16.113,0.015,4.026,4.026,4.023,4.038,0,0,-0.8,0.7,2.2,38.1,38.1,1024,1024,1024,870,1471,,,,,
299,30.9,0m 30.9s,-23.74786252,-46.57692001,P-GPS,7.5,2.3,7.2,2.2,0.0,0.0,0.0,0.0,0.0,0.0,0,0,11,1,97,16.113,0.015,4.026,4.026,4.023,4.038,0,0,-0.9,0.2,1.4,38,38,1024,1024,1024,860,1543,,,,,
300,31,0m 31s,-23.74786273,-46.57692021,P-GPS,7.9,2.4,7.5,2.3,0.0,0.0,0.0,0.0,0.0,0.0,0,0,11,1,97,16.113,0.015,4.026,4.026,4.023,4.038,0,0,-0.9,-0.1,0.6,37.9,37.9,1024,1024,1024,823,1633,,,,,
301,31.1,0m 31.1s,-23.74786285,-46.5769204,P-GPS,8.2,2.5,7.5,2.3,0.0,0.0,1.1,0.5,0.0,0.0,0,0,11,1,97,16.113,0.015,4.026,4.026,4.023,4.038,0,0,-1.2,0.3,-0.5,37.8,37.8,1024,1024,1024,826,1641,,,,,
302,31.2,0m 31.2s,-23.74786302,-46.57692052,P-GPS,8.9,2.7,8.2,2.5,0.2,0.1,0.0,0.0,0.0,0.0,0,0,11,1,97,16.113,0.015,4.026,4.026,4.023,4.038,0.1,0,-1.6,0,-1,37.5,37.5,1024,1024,1024,830,1643,,,,,
303,31.3,0m 31.3s,-23.74786308,-46.57692072,P-GPS,9.5,2.9,8.9,2.7,0.2,0.1,1.5,0.7,0.0,0.0,0,0,11,1,97,16.113,0.015,4.026,4.026,4.023,4.038,0.1,0,-2.2,-0.7,0.5,37.2,37.2,1024,1024,1024,812,1641,,,,,
304,31.4,0m 31.4s,-23.7478632,-46.57692078,P-GPS,10.2,3.1,9.5,2.9,0.4,0.2,0.0,0.0,0.0,0.0,0,0,11,4,97,16.113,0.015,4.026,4.026,4.023,4.038,0.2,0,-2.7,0.4,1.6,37,37,1024,1024,1024,809,1638,,,,,
305,31.5,0m 31.5s,-23.74786322,-46.57692088,P-GPS,11.2,3.4,10.5,3.2,0.2,0.1,0.0,0.0,0.0,0.0,-23.74786319,-46.57692075,11,4,97,16.113,0.015,4.026,4.026,4.023,4.038,0.1,0,-3.3,3,1.9,36.7,36.7,1024,1024,1024,808,1629,,,Home Point recorded. Return-to-Home Altitude:80M,,
306,31.6,0m 31.6s,-23.74786354,-46.576921,P-GPS,12.5,3.8,11.5,3.5,0.2,0.1,0.0,0.0,0.0,0.0,-23.74786319,-46.57692075,11,4,97,16.113,0.015,4.026,4.026,4.023,4.038,0,0,-3.6,3.9,2.4,36.4,36.4,1024,1024,1024,813,1626,,,,,
307,31.7,0m 31.7s,-23.74786387,-46.57692128,P-GPS,13.8,4.2,12.5,3.8,0.0,0.0,1.1,0.5,0.3,0.1,-23.74786319,-46.57692075,11,4,97,16.113,0.015,4.026,4.026,4.023,4.038,0,0,-3.8,2.2,2.3,36.2,36.2,1024,1024,1024,809,1626,,,,,
308,31.8,0m 31.8s,-23.74786436,-46.57692148,P-GPS,14.8,4.5,13.8,4.2,0.0,0.0,1.1,0.5,0.4,0.1,-23.74786319,-46.57692075,11,4,97,16.113,0.015,4.026,4.026,4.023,4.038,0,0,-3.8,0,1.3,35.9,35.9,1024,1024,1024,803,1636,,,,,
309,31.9,0m 31.9s,-23.74786473,-46.5769217,P-GPS,16.1,4.9,15.1,4.6,0.0,0.0,1.5,0.7,0.6,0.2,-23.74786319,-46.57692075,11,4,97,16.113,0.015,4.026,4.026,4.023,4.038,0,0,-3.9,-0.8,1.1,35.7,35.7,1024,1024,1024,805,1647,,,,,
310,32,0m 32s,-23.74786526,-46.57692176,P-GPS,17.4,5.3,16.4,5.0,0.0,0.0,1.1,0.5,0.8,0.2,-23.74786319,-46.57692075,11,4,97,16.113,0.015,4.026,4.026,4.023,4.038,0,0,-3.9,-1,1,35.4,35.4,1024,1024,1024,779,1684,,,,,
311,32.1,0m 32.1s,-23.74786568,-46.57692184,P-GPS,18.7,5.7,17.4,5.3,0.0,0.0,1.5,0.7,1.0,0.3,-23.74786319,-46.57692075,11,4,97,16.113,0.015,4.026,4.026,4.023,4.038,0,0,-3.9,0,0,35.1,35.1,1024,1024,1024,787,1684,,,,,
312,32.2,0m 32.2s,-23.7478661,-46.57692172,P-GPS,20.0,6.1,18.7,5.7,0.0,0.0,0.0,0.0,1.1,0.3,-23.74786319,-46.57692075,11,4,97,16.113,0.015,4.026,4.026,4.023,4.038,0,0,-4,-0.2,-0.9,34.6,34.6,1024,1024,1024,776,1684,,,,,
313,32.3,0m 32.3s,-23.74786635,-46.57692166,P-GPS,21.3,6.5,20.0,6.1,0.0,0.0,1.1,0.5,1.2,0.4,-23.74786319,-46.57692075,11,4,97,16.113,0.015,4.026,4.026,4.023,4.038,0,0,-4.3,0,-0.9,34.2,34.2,1024,1024,1024,776,1684,,,,,
314,32.4,0m 32.4s,-23.7478666,-46.57692149,P-GPS,22.6,6.9,21.7,6.6,0.0,0.0,0.0,0.0,1.3,0.4,-23.74786319,-46.57692075,13,4,97,16.113,0.015,4.026,4.026,4.023,4.038,0,0,-4.5,1.2,-1.1,33.6,33.6,1024,1024,1024,777,1684,,,,,
315,32.5,0m 32.5s,-23.74786679,-46.57692138,P-GPS,24.3,7.4,23.0,7.0,0.0,0.0,0.0,0.0,1.3,0.4,-23.74786319,-46.57692075,13,4,97,15.966,0.026,4.002,3.999,3.976,3.989,0,0,-4.6,2.2,-0.7,33.1,33.1,1024,1024,1024,783,1684,,,,,
316,32.6,0m 32.6s,-23.74786703,-46.57692114,P-GPS,25.9,7.9,24.6,7.5,0.0,0.0,1.1,0.5,1.4,0.4,-23.74786319,-46.57692075,13,4,97,15.966,0.026,4.002,3.999,3.976,3.989,0,0,-4.8,2,-0.1,32.8,32.8,1024,1024,1024,783,1684,,,,,
317,32.7,0m 32.7s,-23.74786723,-46.57692108,P-GPS,27.6,8.4,26.2,8.0,0.0,0.0,0.0,0.0,1.5,0.4,-23.74786319,-46.57692075,13,4,97,15.966,0.026,4.002,3.999,3.976,3.989,0,0,-4.9,0.4,0,32.5,32.5,1024,1024,1024,796,1684,,,,,
318,32.8,0m 32.8s,-23.7478675,-46.57692089,P-GPS,29.2,8.9,27.9,8.5,0.0,0.0,1.1,0.5,1.6,0.5,-23.74786319,-46.57692075,13,4,97,15.966,0.026,4.002,3.999,3.976,3.989,0,0,-5,-0.1,-0.2,32,32,1024,1024,1024,808,1684,,,,,
319,32.9,0m 32.9s,-23.74786769,-46.5769208,P-GPS,30.8,9.4,29.2,8.9,0.0,0.0,1.1,0.5,1.6,0.5,-23.74786319,-46.57692075,13,4,97,15.966,0.026,4.002,3.999,3.976,3.989,0,0,-5,0.7,0,31.5,31.5,1024,1024,1024,808,1684,,,,,
320,33,0m 33s,-23.7478679,-46.57692054,P-GPS,32.5,9.9,30.8,9.4,0.0,0.0,0.0,0.0,1.7,0.5,-23.74786319,-46.57692075,13,4,97,15.966,0.026,4.002,3.999,3.976,3.989,0,0,-5,1.6,0,31.1,31.1,1024,1024,1024,814,1684,,,,,
321,33.1,0m 33.1s,-23.74786805,-46.57692037,P-GPS,34.1,10.4,32.5,9.9,0.0,0.0,0.0,0.0,1.8,0.5,-23.74786319,-46.57692075,13,4,97,15.966,0.026,4.002,3.999,3.976,3.989,0,0,-5,1.8,0,30.9,30.9,1024,1024,1024,818,1679,,,,,
322,33.2,0m 33.2s,-23.74786827,-46.57691999,P-GPS,35.8,10.9,34.1,10.4,0.0,0.0,0.0,0.0,1.9,0.6,-23.74786319,-46.57692075,13,4,97,15.966,0.026,4.002,3.999,3.976,3.989,0,0,-4.9,1.1,-0.3,30.6,30.6,1024,1024,1024,832,1670,,,,,
323,33.4,0m 33.4s,-23.74786872,-46.57691926,P-GPS,38.7,11.8,37.1,11.3,0.0,0.0,1.4,0.6,2.1,0.6,-23.74786319,-46.57692075,13,4,97,15.966,0.026,4.002,3.999,3.976,3.989,0,0,-4.8,0.2,-1.5,29.9,29.9,1024,1024,1024,857,1674,,,,,
324,33.5,0m 33.5s,-23.74786894,-46.57691898,P-GPS,40.4,12.3,38.7,11.8,0.0,0.0,0.7,0.3,2.2,0.7,-23.74786319,-46.57692075,13,4,96,15.794,0.031,3.969,3.943,3.938,3.944,0,0,-4.7,0.1,-1.6,29.5,29.5,1024,1024,1024,849,1672,,,,,
325,33.6,0m 33.6s,-23.74786923,-46.57691859,P-GPS,42.0,12.8,40.0,12.2,0.2,0.1,1.1,0.5,2.3,0.7,-23.74786319,-46.57692075,13,4,96,15.794,0.031,3.969,3.943,3.938,3.944,0.1,0,-4.7,0.4,-2.4,29.1,29.1,1024,1024,1024,851,1676,,,,,
326,33.7,0m 33.7s,-23.74786939,-46.57691836,P-GPS,43.6,13.3,41.7,12.7,0.2,0.1,1.5,0.7,2.4,0.7,-23.74786319,-46.57692075,13,4,96,15.794,0.031,3.969,3.943,3.938,3.944,0.1,0,-4.7,1.8,-2,28.8,28.8,1024,1024,1024,838,1684,,,,,
327,33.8,0m 33.8s,-23.74786964,-46.57691814,P-GPS,44.9,13.7,43.3,13.2,0.2,0.1,0.0,0.0,2.5,0.8,-23.74786319,-46.57692075,13,4,96,15.794,0.031,3.969,3.943,3.938,3.944,0.1,0,-4.8,1.7,0,28.6,28.6,1024,1024,1024,863,1684,,,,,
328,33.9,0m 33.9s,-23.7478698,-46.57691804,P-GPS,46.6,14.2,44.6,13.6,0.2,0.1,0.0,0.0,2.6,0.8,-23.74786319,-46.57692075,13,4,96,15.794,0.031,3.969,3.943,3.938,3.944,0.1,0,-4.9,1.5,0.8,28.3,28.3,1024,1024,1024,865,1684,,,,,
329,34,0m 34s,-23.74787003,-46.57691781,P-GPS,48.2,14.7,46.3,14.1,0.2,0.1,0.0,0.0,2.7,0.8,-23.74786319,-46.57692075,13,4,96,15.794,0.031,3.969,3.943,3.938,3.944,0.1,0,-4.9,2.1,-0.8,28.2,28.2,1024,1024,1024,841,1684,,,,,
330,34.1,0m 34.1s,-23.74787013,-46.57691769,P-GPS,49.9,15.2,47.9,14.6,0.5,0.2,0.0,0.0,2.7,0.8,-23.74786319,-46.57692075,13,4,96,15.794,0.031,3.969,3.943,3.938,3.944,0.2,-0.1,-5,2.3,-1.1,28,28,1024,1024,1024,858,1684,,,,,
331,34.2,0m 34.2s,-23.74787026,-46.57691758,P-GPS,51.5,15.7,49.5,15.1,0.6,0.3,0.0,0.0,2.8,0.8,-23.74786319,-46.57692075,13,4,96,15.794,0.031,3.969,3.943,3.938,3.944,0.2,-0.2,-5,2.8,0.5,27.7,27.7,1024,1024,1024,856,1684,,,,,
332,34.3,0m 34.3s,-23.74787027,-46.57691764,P-GPS,53.5,16.3,51.2,15.6,0.9,0.4,0.0,0.0,2.8,0.8,-23.74786319,-46.57692075,13,4,96,15.794,0.031,3.969,3.943,3.938,3.944,0.3,-0.3,-5.1,4,2.9,27.5,27.5,1024,1024,1024,875,1684,,,,,
333,34.4,0m 34.4s,-23.7478704,-46.5769177,P-GPS,55.1,16.8,,,0.9,0.4,1.1,0.5,2.8,0.9,-23.74786319,-46.57692075,14,4,96,15.794,0.031,3.969,3.943,3.938,3.944,0.3,-0.3,-5.1,3.9,4.7,27.1,27.1,1024,1024,1024,937,1684,,,,,
