Id,Time(seconds),Time(text),Latitude,Longitude,FlightMode,Altitude(feet),Altitude(meters),VpsAltitude(feet),VpsAltitude(meters),HSpeed(mph),HSpeed(m/s),GpsSpeed(mph),GpsSpeed(m/s),HomeDistance(feet),HomeDistance(meters),HomeLatitude,HomeLongitude,GpsCount,GpsLevel,BatteryPower(%),BatteryVoltage,BatteryVoltageDeviation,BatteryCell1Voltage,BatteryCell2Voltage,BatteryCell3Voltage,BatteryCell4Voltage,VelocityX,VelocityY,VelocityZ,Pitch,Roll,Yaw,Yaw(360),RcAileron,RcElevator,RcGyro,RcRudder,RcThrottle,NonGpsError,GoHomeStatus,AppTip,AppWarning,AppMessage
1,0.1,0m 0.1s,0,0,Starting Motors,0.0,0.0,0.3,0.1,0.0,0.0,0.0,0.0,0.0,0.0,0,0,0,0,98,17.049,0.009,4.263,4.256,4.265,4.265,0,0,0,2.7,2.6,-28.7,331.3,0,0,0,0,0,,,,,
2,0.2,0m 0.2s,0,0,Starting Motors,0.0,0.0,0.3,0.1,0.0,0.0,0.0,0.0,0.0,0.0,0,0,8,0,98,17.049,0.009,4.263,4.256,4.265,4.265,0,0,0,2.7,2.5,-29.2,330.8,0,0,0,0,0,,,,,
3,0.3,0m 0.3s,0,0,Starting Motors,0.0,0.0,0.3,0.1,0.0,0.0,0.0,0.0,0.0,0.0,0,0,8,0,98,17.049,0.009,4.263,4.256,4.265,4.265,0,0,0,2.7,2.6,-29.5,330.5,0,0,0,0,0,,,,,
4,0.4,0m 0.4s,0,0,Starting Motors,0.0,0.0,0.3,0.1,0.0,0.0,0.0,0.0,0.0,0.0,0,0,8,0,98,17.049,0.009,4.263,4.256,4.265,4.265,0,0,0,2.6,2.5,-29.9,330.1,0,0,0,0,0,,,,,
5,0.5,0m 0.5s,0,0,Starting Motors,0.0,0.0,0.3,0.1,0.0,0.0,0.0,0.0,0.0,0.0,0,0,8,0,98,17.049,0.009,4.263,4.256,4.265,4.265,0,0,0,2.7,2.5,-30.4,329.6,0,0,0,0,0,,,,,
6,0.6,0m 0.6s,0,0,Starting Motors,0.0,0.0,0.3,0.1,0.0,0.0,0.0,0.0,0.0,0.0,0,0,8,0,98,17.049,0.009,4.263,4.256,4.265,4.265,0,0,0,2.7,2.5,-30.7,329.3,0,0,0,0,0,,,,,
7,0.7,0m 0.7s,0,0,Starting Motors,0.0,0.0,0.3,0.1,0.0,0.0,0.0,0.0,0.0,0.0,0,0,8,0,98,17.049,0.009,4.263,4.256,4.265,4.265,0,0,0,2.6,2.5,-30.9,329.1,0,0,0,0,0,,,,,
8,0.8,0m 0.8s,0,0,Starting Motors,0.0,0.0,0.3,0.1,0.0,0.0,0.0,0.0,0.0,0.0,0,0,8,0,98,17.049,0.009,4.263,4.256,4.265,4.265,0,0,0,2.6,2.5,-31.2,328.8,0,0,0,0,0,,,,,
9,0.9,0m 0.9s,0,0,Starting Motors,0.0,0.0,0.3,0.1,0.0,0.0,0.0,0.0,0.0,0.0,0,0,8,0,98,17.049,0.009,4.263,4.256,4.265,4.265,0,0,0,2.6,2.6,-31.6,328.4,0,0,0,0,0,,,,,
10,1,0m 1s,0,0,Starting Motors,0.0,0.0,0.3,0.1,0.0,0.0,0.0,0.0,0.0,0.0,0,0,8,0,98,17.049,0.009,4.263,4.256,4.265,4.265,0,0,0,2.6,2.5,-32.1,327.9,0,0,0,0,0,,,,,
11,1.1,0m 1.1s,0,0,Starting Motors,0.0,0.0,0.3,0.1,0.0,0.0,0.0,0.0,0.0,0.0,0,0,8,0,98,17.049,0.009,4.263,4.256,4.265,4.265,0,0,0,2.6,2.5,-32.5,327.5,0,0,0,0,0,,,,,
12,1.2,0m 1.2s,0,0,Starting Motors,0.0,0.0,0.3,0.1,0.0,0.0,0.0,0.0,0.0,0.0,0,0,8,0,98,17.049,0.009,4.263,4.256,4.265,4.265,0,0,0,2.7,2.6,-33.1,326.9,0,0,0,0,0,,,,,
13,1.3,0m 1.3s,0,0,Starting Motors,0.0,0.0,0.3,0.1,0.0,0.0,0.0,0.0,0.0,0.0,0,0,8,0,98,17.049,0.009,4.263,4.256,4.265,4.265,0,0,0,2.7,2.5,-33.5,326.5,0,0,0,0,0,,,,,
14,1.4,0m 1.4s,0,0,Starting Motors,0.0,0.0,0.3,0.1,0.0,0.0,0.0,0.0,0.0,0.0,0,0,8,0,98,17.049,0.009,4.263,4.256,4.265,4.265,0,0,0,2.6,2.5,-33.9,326.1,0,0,0,0,0,,,,,
15,1.5,0m 1.5s,0,0,Auto Takeoff,0.0,0.0,0.3,0.1,0.0,0.0,0.0,0.0,0.0,0.0,0,0,8,0,98,17.049,0.009,4.263,4.256,4.265,4.265,0,0,0,2.7,2.5,-34.6,325.4,0,0,0,0,0,,,,,
16,1.6,0m 1.6s,0,0,Auto Takeoff,0.0,0.0,0.3,0.1,0.0,0.0,0.0,0.0,0.0,0.0,0,0,8,0,98,17.049,0.009,4.263,4.256,4.265,4.265,0,0,0,2.6,2.5,-34.9,325.1,0,0,0,0,0,,,,,
17,1.7,0m 1.7s,0,0,Auto Takeoff,0.0,0.0,0.3,0.1,0.0,0.0,0.0,0.0,0.0,0.0,0,0,8,0,98,17.049,0.009,4.263,4.256,4.265,4.265,0,0,0,2.6,2.5,-35.3,324.7,0,0,0,0,0,,,,,
18,1.8,0m 1.8s,0,0,Auto Takeoff,0.0,0.0,0.3,0.1,0.0,0.0,0.0,0.0,0.0,0.0,0,0,8,0,98,17.049,0.009,4.263,4.256,4.265,4.265,0,0,0,2.5,2.5,-35.5,324.5,0,0,0,0,0,,,,,
19,1.9,0m 1.9s,0,0,Auto Takeoff,0.0,0.0,0.3,0.1,0.0,0.0,0.0,0.0,0.0,0.0,0,0,8,0,98,17.049,0.009,4.263,4.256,4.265,4.265,0,0,0,2.5,2.5,-36.1,323.9,0,0,0,0,0,,,,,
20,2,0m 2s,0,0,Auto Takeoff,0.0,0.0,0.3,0.1,0.0,0.0,0.0,0.0,0.0,0.0,0,0,8,0,98,17.049,0.009,4.263,4.256,4.265,4.265,0,0,0,2.3,2.5,-36.3,323.7,0,0,0,0,0,,,,,
21,2.1,0m 2.1s,0,0,Auto Takeoff,0.0,0.0,0.3,0.1,0.0,0.0,0.0,0.0,0.0,0.0,0,0,8,0,98,17.029,0.011,4.257,4.251,4.262,4.259,0,0,0,2.2,2.5,-36.5,323.5,0,0,0,0,0,,,,,
22,2.2,0m 2.2s,0,0,Auto Takeoff,0.0,0.0,0.3,0.1,0.0,0.0,0.0,0.0,0.0,0.0,0,0,8,0,98,17.029,0.011,4.257,4.251,4.262,4.259,0,0,0,1.5,2.5,-36.7,323.3,0,0,0,0,0,,,,,
23,2.3,0m 2.3s,0,0,Auto Takeoff,0.0,0.0,0.3,0.1,0.0,0.0,0.0,0.0,0.0,0.0,0,0,8,0,98,17.029,0.011,4.257,4.251,4.262,4.259,0,0,0,-0.6,1.9,-37.1,322.9,0,0,0,0,0,,,,,
24,2.4,0m 2.4s,0,0,Auto Takeoff,0.0,0.0,0.3,0.1,0.0,0.0,0.0,0.0,0.0,0.0,0,0,8,0,98,17.029,0.011,4.257,4.251,4.262,4.259,0,0,-0.2,-2,0.9,-37.2,322.8,0,0,0,0,0,,,,,
25,2.5,0m 2.5s,0,0,Auto Takeoff,0.0,0.0,0.7,0.2,0.2,0.1,0.0,0.0,0.0,0.0,0,0,8,0,98,17.029,0.011,4.257,4.251,4.262,4.259,0.1,0,-0.4,-1.4,-0.2,-37.2,322.8,0,0,0,0,0,,,,,
26,2.6,0m 2.6s,0,0,Auto Takeoff,0.3,0.1,0.7,0.2,0.2,0.1,0.0,0.0,0.0,0.0,0,0,8,0,98,17.029,0.011,4.257,4.251,4.262,4.259,0.1,0,-0.5,0,-0.7,-37.4,322.6,0,0,0,0,0,,,,,
27,2.7,0m 2.7s,0,0,Auto Takeoff,0.3,0.1,1.0,0.3,0.2,0.1,0.0,0.0,0.0,0.0,0,0,8,0,98,17.029,0.011,4.257,4.251,4.262,4.259,0.1,0,-0.6,0.5,-0.6,-37.5,322.5,0,0,0,0,0,,,,,
28,2.8,0m 2.8s,0,0,Auto Takeoff,0.7,0.2,1.0,0.3,0.2,0.1,0.0,0.0,0.0,0.0,0,0,8,0,98,17.029,0.011,4.257,4.251,4.262,4.259,0.1,0,-0.6,0.9,-0.4,-37.6,322.4,0,0,0,0,0,,,,,
29,2.9,0m 2.9s,0,0,Auto Takeoff,1.0,0.3,1.3,0.4,0.2,0.1,0.0,0.0,0.0,0.0,0,0,8,0,98,17.029,0.011,4.257,4.251,4.262,4.259,0.1,0,-0.6,1.6,-0.4,-37.5,322.5,0,0,0,0,0,,,,,
30,3,0m 3s,0,0,Auto Takeoff,1.0,0.3,1.3,0.4,0.2,0.1,0.0,0.0,0.0,0.0,0,0,8,0,98,17.029,0.011,4.257,4.251,4.262,4.259,0.1,0,-0.5,2.4,-0.1,-37.7,322.3,0,0,0,0,0,,,,,
31,3.1,0m 3.1s,0,0,Auto Takeoff,1.3,0.4,1.6,0.5,0.2,0.1,0.0,0.0,0.0,0.0,0,0,8,0,98,16.906,0.021,4.238,4.224,4.227,4.217,0.1,0,-0.5,2.8,0,-37.9,322.1,0,0,0,0,0,,,,,
32,3.2,0m 3.2s,0,0,Auto Takeoff,1.3,0.4,1.6,0.5,0.2,0.1,0.0,0.0,0.0,0.0,0,0,8,0,98,16.906,0.021,4.238,4.224,4.227,4.217,0.1,0,-0.4,2.9,-0.1,-37.7,322.3,0,0,0,0,0,,,,,
33,3.3,0m 3.3s,0,0,Auto Takeoff,1.6,0.5,2.0,0.6,0.0,0.0,0.0,0.0,0.0,0.0,0,0,8,0,98,16.906,0.021,4.238,4.224,4.227,4.217,0,0,-0.4,2.8,-0.1,-37.6,322.4,0,0,0,0,0,,,,,
34,3.4,0m 3.4s,0,0,Auto Takeoff,1.6,0.5,2.0,0.6,0.0,0.0,0.0,0.0,0.0,0.0,0,0,8,0,98,16.906,0.021,4.238,4.224,4.227,4.217,0,0,-0.4,2.4,-0.9,-37.5,322.5,0,0,0,0,0,,,,,
35,3.5,0m 3.5s,0,0,Auto Takeoff,1.6,0.5,2.0,0.6,0.0,0.0,0.0,0.0,0.0,0.0,0,0,8,0,98,16.906,0.021,4.238,4.224,4.227,4.217,0,0,-0.4,2.3,-1.4,-37.2,322.8,0,0,0,0,0,,,,,
36,3.6,0m 3.6s,0,0,Auto Takeoff,2.0,0.6,2.3,0.7,0.0,0.0,0.0,0.0,0.0,0.0,0,0,8,0,98,16.906,0.021,4.238,4.224,4.227,4.217,0,0,-0.4,2.5,-0.8,-37.2,322.8,0,0,0,0,0,,,,,
37,3.7,0m 3.7s,0,0,Auto Takeoff,2.0,0.6,2.3,0.7,0.0,0.0,0.0,0.0,0.0,0.0,0,0,8,0,98,16.906,0.021,4.238,4.224,4.227,4.217,0,0,-0.4,2.4,-0.6,-37.2,322.8,0,0,0,0,0,,,,,
38,3.8,0m 3.8s,0,0,Auto Takeoff,2.3,0.7,2.6,0.8,0.0,0.0,0.0,0.0,0.0,0.0,0,0,8,0,98,16.906,0.021,4.238,4.224,4.227,4.217,0,0,-0.4,2.5,-0.7,-37.1,322.9,0,0,0,0,0,,,,,
39,3.9,0m 3.9s,0,0,Auto Takeoff,2.3,0.7,2.6,0.8,0.0,0.0,0.0,0.0,0.0,0.0,0,0,8,0,98,16.906,0.021,4.238,4.224,4.227,4.217,0,0,-0.4,2.3,-0.5,-37.1,322.9,0,0,0,0,0,,,,,
40,4,0m 4s,0,0,Auto Takeoff,2.6,0.8,3.0,0.9,0.0,0.0,0.0,0.0,0.0,0.0,0,0,8,0,98,16.906,0.021,4.238,4.224,4.227,4.217,0,0,-0.4,2.1,-0.4,-37.2,322.8,0,0,0,0,0,,,,,
41,4.1,0m 4.1s,0,0,Auto Takeoff,2.6,0.8,3.0,0.9,0.0,0.0,0.0,0.0,0.0,0.0,0,0,8,0,98,16.419,0.022,4.103,4.092,4.114,4.11,0,0,-0.4,2,0,-37.2,322.8,0,0,0,0,0,,,,,
42,4.3,0m 4.3s,-23.76208395,-46.59735559,Auto Takeoff,3.0,0.9,3.3,1.0,0.0,0.0,0.0,0.0,0.0,0.0,0,0,8,0,98,16.419,0.022,4.103,4.092,4.114,4.11,0,0,-0.4,2.5,0.2,-37.3,322.7,0,0,0,0,0,,,,,
43,4.4,0m 4.4s,-23.76208393,-46.59735563,Auto Takeoff,3.3,1.0,3.3,1.0,0.0,0.0,0.0,0.0,0.0,0.0,0,0,8,0,98,16.419,0.022,4.103,4.092,4.114,4.11,0,0,-0.4,2.7,0.2,-37.2,322.8,0,0,0,0,0,,,,,
44,4.5,0m 4.5s,-23.76208425,-46.59735558,P-GPS,3.3,1.0,3.6,1.1,0.0,0.0,0.0,0.0,0.0,0.0,0,0,8,0,98,16.419,0.022,4.103,4.092,4.114,4.11,0,0,-0.4,2.3,0.6,-37.3,322.7,0,0,0,0,0,GPS Position NoMatch,,,GPS Position NoMatch,
45,4.6,0m 4.6s,-23.76208492,-46.59735542,P-GPS,3.6,1.1,3.6,1.1,0.0,0.0,1.5,0.7,0.0,0.0,0,0,8,0,98,16.419,0.022,4.103,4.092,4.114,4.11,0,0,-0.3,2.3,1.1,-37.3,322.7,0,0,0,0,0,GPS Position NoMatch,,,GPS Position NoMatch,
46,4.7,0m 4.7s,-23.76208564,-46.59735524,P-GPS,3.6,1.1,3.9,1.2,0.0,0.0,1.8,0.8,0.0,0.0,0,0,8,0,98,16.419,0.022,4.103,4.092,4.114,4.11,0,0,-0.2,2.2,0.7,-37.3,322.7,0,0,0,0,0,GPS Position NoMatch,,,GPS Position NoMatch,
47,4.8,0m 4.8s,-23.76208614,-46.59735509,P-GPS,3.6,1.1,3.9,1.2,0.0,0.0,1.5,0.7,0.0,0.0,0,0,8,0,98,16.419,0.022,4.103,4.092,4.114,4.11,0,0,-0.1,2.5,0,-37.2,322.8,1024,1024,1024,1024,1038,GPS Position NoMatch,,,GPS Position NoMatch,
48,4.9,0m 4.9s,-23.76208662,-46.59735498,P-GPS,3.6,1.1,3.9,1.2,0.0,0.0,1.5,0.7,0.0,0.0,0,0,8,0,98,16.419,0.022,4.103,4.092,4.114,4.11,0,0,0,2.5,-0.2,-37.2,322.8,1024,1024,1024,1024,1024,GPS Position NoMatch,,,GPS Position NoMatch,
49,5,0m 5s,-23.76208692,-46.59735495,P-GPS,3.6,1.1,3.9,1.2,0.0,0.0,1.1,0.5,0.0,0.0,0,0,8,0,98,16.419,0.022,4.103,4.092,4.114,4.11,0,0,0,2.3,0,-37.2,322.8,1024,1024,1024,1024,1024,,,,,
50,5.1,0m 5.1s,-23.7620872,-46.59735497,P-GPS,3.6,1.1,3.9,1.2,0.0,0.0,0.0,0.0,0.0,0.0,0,0,8,0,98,16.419,0.022,4.103,4.092,4.114,4.11,0,0,0,2.3,0.3,-37.3,322.7,1024,1024,1024,1024,1121,,,,,
51,5.2,0m 5.2s,-23.76208741,-46.59735501,P-GPS,3.6,1.1,3.9,1.2,0.0,0.0,0.0,0.0,0.0,0.0,0,0,8,0,98,16.419,0.022,4.103,4.092,4.114,4.11,0,0,0,2.4,0.5,-37.3,322.7,1024,1024,1024,1024,1340,,,,,
52,5.3,0m 5.3s,-23.76208751,-46.59735511,P-GPS,3.6,1.1,3.9,1.2,0.0,0.0,0.0,0.0,0.0,0.0,0,0,8,0,98,16.419,0.022,4.103,4.092,4.114,4.11,0,0,0,2.4,0.1,-37.3,322.7,1024,1024,1024,1024,1505,,,,,
53,5.4,0m 5.4s,-23.76208757,-46.59735518,P-GPS,3.6,1.1,3.9,1.2,0.0,0.0,0.0,0.0,0.0,0.0,0,0,8,0,98,16.419,0.022,4.103,4.092,4.114,4.11,0,0,0,2.4,-0.4,-37.2,322.8,1024,1024,1024,1024,1569,,,,,
54,5.5,0m 5.5s,-23.7620875,-46.59735531,P-GPS,3.6,1.1,3.9,1.2,0.0,0.0,0.0,0.0,0.0,0.0,0,0,8,4,98,16.419,0.022,4.103,4.092,4.114,4.11,0,0,-0.2,2.2,-0.4,-37.1,322.9,1024,1024,1024,1024,1570,,,,,
55,5.6,0m 5.6s,-23.76208746,-46.59735543,P-GPS,3.9,1.2,3.9,1.2,0.0,0.0,0.0,0.0,0.0,0.0,0,0,8,4,98,16.419,0.022,4.103,4.092,4.114,4.11,0,0,-0.6,1.6,-0.2,-37.2,322.8,1024,1024,1024,1024,1566,,,,,
56,5.7,0m 5.7s,-23.76208747,-46.59735556,P-GPS,3.9,1.2,4.3,1.3,0.0,0.0,0.0,0.0,0.0,0.0,0,0,8,4,98,16.419,0.022,4.103,4.092,4.114,4.11,0,0,-1.1,1.7,0.2,-37.2,322.8,1024,1024,1024,1024,1568,,,,,
57,5.8,0m 5.8s,-23.76208757,-46.59735564,P-GPS,4.6,1.4,4.6,1.4,0.0,0.0,0.0,0.0,0.0,0.0,0,0,8,4,98,16.419,0.022,4.103,4.092,4.114,4.11,0,0,-1.6,3,0.2,-37.2,322.8,1024,1024,1024,1024,1575,,,,,
58,5.9,0m 5.9s,-23.76208764,-46.59735573,P-GPS,5.2,1.6,5.2,1.6,0.0,0.0,0.0,0.0,0.0,0.0,0,0,8,4,98,16.419,0.022,4.103,4.092,4.114,4.11,0,0,-2,3.4,-0.2,-37.2,322.8,1024,1024,1024,1024,1583,,,,,
59,6,0m 6s,-23.76208774,-46.59735578,P-GPS,5.9,1.8,5.9,1.8,0.0,0.0,0.0,0.0,0.0,0.0,0,0,8,4,98,16.419,0.022,4.103,4.092,4.114,4.11,0,0,-2.3,2.5,-0.6,-37.2,322.8,1024,1024,1024,1024,1559,,,,,
60,6.1,0m 6.1s,-23.76208784,-46.59735595,P-GPS,6.9,2.1,6.9,2.1,0.0,0.0,0.0,0.0,0.0,0.0,-23.76208751,-46.59735531,9,4,98,16.397,0.025,4.107,4.082,4.105,4.103,0,0,-2.5,1.7,-0.6,-37.1,322.9,1024,1024,1024,1024,1558,,,Home Point recorded. Return-to-Home Altitude:80M,,
61,6.2,0m 6.2s,-23.76208793,-46.59735616,P-GPS,7.5,2.3,7.5,2.3,0.0,0.0,0.0,0.0,0.4,0.1,-23.76208751,-46.59735531,9,4,98,16.397,0.025,4.107,4.082,4.105,4.103,0,0,-2.6,1.8,-0.4,-37.1,322.9,1024,1024,1024,1024,1562,,,,,
62,6.3,0m 6.3s,-23.76208797,-46.59735648,P-GPS,8.5,2.6,8.5,2.6,0.0,0.0,0.0,0.0,0.3,0.1,-23.76208751,-46.59735531,9,4,98,16.397,0.025,4.107,4.082,4.105,4.103,0,0,-2.6,2.6,-0.6,-37.1,322.9,1024,1024,1024,1024,1577,,,,,
63,6.4,0m 6.4s,-23.76208804,-46.59735676,P-GPS,9.2,2.8,9.2,2.8,0.0,0.0,0.0,0.0,0.4,0.1,-23.76208751,-46.59735531,9,4,98,16.397,0.025,4.107,4.082,4.105,4.103,0,0,-2.5,2.7,-0.7,-37.1,322.9,1024,1024,1024,1024,1577,,,,,
64,6.5,0m 6.5s,-23.76208816,-46.59735707,P-GPS,10.2,3.1,9.8,3.0,0.0,0.0,0.0,0.0,0.5,0.2,-23.76208751,-46.59735531,9,4,98,16.397,0.025,4.107,4.082,4.105,4.103,0,0,-2.5,2.2,-1.1,-37.1,322.9,1024,1024,1024,1024,1594,,,,,
65,6.6,0m 6.6s,-23.76208834,-46.59735734,P-GPS,10.8,3.3,10.8,3.3,0.0,0.0,0.0,0.0,0.8,0.2,-23.76208751,-46.59735531,9,4,98,16.397,0.025,4.107,4.082,4.105,4.103,0,0,-2.5,1.6,-0.5,-37.1,322.9,1024,1024,1024,1024,1616,,,,,
66,6.7,0m 6.7s,-23.76208846,-46.59735769,P-GPS,11.8,3.6,11.5,3.5,0.0,0.0,1.1,0.5,0.9,0.3,-23.76208751,-46.59735531,9,4,98,16.397,0.025,4.107,4.082,4.105,4.103,0,0,-2.5,1.5,0,-37.1,322.9,1024,1024,1024,1024,1644,,,,,
67,6.8,0m 6.8s,-23.76208856,-46.59735802,P-GPS,12.8,3.9,12.5,3.8,0.0,0.0,1.1,0.5,0.9,0.3,-23.76208751,-46.59735531,9,4,98,16.397,0.025,4.107,4.082,4.105,4.103,0,0,-2.7,1.5,0.6,-37.1,322.9,1024,1024,1024,1024,1667,,,,,
68,6.9,0m 6.9s,-23.76208865,-46.5973583,P-GPS,13.5,4.1,13.5,4.1,0.0,0.0,1.5,0.7,1.1,0.3,-23.76208751,-46.59735531,9,4,98,16.397,0.025,4.107,4.082,4.105,4.103,0,0,-3,1.3,0.6,-37,323,1024,1024,1024,1024,1667,,,,,
69,7,0m 7s,-23.76208875,-46.59735852,P-GPS,14.8,4.5,14.4,4.4,0.0,0.0,0.0,0.0,1.2,0.4,-23.76208751,-46.59735531,9,4,98,16.397,0.025,4.107,4.082,4.105,4.103,0,0,-3.4,1,0.2,-37.1,322.9,1024,1024,1024,1024,1684,,,,,
70,7.1,0m 7.1s,-23.76208868,-46.59735873,P-GPS,15.7,4.8,15.4,4.7,0.0,0.0,0.0,0.0,1.2,0.4,-23.76208751,-46.59735531,9,4,98,16.069,0.036,4.01,3.996,4.032,4.031,0,0,-3.8,1.6,-0.3,-37.1,322.9,1024,1024,1024,1024,1684,,,,,
71,7.2,0m 7.2s,-23.76208857,-46.59735895,P-GPS,17.1,5.2,16.7,5.1,0.0,0.0,0.0,0.0,1.2,0.4,-23.76208751,-46.59735531,9,4,98,16.069,0.036,4.01,3.996,4.032,4.031,0,0,-4.2,1.5,-0.7,-37,323,1024,1024,1024,1024,1684,,,,,
72,7.3,0m 7.3s,-23.76208846,-46.59735916,P-GPS,18.7,5.7,18.0,5.5,0.0,0.0,0.0,0.0,1.3,0.4,-23.76208751,-46.59735531,9,4,98,16.069,0.036,4.01,3.996,4.032,4.031,0,0,-4.5,1.9,-0.2,-37.1,322.9,1024,1024,1024,1024,1684,,,,,
73,7.4,0m 7.4s,-23.76208846,-46.59735937,P-GPS,20.0,6.1,19.7,6.0,0.2,0.1,0.0,0.0,1.4,0.4,-23.76208751,-46.59735531,9,4,98,16.069,0.036,4.01,3.996,4.032,4.031,-0.1,0,-4.7,1.1,0.5,-37.1,322.9,1024,1024,1024,1024,1684,,,,,
74,7.5,0m 7.5s,-23.76208852,-46.59735951,P-GPS,21.7,6.6,21.3,6.5,0.2,0.1,1.1,0.5,1.5,0.4,-23.76208751,-46.59735531,9,4,98,16.069,0.036,4.01,3.996,4.032,4.031,0,0,-4.8,1.2,0.4,-37.1,322.9,1024,1024,1024,1024,1684,,,,,
75,7.6,0m 7.6s,-23.76208863,-46.59735966,P-GPS,23.3,7.1,23.0,7.0,0.0,0.0,0.0,0.0,1.5,0.5,-23.76208751,-46.59735531,9,4,98,16.069,0.036,4.01,3.996,4.032,4.031,0,0,-4.9,1.5,0.5,-37.1,322.9,1024,1024,1024,1024,1684,,,,,
76,7.7,0m 7.7s,-23.76208881,-46.59735971,P-GPS,24.9,7.6,24.3,7.4,0.0,0.0,1.1,0.5,1.6,0.5,-23.76208751,-46.59735531,9,4,98,16.069,0.036,4.01,3.996,4.032,4.031,0,0,-4.9,1.6,0.4,-37.1,322.9,1024,1024,1024,1024,1684,,,,,
77,7.8,0m 7.8s,-23.76208898,-46.59735977,P-GPS,26.6,8.1,25.9,7.9,0.0,0.0,0.0,0.0,1.6,0.5,-23.76208751,-46.59735531,9,4,98,16.069,0.036,4.01,3.996,4.032,4.031,0,0,-5,1,0.3,-37.1,322.9,1024,1024,1024,1024,1684,,,,,
78,7.9,0m 7.9s,-23.76208918,-46.59735974,P-GPS,28.2,8.6,27.6,8.4,0.0,0.0,0.0,0.0,1.6,0.5,-23.76208751,-46.59735531,9,4,98,16.069,0.036,4.01,3.996,4.032,4.031,0,0,-5,0.9,-0.4,-37,323,1024,1024,1024,1024,1684,,,,,
79,8,0m 8s,-23.76208932,-46.59735975,P-GPS,29.9,9.1,29.2,8.9,0.0,0.0,0.0,0.0,1.6,0.5,-23.76208751,-46.59735531,9,4,98,16.069,0.036,4.01,3.996,4.032,4.031,0,0,-5,0.4,-1.3,-37,323,1024,1024,1024,1024,1684,,,,,
80,8.1,0m 8.1s,-23.76208947,-46.59735973,P-GPS,31.5,9.6,30.8,9.4,0.0,0.0,1.1,0.5,1.6,0.5,-23.76208751,-46.59735531,9,4,98,15.947,0.034,3.994,3.963,3.993,3.997,0,0,-5,0.8,-0.9,-37,323,1024,1024,1024,1024,1684,,,,,
81,8.2,0m 8.2s,-23.76208958,-46.59735979,P-GPS,33.1,10.1,32.5,9.9,0.0,0.0,0.0,0.0,1.6,0.5,-23.76208751,-46.59735531,9,4,98,15.947,0.034,3.994,3.963,3.993,3.997,0,0,-5,1.7,-0.2,-37,323,1024,1024,1024,1024,1684,,,,,
82,8.3,0m 8.3s,-23.76208974,-46.59735981,P-GPS,34.8,10.6,34.1,10.4,0.0,0.0,0.0,0.0,1.7,0.5,-23.76208751,-46.59735531,9,4,98,15.947,0.034,3.994,3.963,3.993,3.997,0,0,-5,2.4,-0.4,-37,323,1024,1024,1024,938,1684,,,,,
83,8.4,0m 8.4s,-23.76208992,-46.59735989,P-GPS,36.4,11.1,35.8,10.9,0.0,0.0,0.0,0.0,1.8,0.5,-23.76208751,-46.59735531,9,4,98,15.947,0.034,3.994,3.963,3.993,3.997,0,0,-5,2,-0.7,-36.9,323.1,1024,1024,1024,970,1684,,,,,
84,8.5,0m 8.5s,-23.76209015,-46.59735997,P-GPS,38.1,11.6,37.4,11.4,0.2,0.1,0.0,0.0,1.8,0.6,-23.76208751,-46.59735531,9,4,98,15.947,0.034,3.994,3.963,3.993,3.997,0,-0.1,-5,1.9,0.8,-36.9,323.1,1024,1024,1024,997,1684,,,,,
85,8.6,0m 8.6s,-23.76209034,-46.59736009,P-GPS,39.7,12.1,39.0,11.9,0.2,0.1,0.0,0.0,1.9,0.6,-23.76208751,-46.59735531,9,4,98,15.947,0.034,3.994,3.963,3.993,3.997,0,-0.1,-5,3.1,2.2,-37,323,1024,1024,1024,984,1684,,,,,
86,8.7,0m 8.7s,-23.76209041,-46.59736013,P-GPS,41.3,12.6,40.7,12.4,0.2,0.1,0.0,0.0,1.9,0.6,-23.76208751,-46.59735531,9,4,98,15.947,0.034,3.994,3.963,3.993,3.997,0.1,0,-5,3.8,0.6,-36.9,323.1,1024,1024,1024,1003,1684,,,,,
87,8.8,0m 8.8s,-23.76209042,-46.59736017,P-GPS,43.0,13.1,42.0,12.8,0.2,0.1,0.0,0.0,1.9,0.6,-23.76208751,-46.59735531,9,4,98,15.947,0.034,3.994,3.963,3.993,3.997,0.1,0,-5,3.1,-0.8,-36.8,323.2,1024,1024,1024,1010,1684,,,,,
88,8.9,0m 8.9s,-23.76209028,-46.59736021,P-GPS,44.6,13.6,43.6,13.3,0.3,0.1,0.0,0.0,1.9,0.6,-23.76208751,-46.59735531,9,4,98,15.947,0.034,3.994,3.963,3.993,3.997,0.1,-0.1,-5,3.1,-0.6,-36.8,323.2,1024,1024,1024,1012,1684,,,,,
89,9,0m 9s,-23.76209015,-46.5973603,P-GPS,46.3,14.1,45.3,13.8,0.3,0.1,0.0,0.0,1.9,0.6,-23.76208751,-46.59735531,9,4,98,15.947,0.034,3.994,3.963,3.993,3.997,0.1,-0.1,-5,3.9,-0.1,-36.8,323.2,1024,1024,1024,1005,1684,,,,,
90,9.1,0m 9.1s,-23.76208986,-46.59736042,P-GPS,47.9,14.6,46.9,14.3,0.3,0.1,0.0,0.0,1.9,0.6,-23.76208751,-46.59735531,9,4,98,15.947,0.034,3.994,3.963,3.993,3.997,0.1,-0.1,-5,5,-0.1,-36.9,323.1,1024,1024,1024,997,1684,,,,,
91,9.2,0m 9.2s,-23.76208963,-46.59736056,P-GPS,49.5,15.1,48.6,14.8,0.3,0.1,1.1,0.5,1.9,0.6,-23.76208751,-46.59735531,9,4,98,15.947,0.034,3.994,3.963,3.993,3.997,0.1,-0.1,-5,5.5,0,-36.9,323.1,1024,1024,1024,981,1684,,,,,
92,9.3,0m 9.3s,-23.76208936,-46.59736066,P-GPS,51.2,15.6,50.2,15.3,0.3,0.1,0.0,0.0,1.9,0.6,-23.76208751,-46.59735531,9,4,98,15.947,0.034,3.994,3.963,3.993,3.997,0.1,-0.1,-4.9,6.1,0.2,-36.8,323.2,1024,1024,1024,972,1684,,,,,
93,9.4,0m 9.4s,-23.76208921,-46.59736072,P-GPS,52.8,16.1,51.8,15.8,0.0,0.0,0.0,0.0,1.9,0.6,-23.76208751,-46.59735531,9,4,98,15.947,0.034,3.994,3.963,3.993,3.997,0,0,-4.9,6.3,0.1,-36.8,323.2,1024,1024,1024,941,1684,,,,,
94,9.5,0m 9.5s,-23.76208908,-46.59736069,P-GPS,54.5,16.6,,,0.0,0.0,0.0,0.0,1.9,0.6,-23.76208751,-46.59735531,9,4,98,15.947,0.034,3.994,3.963,3.993,3.997,0,0,-4.9,5.8,0,-36.8,323.2,1024,1024,1024,803,1684,,,,,
95,9.6,0m 9.6s,-23.76208906,-46.5973606,P-GPS,56.1,17.1,,,0.0,0.0,0.0,0.0,1.8,0.6,-23.76208751,-46.59735531,9,4,98,15.947,0.034,3.994,3.963,3.993,3.997,0,0,-4.9,4.8,-0.4,-36.8,323.2,1024,1024,1024,699,1684,,,,,
96,9.7,0m 9.7s,-23.76208903,-46.59736046,P-GPS,57.7,17.6,,,0.0,0.0,0.0,0.0,1.8,0.5,-23.76208751,-46.59735531,9,4,98,15.947,0.034,3.994,3.963,3.993,3.997,0,0,-4.9,3.9,-0.4,-36.9,323.1,1024,1024,1024,587,1684,,,,,
97,9.8,0m 9.8s,-23.76208905,-46.59736032,P-GPS,59.4,18.1,,,0.0,0.0,0.0,0.0,1.7,0.5,-23.76208751,-46.59735531,9,4,98,15.947,0.034,3.994,3.963,3.993,3.997,0,0,-5,3.6,-0.3,-37.9,322.1,1024,1024,1024,532,1684,,,,,
98,9.9,0m 9.9s,-23.76208903,-46.59736012,P-GPS,61.0,18.6,,,0.0,0.0,0.0,0.0,1.7,0.5,-23.76208751,-46.59735531,9,4,98,15.947,0.034,3.994,3.963,3.993,3.997,0,0,-5,3.4,-0.8,-41,319,1024,1024,1024,496,1684,,,,,
99,10,0m 10s,-23.76208903,-46.59735992,P-GPS,62.7,19.1,,,0.2,0.1,0.0,0.0,1.6,0.5,-23.76208751,-46.59735531,9,4,98,15.947,0.034,3.994,3.963,3.993,3.997,0,0.1,-5,3.6,-2.3,-46.4,313.6,1024,1024,1024,465,1684,,,,,
100,10.1,0m 10.1s,-23.76208901,-46.59735968,P-GPS,64.3,19.6,,,0.2,0.1,0.0,0.0,1.6,0.5,-23.76208751,-46.59735531,9,4,98,16.039,0.031,4.007,3.991,4.022,4.019,0,0.1,-5,2.6,-3.1,-53.6,306.4,1024,1024,1024,487,1684,,,,,
101,10.2,0m 10.2s,-23.76208904,-46.59735949,P-GPS,65.9,20.1,,,0.2,0.1,0.0,0.0,1.5,0.5,-23.76208751,-46.59735531,9,4,98,16.039,0.031,4.007,3.991,4.022,4.019,0,0,-5,1.9,-2.5,-62,298,1024,1024,1024,565,1684,,,,,
102,10.3,0m 10.3s,-23.76208909,-46.5973593,P-GPS,67.6,20.6,,,0.0,0.0,0.0,0.0,1.4,0.4,-23.76208751,-46.59735531,9,4,98,16.039,0.031,4.007,3.991,4.022,4.019,0,0,-4.9,1.7,-2.1,-70,290,1024,1024,1024,613,1684,,,,,
103,10.4,0m 10.4s,-23.76208916,-46.59735914,P-GPS,69.2,21.1,,,0.0,0.0,0.0,0.0,1.4,0.4,-23.76208751,-46.59735531,9,4,98,16.039,0.031,4.007,3.991,4.022,4.019,0,0,-4.9,2.3,-2.2,-75.2,284.8,1024,1024,1024,700,1684,,,,,
104,10.5,0m 10.5s,-23.76208921,-46.59735891,P-GPS,70.9,21.6,,,0.0,0.0,0.0,0.0,1.3,0.4,-23.76208751,-46.59735531,9,4,98,16.039,0.031,4.007,3.991,4.022,4.019,0,0,-5,0.9,-3.7,-78.8,281.2,1024,1024,1404,732,1684,,,,,
105,10.6,0m 10.6s,-23.76208927,-46.59735872,P-GPS,72.5,22.1,,,0.0,0.0,0.0,0.0,1.3,0.4,-23.76208751,-46.59735531,9,4,98,16.039,0.031,4.007,3.991,4.022,4.019,0,0,-5,0.5,-4.9,-80.5,279.5,1024,1024,1635,770,1684,,,,,
106,10.7,0m 10.7s,-23.76208936,-46.59735854,P-GPS,74.1,22.6,,,0.0,0.0,0.0,0.0,1.2,0.4,-23.76208751,-46.59735531,9,4,98,16.039,0.031,4.007,3.991,4.022,4.019,0,0,-5,0.6,-4.5,-81.3,278.7,1024,1024,1606,788,1684,,,,,
107,10.8,0m 10.8s,-23.76208948,-46.59735846,P-GPS,75.8,23.1,,,0.0,0.0,0.0,0.0,1.3,0.4,-23.76208751,-46.59735531,9,4,98,16.039,0.031,4.007,3.991,4.022,4.019,0,0,-5,1.9,-4.5,-82.1,277.9,1024,1024,1024,820,1684,,,,,
108,10.9,0m 10.9s,-23.76208963,-46.59735842,P-GPS,77.4,23.6,,,0.3,0.1,0.0,0.0,1.3,0.4,-23.76208751,-46.59735531,9,4,98,16.039,0.031,4.007,3.991,4.022,4.019,-0.1,-0.1,-4.9,2.6,-3.2,-82.6,277.4,1024,1024,1024,838,1684,,,,,
109,11,0m 11s,-23.76208983,-46.59735846,P-GPS,79.1,24.1,,,0.3,0.1,0.0,0.0,1.4,0.4,-23.76208751,-46.59735531,9,4,98,16.039,0.031,4.007,3.991,4.022,4.019,-0.1,-0.1,-4.9,3,-0.8,-83,277,1024,1024,586,864,1684,,,,,
110,11.1,0m 11.1s,-23.76209004,-46.5973585,P-GPS,80.7,24.6,,,0.3,0.1,1.1,0.5,1.4,0.4,-23.76208751,-46.59735531,9,4,98,16.039,0.031,4.007,3.991,4.022,4.019,-0.1,-0.1,-5.1,4,-0.5,-83.2,276.8,1024,1024,364,901,1684,,,,,
111,11.2,0m 11.2s,-23.76209022,-46.59735858,P-GPS,82.7,25.2,,,0.3,0.1,0.0,0.0,1.5,0.5,-23.76208751,-46.59735531,9,4,98,16.039,0.031,4.007,3.991,4.022,4.019,-0.1,-0.1,-5.1,4.8,-0.7,-83.2,276.8,1024,1024,364,906,1684,,,,,
112,11.3,0m 11.3s,-23.76209035,-46.59735861,P-GPS,84.3,25.7,,,0.2,0.1,0.0,0.0,1.5,0.5,-23.76208751,-46.59735531,9,4,98,16.039,0.031,4.007,3.991,4.022,4.019,0,-0.1,-5.1,4.8,-0.5,-83.3,276.7,1024,1024,364,903,1684,,,,,
113,11.4,0m 11.4s,-23.76209043,-46.59735866,P-GPS,86.0,26.2,,,0.2,0.1,0.0,0.0,1.5,0.5,-23.76208751,-46.59735531,9,4,98,16.039,0.031,4.007,3.991,4.022,4.019,0,-0.1,-5,4.7,-1.4,-83.3,276.7,1024,1024,364,904,1684,,,,,
114,11.5,0m 11.5s,-23.76209045,-46.59735866,P-GPS,87.6,26.7,,,0.2,0.1,0.0,0.0,1.5,0.5,-23.76208751,-46.59735531,9,4,98,16.039,0.031,4.007,3.991,4.022,4.019,0,-0.1,-5.1,5.3,-3.1,-83.2,276.8,1024,1024,364,902,1684,,,,,
115,11.6,0m 11.6s,-23.76209047,-46.5973587,P-GPS,89.2,27.2,,,0.2,0.1,0.0,0.0,1.5,0.5,-23.76208751,-46.59735531,9,4,98,16.039,0.031,4.007,3.991,4.022,4.019,0,-0.1,-5.1,6.4,-4.4,-83.3,276.7,1024,1024,364,903,1684,,,,,
116,11.7,0m 11.7s,-23.76209054,-46.59735866,P-GPS,90.9,27.7,,,0.0,0.0,0.0,0.0,1.6,0.5,-23.76208751,-46.59735531,9,4,98,16.039,0.031,4.007,3.991,4.022,4.019,0,0,-4.9,5.2,-3.8,-83.1,276.9,1024,1024,364,906,1684,,,,,
117,11.8,0m 11.8s,-23.76209068,-46.59735864,P-GPS,92.8,28.3,,,0.3,0.1,0.0,0.0,1.6,0.5,-23.76208751,-46.59735531,9,4,98,16.039,0.031,4.007,3.991,4.022,4.019,-0.1,-0.1,-5.1,3.5,-1.7,-83,277,1024,1024,364,921,1684,,,,,
118,11.9,0m 11.9s,-23.76209084,-46.59735861,P-GPS,94.5,28.8,,,0.2,0.1,0.0,0.0,1.6,0.5,-23.76208751,-46.59735531,9,4,98,16.039,0.031,4.007,3.991,4.022,4.019,0,-0.1,-5.1,4.8,-1.3,-83.1,276.9,1024,1024,364,933,1684,,,,,
119,12,0m 12s,-23.76209098,-46.59735865,P-GPS,96.1,29.3,,,0.2,0.1,0.0,0.0,1.7,0.5,-23.76208751,-46.59735531,9,4,98,16.039,0.031,4.007,3.991,4.022,4.019,0,-0.1,-5,5.9,-1.9,-83.1,276.9,1024,1024,364,935,1684,,,,,
120,12.1,0m 12.1s,-23.76209107,-46.59735867,P-GPS,97.8,29.8,,,0.2,0.1,0.0,0.0,1.7,0.5,-23.76208751,-46.59735531,9,4,98,16.05,0.027,4.01,3.999,4.026,4.015,0,-0.1,-5,6.4,-1.8,-83.1,276.9,1024,1024,364,933,1684,,,,,
121,12.2,0m 12.2s,-23.76209111,-46.59735871,P-GPS,99.4,30.3,,,0.2,0.1,0.0,0.0,1.7,0.5,-23.76208751,-46.59735531,9,4,98,16.05,0.027,4.01,3.999,4.026,4.015,0,-0.1,-4.9,5.4,-1.8,-83.1,276.9,1024,1024,364,929,1684,,,,,
122,12.3,0m 12.3s,-23.76209114,-46.59735872,P-GPS,101.0,30.8,,,0.2,0.1,1.1,0.5,1.7,0.5,-23.76208751,-46.59735531,9,4,98,16.05,0.027,4.01,3.999,4.026,4.015,0,-0.1,-4.9,5.1,-2,-83.2,276.8,1024,1024,1024,923,1684,,,,,
123,12.4,0m 12.4s,-23.76209115,-46.59735876,P-GPS,102.7,31.3,,,0.2,0.1,0.0,0.0,1.7,0.5,-23.76208751,-46.59735531,9,4,98,16.05,0.027,4.01,3.999,4.026,4.015,0,-0.1,-5,5.6,-2.3,-83.2,276.8,1024,1024,1024,868,1684,,,,,
124,12.5,0m 12.5s,-23.76209116,-46.5973588,P-GPS,104.3,31.8,,,0.2,0.1,0.0,0.0,1.8,0.5,-23.76208751,-46.59735531,9,4,98,16.05,0.027,4.01,3.999,4.026,4.015,0,-0.1,-5,6.1,-2.9,-83.2,276.8,1024,1024,1024,795,1684,,,,,
125,12.6,0m 12.6s,-23.76209119,-46.59735886,P-GPS,106.0,32.3,,,0.2,0.1,0.0,0.0,1.8,0.5,-23.76208751,-46.59735531,9,4,98,16.05,0.027,4.01,3.999,4.026,4.015,0,-0.1,-4.9,6.4,-3.1,-83.3,276.7,1024,1024,1024,795,1684,,,,,
126,12.7,0m 12.7s,-23.76209127,-46.59735887,P-GPS,107.6,32.8,,,0.2,0.1,0.0,0.0,1.8,0.5,-23.76208751,-46.59735531,9,4,98,16.05,0.027,4.01,3.999,4.026,4.015,-0.1,0,-4.9,6.2,-1.9,-83.7,276.3,1024,1024,1024,661,1684,,,,,
127,12.8,0m 12.8s,-23.76209135,-46.59735887,P-GPS,109.3,33.3,,,0.0,0.0,0.0,0.0,1.8,0.6,-23.76208751,-46.59735531,9,4,98,16.05,0.027,4.01,3.999,4.026,4.015,0,0,-5.1,6.1,0.1,-84.5,275.5,1024,1024,1024,661,1684,,,,,
128,12.9,0m 12.9s,-23.76209136,-46.5973588,P-GPS,111.2,33.9,,,0.0,0.0,0.0,0.0,1.8,0.6,-23.76208751,-46.59735531,9,4,98,16.05,0.027,4.01,3.999,4.026,4.015,0,0,-5.1,5,-0.3,-86.3,273.7,1005,1417,1024,860,1684,,,,,
129,13,0m 13s,-23.76209128,-46.59735874,P-GPS,112.9,34.4,,,0.2,0.1,0.0,0.0,1.8,0.5,-23.76208751,-46.59735531,9,4,98,16.05,0.027,4.01,3.999,4.026,4.015,0.1,0,-5.1,3.9,-1.6,-87.8,272.2,1024,1684,1024,975,1684,,,,,
130,13.1,0m 13.1s,-23.7620911,-46.59735866,P-GPS,114.5,34.9,,,0.2,0.1,0.0,0.0,1.7,0.5,-23.76208751,-46.59735531,9,4,98,16.05,0.027,4.01,3.999,4.026,4.015,0.1,0,-5.1,-1.8,-2.4,-87.8,272.2,999,1684,1024,1011,1645,,,,,
131,13.2,0m 13.2s,-23.76209084,-46.59735864,P-GPS,116.5,35.5,,,0.5,0.2,0.0,0.0,1.6,0.5,-23.76208751,-46.59735531,9,4,98,16.05,0.027,4.01,3.999,4.026,4.015,0.2,-0.1,-5,-15.2,-2.6,-87.3,272.7,999,1684,1024,1011,1645,,,,,
132,13.3,0m 13.3s,-23.76209049,-46.59735899,P-GPS,117.8,35.9,,,1.3,0.6,0.0,0.0,1.6,0.5,-23.76208751,-46.59735531,9,4,98,16.05,0.027,4.01,3.999,4.026,4.015,0.3,-0.5,-4.7,-23.7,-3,-86.7,273.3,1002,1684,1024,1005,1620,,,,,
133,13.4,0m 13.4s,-23.76209009,-46.5973598,P-GPS,119.4,36.4,,,2.4,1.1,1.5,0.7,1.8,0.5,-23.76208751,-46.59735531,9,4,98,16.05,0.027,4.01,3.999,4.026,4.015,0.4,-1,-4.3,-27.1,-4.2,-86.3,273.7,1011,1684,1024,857,1664,,,,,
134,13.5,0m 13.5s,-23.76208963,-46.59736122,P-GPS,120.7,36.8,,,3.3,1.5,2.8,1.3,2.1,0.6,-23.76208751,-46.59735531,9,4,98,16.05,0.027,4.01,3.999,4.026,4.015,0.4,-1.4,-3.9,-30.1,-4.8,-85.8,274.2,1018,1684,1024,750,1684,,,,,
135,13.6,0m 13.6s,-23.76208916,-46.59736325,P-GPS,121.7,37.1,,,5.0,2.2,4.1,1.8,2.7,0.8,-23.76208751,-46.59735531,9,4,98,16.05,0.027,4.01,3.999,4.026,4.015,0.4,-2.2,-4.1,-31.1,-2.5,-85.5,274.5,1024,1684,1024,662,1684,,,,,
136,13.8,0m 13.8s,-23.76208809,-46.59737024,P-GPS,124.7,38.0,,,8.6,3.9,7.0,3.1,5.0,1.5,-23.76208751,-46.59735531,9,4,98,16.05,0.027,4.01,3.999,4.026,4.015,0.7,-3.8,-4.7,-24.6,-3.8,-88.1,271.9,1018,1684,1024,768,1684,,,,,
137,13.9,0m 13.9s,-23.76208757,-46.59737501,P-GPS,126.3,38.5,,,10.0,4.5,9.0,4.0,6.6,2.0,-23.76208751,-46.59735531,9,4,98,16.05,0.027,4.01,3.999,4.026,4.015,0.7,-4.4,-4.6,-21.1,-5.3,-90.4,269.6,1013,1684,1024,980,1602,,,,,
138,14,0m 14s,-23.76208707,-46.59738021,P-GPS,128.0,39.0,,,11.1,5.0,11.4,5.1,8.3,2.5,-23.76208751,-46.59735531,9,4,98,16.05,0.027,4.01,3.999,4.026,4.015,0.7,-4.9,-4.6,-19.9,-6.1,-91.4,268.6,1000,1684,1024,1024,1551,,,,,
139,14.1,0m 14.1s,-23.76208679,-46.59738583,P-GPS,129.3,39.4,,,11.5,5.1,12.4,5.5,10.2,3.1,-23.76208751,-46.59735531,9,4,98,15.972,0.032,3.989,3.974,4.006,4.003,0.6,-5.1,-4.1,-18.2,-7.7,-91.9,268.1,969,1684,1024,1024,1511,,,,,
140,14.2,0m 14.2s,-23.76208652,-46.59739134,P-GPS,130.2,39.7,,,11.5,5.1,12.7,5.7,12.0,3.7,-23.76208751,-46.59735531,9,4,98,15.972,0.032,3.989,3.974,4.006,4.003,0.6,-5.2,-3.6,-17.5,-5.7,-92.2,267.8,912,1684,1024,1024,1471,,,,,
141,14.3,0m 14.3s,-23.76208651,-46.59739696,P-GPS,131.6,40.1,,,11.7,5.2,12.7,5.7,13.9,4.2,-23.76208751,-46.59735531,10,4,98,15.972,0.032,3.989,3.974,4.006,4.003,0.5,-5.2,-3,-18.5,-4.9,-92.2,267.8,846,1684,1024,1024,1431,,,,,
142,14.5,0m 14.5s,-23.76208645,-46.59740785,P-GPS,132.5,40.4,,,11.9,5.3,12.5,5.6,17.5,5.3,-23.76208751,-46.59735531,10,4,98,15.972,0.032,3.989,3.974,4.006,4.003,0.4,-5.3,-1.6,-19.4,-5.2,-91.9,268.1,833,1684,1024,1024,1426,,,,,
143,14.6,0m 14.6s,-23.76208642,-46.59741324,P-GPS,132.9,40.5,,,12.1,5.4,12.4,5.5,19.3,5.9,-23.76208751,-46.59735531,10,4,98,15.972,0.032,3.989,3.974,4.006,4.003,0.4,-5.4,-1.2,-19.1,-5.2,-92,268,840,1684,1024,1024,1426,,,,,
144,14.7,0m 14.7s,-23.76208655,-46.59741867,P-GPS,133.2,40.6,,,12.3,5.5,12.4,5.5,21.2,6.4,-23.76208751,-46.59735531,10,4,98,15.972,0.032,3.989,3.974,4.006,4.003,0.3,-5.5,-0.9,-18.9,-5.3,-92,268,814,1684,1024,1024,1410,,,,,
145,14.8,0m 14.8s,-23.76208658,-46.59742428,P-GPS,133.2,40.6,,,12.5,5.6,12.6,5.6,23.0,7.0,-23.76208751,-46.59735531,10,4,98,15.972,0.032,3.989,3.974,4.006,4.003,0.2,-5.6,-0.8,-18.5,-5.2,-92,268,657,1684,1024,1024,1412,,,,,
146,14.9,0m 14.9s,-23.7620868,-46.59743001,P-GPS,133.2,40.6,,,13.0,5.8,12.9,5.8,24.9,7.6,-23.76208751,-46.59735531,10,4,98,15.972,0.032,3.989,3.974,4.006,4.003,0.1,-5.8,-0.6,-18.4,-5.3,-92,268,562,1684,1024,1024,1418,,,,,
147,15.1,0m 15.1s,-23.76208727,-46.59744206,P-GPS,133.5,40.7,,,13.6,6.1,13.5,6.0,29.0,8.8,-23.76208751,-46.59735531,10,4,97,16.19,0.033,4.038,4.031,4.064,4.057,0,-6.1,-0.6,-16.8,-8.6,-92,268,563,1684,1024,901,1494,,,,,
148,15.2,0m 15.2s,-23.76208754,-46.59744834,P-GPS,133.5,40.7,,,14.1,6.3,13.9,6.2,31.1,9.5,-23.76208751,-46.59735531,10,4,97,16.19,0.033,4.038,4.031,4.064,4.057,-0.2,-6.3,-0.6,-17,-10.6,-91.8,268.2,570,1684,1024,818,1517,,,,,
149,15.3,0m 15.3s,-23.76208808,-46.59745478,P-GPS,133.5,40.7,,,14.6,6.5,14.5,6.5,33.2,10.1,-23.76208751,-46.59735531,10,4,97,16.19,0.033,4.038,4.031,4.064,4.057,-0.5,-6.5,-0.9,-16,-10.2,-92.3,267.7,585,1684,1024,886,1531,,,,,
150,15.4,0m 15.4s,-23.76208871,-46.59746151,P-GPS,133.9,40.8,,,15.1,6.7,15.0,6.7,35.5,10.8,-23.76208751,-46.59735531,10,4,97,16.19,0.033,4.038,4.031,4.064,4.057,-0.7,-6.7,-1.1,-14.8,-10.1,-93,267,602,1684,1024,1024,1488,,,,,
151,15.5,0m 15.5s,-23.76208965,-46.59746832,P-GPS,134.2,40.9,,,15.3,6.9,15.5,6.9,37.7,11.5,-23.76208751,-46.59735531,10,4,97,16.19,0.033,4.038,4.031,4.064,4.057,-0.9,-6.8,-1.5,-15.4,-10.9,-93.1,266.9,619,1684,1557,1024,1485,,,,,
152,15.6,0m 15.6s,-23.76209068,-46.59747525,P-GPS,134.5,41.0,,,15.6,7.0,15.9,7.1,40.1,12.2,-23.76208751,-46.59735531,10,4,97,16.19,0.033,4.038,4.031,4.064,4.057,-1.1,-6.9,-1.3,-18.3,-11.6,-92.6,267.4,614,1684,1684,1024,1489,,,,,
153,15.7,0m 15.7s,-23.76209196,-46.59748224,P-GPS,134.8,41.1,,,16.2,7.2,16.1,7.2,42.4,12.9,-23.76208751,-46.59735531,10,4,97,16.19,0.033,4.038,4.031,4.064,4.057,-1.3,-7.1,-1.3,-17.3,-11.1,-92.8,267.2,619,1684,1684,1024,1492,,,,,
154,15.8,0m 15.8s,-23.76209331,-46.59748943,P-GPS,135.2,41.2,,,16.6,7.4,16.4,7.4,44.8,13.7,-23.76208751,-46.59735531,10,4,97,16.19,0.033,4.038,4.031,4.064,4.057,-1.4,-7.3,-1.3,-15.7,-9.8,-93.3,266.7,622,1684,1024,1024,1488,,,,,
155,15.9,0m 15.9s,-23.76209486,-46.59749664,P-GPS,135.5,41.3,,,16.9,7.6,16.8,7.5,47.3,14.4,-23.76208751,-46.59735531,10,4,97,16.19,0.033,4.038,4.031,4.064,4.057,-1.6,-7.4,-1.3,-14.3,-8.2,-93.5,266.5,630,1684,1024,1024,1498,,,,,
156,16,0m 16s,-23.76209642,-46.59750401,P-GPS,135.8,41.4,,,17.2,7.7,17.1,7.6,49.8,15.2,-23.76208751,-46.59735531,10,4,97,16.19,0.033,4.038,4.031,4.064,4.057,-1.7,-7.5,-1.3,-13.4,-7.5,-93.7,266.3,632,1684,1024,1006,1506,,,,,
157,16.1,0m 16.1s,-23.76209806,-46.59751135,P-GPS,136.2,41.5,,,17.4,7.8,17.3,7.7,52.2,15.9,-23.76208751,-46.59735531,10,4,97,15.97,0.038,4.001,3.965,4.001,4.003,-1.7,-7.6,-1.2,-12.9,-6.5,-93.9,266.1,638,1684,1024,1016,1532,,,,,
158,16.2,0m 16.2s,-23.76209969,-46.59751885,P-GPS,136.5,41.6,,,17.7,7.9,17.4,7.8,54.8,16.7,-23.76208751,-46.59735531,10,4,97,15.97,0.038,4.001,3.965,4.001,4.003,-1.8,-7.7,-1.3,-12.3,-6.2,-94.1,265.9,638,1684,1684,1024,1576,,,,,
159,16.3,0m 16.3s,-23.76210138,-46.59752632,P-GPS,136.8,41.7,,,17.7,7.9,17.5,7.8,57.3,17.5,-23.76208751,-46.59735531,10,4,97,15.97,0.038,4.001,3.965,4.001,4.003,-1.9,-7.7,-1.4,-11.9,-6.6,-94.3,265.7,634,1684,1684,1024,1571,,,,,
160,16.4,0m 16.4s,-23.76210313,-46.59753396,P-GPS,137.1,41.8,,,18.0,8.1,17.7,7.9,59.9,18.3,-23.76208751,-46.59735531,10,4,97,15.97,0.038,4.001,3.965,4.001,4.003,-2,-7.8,-1.6,-10.6,-6,-94.3,265.7,635,1684,1024,1024,1572,,,,,
161,16.5,0m 16.5s,-23.76210494,-46.59754152,P-GPS,137.8,42.0,,,18.2,8.2,17.9,8.0,62.5,19.0,-23.76208751,-46.59735531,10,4,97,15.97,0.038,4.001,3.965,4.001,4.003,-2,-7.9,-2.1,-11,-4,-94.3,265.7,638,1684,1024,1024,1557,,,,,
162,16.6,0m 16.6s,-23.76210677,-46.59754917,P-GPS,138.5,42.2,,,18.5,8.3,17.9,8.0,65.1,19.8,-23.76208751,-46.59735531,10,4,97,15.97,0.038,4.001,3.965,4.001,4.003,-2,-8,-2.3,-11.8,-3.9,-94.3,265.7,639,1684,1024,1024,1555,,,,,
163,16.7,0m 16.7s,-23.76210859,-46.59755684,P-GPS,139.1,42.4,,,18.5,8.3,18.0,8.1,67.7,20.6,-23.76208751,-46.59735531,10,4,97,15.97,0.038,4.001,3.965,4.001,4.003,-2,-8,-2.3,-12.6,-5.1,-94.2,265.8,641,1684,1024,1024,1556,,,,,
164,16.8,0m 16.8s,-23.76211044,-46.5975647,P-GPS,139.8,42.6,,,18.7,8.4,18.3,8.2,70.4,21.5,-23.76208751,-46.59735531,10,4,97,15.97,0.038,4.001,3.965,4.001,4.003,-2.1,-8.1,-2.2,-12.5,-5.2,-94.2,265.8,641,1684,1024,1002,1581,,,,,
165,16.9,0m 16.9s,-23.76211234,-46.5975726,P-GPS,140.4,42.8,,,18.7,8.4,18.5,8.3,73.1,22.3,-23.76208751,-46.59735531,10,4,97,15.97,0.038,4.001,3.965,4.001,4.003,-2.1,-8.2,-2.2,-12.1,-4.7,-94.2,265.8,640,1684,1024,1024,1582,,,,,
166,17,0m 17s,-23.76211428,-46.59758065,P-GPS,141.1,43.0,,,19.1,8.6,18.8,8.4,75.9,23.1,-23.76208751,-46.59735531,10,4,97,15.97,0.038,4.001,3.965,4.001,4.003,-2.1,-8.3,-2.4,-10.6,-4.5,-94.4,265.6,640,1684,1684,1024,1581,,,,,
167,17.1,0m 17.1s,-23.76211621,-46.59758874,P-GPS,142.1,43.3,,,19.1,8.6,19.0,8.5,78.6,24.0,-23.76208751,-46.59735531,10,4,97,15.97,0.038,4.001,3.965,4.001,4.003,-2.1,-8.3,-2.5,-10.4,-4,-94.3,265.7,638,1684,1684,1024,1584,,,,,
168,17.2,0m 17.2s,-23.76211817,-46.59759693,P-GPS,142.7,43.5,,,19.1,8.6,19.2,8.6,81.4,24.8,-23.76208751,-46.59735531,10,4,97,15.97,0.038,4.001,3.965,4.001,4.003,-2.1,-8.3,-2.5,-10.5,-4.3,-94.4,265.6,638,1684,1684,1024,1588,,,,,
169,17.3,0m 17.3s,-23.76212013,-46.59760517,P-GPS,143.4,43.7,,,19.4,8.7,19.3,8.6,84.3,25.7,-23.76208751,-46.59735531,10,4,97,15.97,0.038,4.001,3.965,4.001,4.003,-2.1,-8.4,-2.6,-10.4,-4.3,-94.3,265.7,641,1684,1684,1024,1589,,,,,
170,17.4,0m 17.4s,-23.76212213,-46.5976135,P-GPS,144.4,44.0,,,19.4,8.7,19.5,8.7,87.1,26.6,-23.76208751,-46.59735531,10,4,97,15.97,0.038,4.001,3.965,4.001,4.003,-2.1,-8.4,-2.6,-10.1,-3.9,-94.3,265.7,643,1684,1684,1024,1591,,,,,
171,17.5,0m 17.5s,-23.76212413,-46.59762189,P-GPS,145.0,44.2,,,19.6,8.8,19.7,8.8,90.0,27.4,-23.76208751,-46.59735531,10,4,97,15.97,0.038,4.001,3.965,4.001,4.003,-2.1,-8.5,-2.6,-9.6,-3.8,-94.3,265.7,643,1684,1684,1024,1593,,,,,
172,17.6,0m 17.6s,-23.76212614,-46.59763032,P-GPS,145.7,44.4,,,19.6,8.8,19.8,8.8,92.9,28.3,-23.76208751,-46.59735531,10,4,97,15.97,0.038,4.001,3.965,4.001,4.003,-2.1,-8.5,-2.6,-9.1,-3.7,-94.3,265.7,642,1684,1684,1024,1593,,,,,
173,17.7,0m 17.7s,-23.76212814,-46.59763879,P-GPS,146.7,44.7,,,19.6,8.8,19.9,8.9,95.8,29.2,-23.76208751,-46.59735531,10,4,97,15.97,0.038,4.001,3.965,4.001,4.003,-2.1,-8.5,-2.7,-9.4,-3.7,-94.3,265.7,648,1684,1684,1024,1604,,,,,
174,17.8,0m 17.8s,-23.76213015,-46.59764728,P-GPS,147.3,44.9,,,19.8,8.9,19.9,8.9,98.7,30.1,-23.76208751,-46.59735531,10,4,97,15.97,0.038,4.001,3.965,4.001,4.003,-2.1,-8.6,-2.8,-9.7,-3.8,-94.3,265.7,642,1684,1684,1024,1605,,,,,
175,17.9,0m 17.9s,-23.76213213,-46.59765585,P-GPS,148.3,45.2,,,19.8,8.9,20.0,9.0,101.7,31.0,-23.76208751,-46.59735531,10,4,97,15.97,0.038,4.001,3.965,4.001,4.003,-2.1,-8.6,-2.8,-9.4,-3.8,-94.2,265.8,636,1684,1024,1024,1607,,,,,
176,18,0m 18s,-23.76213412,-46.59766444,P-GPS,149.3,45.5,,,20.0,9.0,20.1,9.0,104.6,31.9,-23.76208751,-46.59735531,10,4,97,15.97,0.038,4.001,3.965,4.001,4.003,-2.1,-8.7,-3,-8.8,-3.8,-94.3,265.7,644,1684,1024,1024,1583,,,,,
177,18.1,0m 18.1s,-23.76213609,-46.59767309,P-GPS,150.3,45.8,,,20.0,9.0,20.3,9.1,107.6,32.8,-23.76208751,-46.59735531,10,4,97,16.032,0.048,3.993,3.982,4.03,4.027,-2.1,-8.7,-3.2,-8.5,-4.4,-94.3,265.7,655,1684,1024,1024,1511,,,,,
178,18.2,0m 18.2s,-23.76213809,-46.59768174,P-GPS,151.2,46.1,,,20.0,9.0,20.3,9.1,110.5,33.7,-23.76208751,-46.59735531,10,4,97,16.032,0.048,3.993,3.982,4.03,4.027,-2.1,-8.7,-3.2,-9.1,-4.8,-94.2,265.8,655,1684,1024,1024,1407,,,,,
179,18.3,0m 18.3s,-23.76214008,-46.59769044,P-GPS,152.2,46.4,,,20.0,9.0,20.4,9.1,113.5,34.6,-23.76208751,-46.59735531,10,4,97,16.032,0.048,3.993,3.982,4.03,4.027,-2.1,-8.7,-2.9,-10.9,-5,-94.1,265.9,644,1684,1024,1024,1381,,,,,
180,18.4,0m 18.4s,-23.7621421,-46.59769913,P-GPS,153.2,46.7,,,20.0,9.0,20.5,9.1,116.5,35.5,-23.76208751,-46.59735531,10,4,97,16.032,0.048,3.993,3.982,4.03,4.027,-2.1,-8.7,-2.3,-11.7,-4.8,-93.8,266.2,642,1684,1024,1024,1201,,,,,
181,18.5,0m 18.5s,-23.76214409,-46.59770786,P-GPS,153.9,46.9,,,20.0,9.0,20.4,9.1,119.5,36.4,-23.76208751,-46.59735531,10,4,97,16.032,0.048,3.993,3.982,4.03,4.027,-2.1,-8.7,-1.6,-11.4,-4.8,-93.9,266.1,642,1684,1024,1024,1201,,,,,
182,18.6,0m 18.6s,-23.76214608,-46.59771657,P-GPS,154.2,47.0,,,20.2,9.1,20.4,9.1,122.5,37.3,-23.76208751,-46.59735531,10,4,97,16.032,0.048,3.993,3.982,4.03,4.027,-2.1,-8.8,-1.1,-9.8,-4.3,-94,266,646,1684,729,1024,1025,,,,,
183,18.7,0m 18.7s,-23.76214805,-46.59772531,P-GPS,154.2,47.0,,,20.2,9.1,20.5,9.2,125.5,38.2,-23.76208751,-46.59735531,10,4,97,16.032,0.048,3.993,3.982,4.03,4.027,-2.1,-8.8,-0.6,-8.6,-3.8,-94.3,265.7,646,1684,729,1024,1025,,,,,
184,18.8,0m 18.8s,-23.76215003,-46.59773402,P-GPS,154.2,47.0,,,20.2,9.1,20.5,9.2,128.5,39.2,-23.76208751,-46.59735531,10,4,97,16.032,0.048,3.993,3.982,4.03,4.027,-2.1,-8.8,-0.3,-6.7,-3.5,-94.4,265.6,648,1684,589,1024,1024,,,,,
185,18.9,0m 18.9s,-23.76215197,-46.59774285,P-GPS,154.2,47.0,,,20.0,9.0,20.5,9.2,131.5,40.1,-23.76208751,-46.59735531,10,4,97,16.032,0.048,3.993,3.982,4.03,4.027,-2.1,-8.7,-0.1,-6.1,-3.8,-94.5,265.5,648,1684,589,1024,1024,,,,,
186,19,0m 19s,-23.7621539,-46.59775168,P-GPS,154.2,47.0,,,20.0,9.0,20.7,9.3,134.5,41.0,-23.76208751,-46.59735531,10,4,97,16.032,0.048,3.993,3.982,4.03,4.027,-2.1,-8.7,0,-5.9,-3.9,-94.6,265.4,646,1684,589,1024,1024,,,,,
187,19.1,0m 19.1s,-23.76215579,-46.59776039,P-GPS,153.9,46.9,,,20.0,9.0,20.5,9.2,137.5,41.9,-23.76208751,-46.59735531,10,4,97,16.228,0.065,4.059,4.05,4.092,-2.1,-8.7,0,-6,-4,-94.6,265.4,646,1684,622,1024,1024,,,,,
188,19.2,0m 19.2s,-23.76215768,-46.59776897,P-GPS,153.9,46.9,,,19.8,8.9,20.2,9.0,140.5,42.8,-23.76208751,-46.59735531,10,4,97,16.228,0.065,4.059,4.05,4.092,-2.1,-8.6,0,-6.3,-3.9,-94.6,265.4,647,1684,1024,1024,1024,,,,,
189,19.3,0m 19.3s,-23.76215952,-46.59777753,P-GPS,153.9,46.9,,,19.9,8.9,20.1,9.0,143.4,43.7,-23.76208751,-46.59735531,10,4,97,16.228,0.065,4.059,4.05,4.092,-2.2,-8.6,0,-6.5,-3.8,-94.5,265.5,649,1684,1024,1024,1024,,,,,
190,19.4,0m 19.4s,-23.76216136,-46.5977861,P-GPS,153.9,46.9,,,19.9,8.9,20.0,9.0,146.3,44.6,-23.76208751,-46.59735531,10,4,97,16.228,0.065,4.059,4.05,4.092,-2.2,-8.6,-0.1,-7,-3.8,-94.5,265.5,654,1684,1024,1024,1024,,,,,
191,19.5,0m 19.5s,-23.76216317,-46.59779472,P-GPS,153.9,46.9,,,19.9,8.9,20.1,9.0,149.3,45.5,-23.76208751,-46.59735531,10,4,97,16.228,0.065,4.059,4.05,4.092,-2.2,-8.6,0,-7.7,-3.6,-94.4,265.6,655,1684,656,1024,1024,,,,,
192,19.6,0m 19.6s,-23.762165,-46.59780339,P-GPS,153.5,46.8,,,19.9,8.9,20.2,9.0,152.2,46.4,-23.76208751,-46.59735531,10,4,97,16.228,0.065,4.059,4.05,4.092,-2.2,-8.6,0,-7.8,-3.3,-94.4,265.6,656,1684,488,1024,1024,,,,,
193,19.7,0m 19.7s,-23.76216676,-46.5978121,P-GPS,153.5,46.8,,,20.1,9.0,20.3,9.1,155.2,47.3,-23.76208751,-46.59735531,10,4,97,16.228,0.065,4.059,4.05,4.092,-2.2,-8.7,0,-7.3,-3.1,-94.5,265.5,664,1684,488,1024,1024,,,,,
194,19.8,0m 19.8s,-23.76216853,-46.5978208,P-GPS,153.5,46.8,,,20.1,9.0,20.3,9.1,158.2,48.2,-23.76208751,-46.59735531,10,4,97,16.228,0.065,4.059,4.05,4.092,-2.2,-8.7,0,-7.6,-3,-94.5,265.5,668,1684,489,1024,1024,,,,,
195,19.9,0m 19.9s,-23.76217022,-46.59782957,P-GPS,153.5,46.8,,,20.1,9.0,20.3,9.1,161.2,49.1,-23.76208751,-46.59735531,10,4,97,16.228,0.065,4.059,4.05,4.092,-2.2,-8.7,-0.1,-7.8,-2.8,-94.4,265.6,670,1684,489,1024,1024,,,,,
196,20,0m 20s,-23.7621719,-46.59783836,P-GPS,153.5,46.8,,,20.0,9.0,20.4,9.1,164.2,50.0,-23.76208751,-46.59735531,10,4,97,16.228,0.065,4.059,4.05,4.092,-2.1,-8.7,-0.2,-7.7,-2.7,-94.4,265.6,674,1684,489,1024,1024,,,,,
197,20.1,0m 20.1s,-23.76217348,-46.5978472,P-GPS,153.9,46.9,,,20.2,9.1,20.5,9.2,167.2,51.0,-23.76208751,-46.59735531,10,4,97,16.228,0.065,4.059,4.05,4.092,-2.1,-8.8,-0.2,-7.8,-2.8,-94.4,265.6,674,1684,1024,1024,1024,,,,,
198,20.2,0m 20.2s,-23.76217507,-46.59785602,P-GPS,153.9,46.9,,,20.2,9.0,20.5,9.2,170.2,51.9,-23.76208751,-46.59735531,10,4,97,16.228,0.065,4.059,4.05,4.092,-2,-8.8,-0.1,-7.7,-2.8,-94.4,265.6,675,1684,1024,1024,1024,,,,,
199,20.3,0m 20.3s,-23.76217653,-46.59786489,P-GPS,153.9,46.9,,,20.1,9.0,20.5,9.2,173.2,52.8,-23.76208751,-46.59735531,10,4,97,16.228,0.065,4.059,4.05,4.092,-1.9,-8.8,-0.1,-7.1,-2.9,-94.4,265.6,681,1684,1024,1024,1024,,,,,
200,20.4,0m 20.4s,-23.762178,-46.59787374,P-GPS,153.9,46.9,,,20.1,9.0,20.5,9.2,176.2,53.7,-23.76208751,-46.59735531,10,4,97,16.228,0.065,4.059,4.05,4.092,-1.9,-8.8,-0.1,-7.1,-3.1,-94.5,265.5,675,1684,1024,1024,1024,,,,,
201,20.5,0m 20.5s,-23.76217936,-46.59788262,P-GPS,153.9,46.9,,,20.1,9.0,20.5,9.2,179.2,54.6,-23.76208751,-46.59735531,10,4,97,16.228,0.065,4.059,4.05,4.092,-1.8,-8.8,0,-7.1,-3.2,-94.5,265.5,677,1684,1024,1024,1024,,,,,
202,20.6,0m 20.6s,-23.76218074,-46.59789149,P-GPS,153.9,46.9,,,20.1,9.0,20.5,9.2,182.2,55.5,-23.76208751,-46.59735531,10,4,97,16.228,0.065,4.059,4.05,4.092,-1.8,-8.8,0,-6.7,-3.4,-94.5,265.5,679,1684,1024,1024,1024,,,,,
203,20.7,0m 20.7s,-23.76218205,-46.59790039,P-GPS,153.9,46.9,,,20.1,9.0,20.5,9.2,185.2,56.5,-23.76208751,-46.59735531,10,4,97,16.228,0.065,4.059,4.05,4.092,-1.8,-8.8,0,-6.2,-3,-94.4,265.6,675,1684,1024,1024,1024,,,,,
204,20.8,0m 20.8s,-23.76218338,-46.59790925,P-GPS,153.9,46.9,,,20.0,9.0,20.5,9.2,188.2,57.4,-23.76208751,-46.59735531,10,4,97,16.228,0.065,4.059,4.05,4.092,-1.7,-8.8,0,-6.7,-3.1,-94.4,265.6,675,1684,1024,1024,1024,,,,,
205,20.9,0m 20.9s,-23.76218462,-46.59791815,P-GPS,153.5,46.8,,,20.0,9.0,20.5,9.1,191.2,58.3,-23.76208751,-46.59735531,10,4,97,16.228,0.065,4.059,4.05,4.092,-1.7,-8.8,0,-6.5,-3.2,-94.4,265.6,673,1684,1024,1024,1024,,,,,
206,21,0m 21s,-23.76218589,-46.59792702,P-GPS,153.5,46.8,,,20.0,9.0,20.5,9.2,194.2,59.2,-23.76208751,-46.59735531,10,4,97,16.228,0.065,4.059,4.05,4.092,-1.7,-8.8,0,-6.5,-3.6,-94.4,265.6,679,1684,1024,1024,1024,,,,,
207,21.1,0m 21.1s,-23.76218707,-46.59793591,P-GPS,153.5,46.8,,,20.2,9.0,20.5,9.1,197.2,60.1,-23.76208751,-46.59735531,10,4,97,16.242,0.029,4.059,4.044,4.073,4.066,-1.6,-8.9,0.2,-6.5,-3.7,-94.4,265.6,678,1684,1024,1024,1024,,,,,
208,21.2,0m 21.2s,-23.7621883,-46.59794478,P-GPS,153.2,46.7,,,20.2,9.0,20.5,9.1,200.2,61.0,-23.76208751,-46.59735531,10,4,97,16.242,0.029,4.059,4.044,4.073,4.066,-1.6,-8.9,0.2,-6,-4,-94.5,265.5,676,1684,1024,1024,1024,,,,,
209,21.3,0m 21.3s,-23.76218947,-46.59795366,P-GPS,153.2,46.7,,,20.2,9.0,20.4,9.1,203.2,61.9,-23.76208751,-46.59735531,10,4,97,16.242,0.029,4.059,4.044,4.073,4.066,-1.6,-8.9,0.1,-5.6,-4.4,-94.6,265.4,674,1684,1024,1024,1024,,,,,
210,21.4,0m 21.4s,-23.76219071,-46.59796252,P-GPS,153.2,46.7,,,20.2,9.0,20.4,9.1,206.2,62.8,-23.76208751,-46.59735531,10,4,97,16.242,0.029,4.059,4.044,4.073,4.066,-1.6,-8.9,0,-5.8,-4.4,-94.6,265.4,674,1684,1024,1024,1024,,,,,
211,21.5,0m 21.5s,-23.76219191,-46.59797144,P-GPS,153.2,46.7,,,20.2,9.0,20.5,9.2,209.2,63.8,-23.76208751,-46.59735531,10,4,97,16.242,0.029,4.059,4.044,4.073,4.066,-1.6,-8.9,-0.1,-6.2,-4.2,-94.5,265.5,673,1684,1024,1024,1024,,,,,
212,21.6,0m 21.6s,-23.76219315,-46.59798037,P-GPS,153.2,46.7,,,20.0,8.9,20.5,9.2,212.2,64.7,-23.76208751,-46.59735531,10,4,97,16.242,0.029,4.059,4.044,4.073,4.066,-1.5,-8.8,-0.1,-6.4,-3.9,-94.4,265.6,672,1684,1024,1024,1024,,,,,
213,21.7,0m 21.7s,-23.7621943,-46.59798919,P-GPS,153.2,46.7,,,20.0,8.9,20.4,9.1,215.2,65.6,-23.76208751,-46.59735531,10,4,97,16.242,0.029,4.059,4.044,4.073,4.066,-1.5,-8.8,-0.3,-6.7,-4,-94.3,265.7,672,1684,1024,1024,1024,,,,,
214,21.8,0m 21.8s,-23.76219545,-46.59799791,P-GPS,153.5,46.8,,,20.0,8.9,20.1,9.0,218.1,66.5,-23.76208751,-46.59735531,10,4,97,16.242,0.029,4.059,4.044,4.073,4.066,-1.5,-8.8,-0.3,-7.1,-4.2,-94.3,265.7,672,1684,1024,1024,1024,,,,,
215,21.9,0m 21.9s,-23.76219653,-46.59800658,P-GPS,153.5,46.8,,,19.9,8.9,20.0,8.9,221.0,67.4,-23.76208751,-46.59735531,10,4,97,16.242,0.029,4.059,4.044,4.073,4.066,-1.4,-8.8,-0.2,-7,-4.5,-94.4,265.6,672,1684,1024,1024,1024,,,,,
216,22,0m 22s,-23.76219764,-46.59801526,P-GPS,153.9,46.9,,,19.9,8.9,19.9,8.9,224.0,68.3,-23.76208751,-46.59735531,10,4,97,16.242,0.029,4.059,4.044,4.073,4.066,-1.4,-8.8,-0.1,-7.2,-4.7,-94.3,265.7,672,1684,1024,1024,1024,,,,,
217,22.1,0m 22.1s,-23.76219869,-46.59802389,P-GPS,153.9,46.9,,,19.9,8.9,19.9,8.9,226.9,69.2,-23.76208751,-46.59735531,10,4,97,16.252,0.03,4.062,4.044,4.074,4.072,-1.4,-8.8,-0.1,-6.5,-4.7,-94.3,265.7,669,1684,1024,1024,1024,,,,,
218,22.2,0m 22.2s,-23.76219978,-46.59803251,P-GPS,153.9,46.9,,,19.7,8.8,19.8,8.9,229.8,70.0,-23.76208751,-46.59735531,10,4,97,16.252,0.03,4.062,4.044,4.074,4.072,-1.3,-8.7,-0.1,-6.3,-5,-94.3,265.7,672,1684,1024,1024,1024,,,,,
219,22.3,0m 22.3s,-23.76220081,-46.5980411,P-GPS,153.9,46.9,,,19.7,8.8,19.8,8.8,232.7,70.9,-23.76208751,-46.59735531,10,4,97,16.252,0.03,4.062,4.044,4.074,4.072,-1.3,-8.7,0,-6.3,-5.3,-94.3,265.7,673,1684,1024,1024,1024,,,,,
220,22.4,0m 22.4s,-23.76220189,-46.5980497,P-GPS,153.9,46.9,,,19.7,8.8,19.7,8.8,235.6,71.8,-23.76208751,-46.59735531,10,4,97,16.252,0.03,4.062,4.044,4.074,4.072,-1.3,-8.7,0,-6.3,-5.3,-94.4,265.6,673,1684,1024,1024,1024,,,,,
221,22.5,0m 22.5s,-23.76220294,-46.59805829,P-GPS,153.9,46.9,,,19.7,8.8,19.7,8.8,238.5,72.7,-23.76208751,-46.59735531,10,4,97,16.252,0.03,4.062,4.044,4.074,4.072,-1.3,-8.7,0,-6.4,-5.3,-94.3,265.7,672,1684,1024,1024,1024,,,,,
222,22.6,0m 22.6s,-23.76220403,-46.59806687,P-GPS,153.9,46.9,,,19.7,8.8,19.7,8.8,241.3,73.6,-23.76208751,-46.59735531,10,4,97,16.252,0.03,4.062,4.044,4.074,4.072,-1.3,-8.7,0,-6,-5.3,-94.3,265.7,672,1684,1024,1024,1024,,,,,
223,22.7,0m 22.7s,-23.76220509,-46.59807542,P-GPS,153.9,46.9,,,19.7,8.8,19.7,8.8,244.2,74.4,-23.76208751,-46.59735531,10,4,97,16.252,0.03,4.062,4.044,4.074,4.072,-1.3,-8.7,0,-6.3,-5.4,-94.3,265.7,672,1684,1024,1024,1024,,,,,
224,22.8,0m 22.8s,-23.7622062,-46.59808395,P-GPS,153.9,46.9,,,19.5,8.7,19.6,8.8,247.1,75.3,-23.76208751,-46.59735531,10,4,97,16.252,0.03,4.062,4.044,4.074,4.072,-1.3,-8.6,0,-6.4,-5.4,-94.3,265.7,671,1684,1024,1024,1024,,,,,
225,22.9,0m 22.9s,-23.76220728,-46.59809241,P-GPS,153.9,46.9,,,19.5,8.7,19.5,8.7,249.9,76.2,-23.76208751,-46.59735531,10,4,97,16.252,0.03,4.062,4.044,4.074,4.072,-1.3,-8.6,0,-6.5,-5.5,-94.3,265.7,672,1684,1024,1024,1024,,,,,
226,23,0m 23s,-23.7622084,-46.59810085,P-GPS,154.2,47.0,,,19.5,8.7,19.4,8.7,252.8,77.1,-23.76208751,-46.59735531,10,4,97,16.252,0.03,4.062,4.044,4.074,4.072,-1.3,-8.6,-0.1,-6.2,-5.4,-94.3,265.7,671,1684,1024,1024,1024,,,,,
227,23.1,0m 23.1s,-23.76220947,-46.59810925,P-GPS,154.2,47.0,,,19.2,8.6,19.4,8.7,255.6,77.9,-23.76208751,-46.59735531,10,4,97,16.294,0.032,4.068,4.054,4.086,4.086,-1.3,-8.5,0,-6.8,-5.5,-94.3,265.7,672,1684,1024,1024,1024,,,,,
228,23.2,0m 23.2s,-23.76221057,-46.59811765,P-GPS,154.2,47.0,,,19.2,8.6,19.3,8.6,258.5,78.8,-23.76208751,-46.59735531,10,4,97,16.294,0.032,4.068,4.054,4.086,4.086,-1.3,-8.5,-0.1,-7.1,-5.6,-94.3,265.7,671,1684,1024,1024,1026,,,,,
229,23.3,0m 23.3s,-23.76221162,-46.59812594,P-GPS,154.2,47.0,,,19.3,8.6,19.2,8.6,261.2,79.6,-23.76208751,-46.59735531,10,4,97,16.294,0.032,4.068,4.054,4.086,4.086,-1.4,-8.5,0,-6.8,-5.5,-94.3,265.7,668,1684,1024,1024,1033,,,,,
230,23.4,0m 23.4s,-23.7622127,-46.59813416,P-GPS,154.5,47.1,,,19.3,8.6,19.0,8.5,264.0,80.5,-23.76208751,-46.59735531,10,4,97,16.294,0.032,4.068,4.054,4.086,4.086,-1.4,-8.5,0,-7.4,-5.4,-94.3,265.7,665,1684,1024,1024,1025,,,,,
231,23.5,0m 23.5s,-23.76221378,-46.59814244,P-GPS,154.5,47.1,,,19.3,8.6,18.9,8.5,266.8,81.3,-23.76208751,-46.59735531,10,4,97,16.294,0.032,4.068,4.054,4.086,4.086,-1.4,-8.5,0,-7.1,-5.3,-94.2,265.8,669,1684,1024,1024,1024,,,,,
232,23.6,0m 23.6s,-23.76221493,-46.59815082,P-GPS,154.5,47.1,,,19.3,8.6,19.2,8.6,269.6,82.2,-23.76208751,-46.59735531,10,4,97,16.294,0.032,4.068,4.054,4.086,4.086,-1.4,-8.5,0,-7,-5.6,-94.3,265.7,670,1684,1024,1027,1025,,,,,
233,23.7,0m 23.7s,-23.76221607,-46.59815919,P-GPS,154.5,47.1,,,19.1,8.5,19.2,8.6,272.5,83.0,-23.76208751,-46.59735531,10,4,97,16.294,0.032,4.068,4.054,4.086,4.086,-1.4,-8.4,0,-7,-5.5,-94.3,265.7,674,1684,1024,1028,1025,,,,,
234,23.8,0m 23.8s,-23.76221725,-46.59816753,P-GPS,154.5,47.1,,,19.1,8.5,19.2,8.6,275.3,83.9,-23.76208751,-46.59735531,10,4,97,16.294,0.032,4.068,4.054,4.086,4.086,-1.4,-8.4,0,-6.7,-5.4,-94.3,265.7,676,1684,1024,1029,1026,,,,,
235,23.9,0m 23.9s,-23.76221839,-46.59817581,P-GPS,154.5,47.1,,,19.1,8.5,19.1,8.6,278.1,84.8,-23.76208751,-46.59735531,10,4,97,16.294,0.032,4.068,4.054,4.086,4.086,-1.4,-8.4,0,-6.8,-5.4,-94.2,265.8,675,1684,1024,1030,1024,,,,,
236,24,0m 24s,-23.76221957,-46.59818406,P-GPS,154.5,47.1,,,19.1,8.5,19.0,8.5,280.9,85.6,-23.76208751,-46.59735531,10,4,97,16.294,0.032,4.068,4.054,4.086,4.086,-1.4,-8.4,0.1,-6.9,-5.2,-94.3,265.7,679,1684,1024,1033,1024,,,,,
237,24.1,0m 24.1s,-23.7622207,-46.59819226,P-GPS,154.2,47.0,,,19.1,8.5,19.0,8.5,283.6,86.4,-23.76208751,-46.59735531,10,4,97,16.294,0.032,4.068,4.054,4.086,4.086,-1.4,-8.4,0.1,-6.5,-5.1,-94.3,265.7,675,1684,1024,1028,1024,,,,,
238,24.2,0m 24.2s,-23.76222188,-46.59820044,P-GPS,154.2,47.0,,,18.9,8.4,18.9,8.4,286.4,87.3,-23.76208751,-46.59735531,10,4,97,16.294,0.032,4.068,4.054,4.086,4.086,-1.5,-8.3,0.1,-6.6,-4.9,-94.3,265.7,676,1684,1024,1028,1024,,,,,
239,24.3,0m 24.3s,-23.76222304,-46.5982086,P-GPS,154.2,47.0,,,18.9,8.4,18.8,8.4,289.1,88.1,-23.76208751,-46.59735531,10,4,97,16.294,0.032,4.068,4.054,4.086,4.086,-1.5,-8.3,0,-7.2,-4.8,-94.3,265.7,674,1684,1024,1024,1024,,,,,
240,24.4,0m 24.4s,-23.76222426,-46.5982168,P-GPS,154.2,47.0,,,18.9,8.4,18.8,8.4,291.9,89.0,-23.76208751,-46.59735531,10,4,97,16.294,0.032,4.068,4.054,4.086,4.086,-1.5,-8.3,0,-7.5,-4.7,-94.2,265.8,674,1684,1024,1024,1024,,,,,
241,24.5,0m 24.5s,-23.76222545,-46.59822497,P-GPS,154.2,47.0,,,18.9,8.4,18.9,8.4,294.7,89.8,-23.76208751,-46.59735531,10,4,97,16.294,0.032,4.068,4.054,4.086,4.086,-1.5,-8.3,0,-7.8,-4.4,-94.1,265.9,673,1684,1024,1024,1024,,,,,
242,24.6,0m 24.6s,-23.76222667,-46.59823318,P-GPS,154.2,47.0,,,18.9,8.4,18.9,8.4,297.5,90.7,-23.76208751,-46.59735531,10,4,97,16.294,0.032,4.068,4.054,4.086,4.086,-1.5,-8.3,0,-7.8,-4.4,-94.1,265.9,673,1684,1024,1024,1024,,,,,
243,24.7,0m 24.7s,-23.76222784,-46.59824137,P-GPS,154.5,47.1,,,18.9,8.4,18.9,8.5,300.2,91.5,-23.76208751,-46.59735531,10,4,97,16.294,0.032,4.068,4.054,4.086,4.086,-1.5,-8.3,-0.1,-7.4,-4.8,-94.2,265.8,673,1684,1024,1024,1024,,,,,
244,24.8,0m 24.8s,-23.76222905,-46.59824957,P-GPS,154.5,47.1,,,18.9,8.4,18.9,8.5,303.0,92.4,-23.76208751,-46.59735531,10,4,97,16.294,0.032,4.068,4.054,4.086,4.086,-1.5,-8.3,0.1,-7.1,-5,-94.3,265.7,673,1684,1024,1024,1024,,,,,
245,24.9,0m 24.9s,-23.76223023,-46.59825776,P-GPS,154.2,47.0,,,18.9,8.4,18.9,8.4,305.8,93.2,-23.76208751,-46.59735531,10,4,97,16.294,0.032,4.068,4.054,4.086,4.086,-1.5,-8.3,0.1,-6.5,-4.7,-94.3,265.7,673,1684,1024,1024,1024,,,,,
246,25,0m 25s,-23.76223146,-46.59826597,P-GPS,154.2,47.0,,,18.9,8.4,18.9,8.4,308.5,94.0,-23.76208751,-46.59735531,10,4,97,16.294,0.032,4.068,4.054,4.086,4.086,-1.5,-8.3,0.1,-6.2,-4.7,-94.3,265.7,680,1684,1024,1024,1024,,,,,
247,25.1,0m 25.1s,-23.76223269,-46.59827416,P-GPS,153.9,46.9,,,18.9,8.4,18.9,8.5,311.3,94.9,-23.76208751,-46.59735531,10,4,97,16.265,0.03,4.064,4.049,4.079,4.073,-1.5,-8.3,0.2,-6.6,-4.7,-94.3,265.7,680,1684,1024,1024,1024,,,,,
248,25.2,0m 25.2s,-23.76223398,-46.59828236,P-GPS,153.9,46.9,,,18.9,8.4,18.9,8.5,314.1,95.7,-23.76208751,-46.59735531,10,4,97,16.265,0.03,4.064,4.049,4.079,4.073,-1.5,-8.3,0.1,-7,-4.4,-94.3,265.7,681,1684,1024,1024,1024,,,,,
249,25.3,0m 25.3s,-23.76223522,-46.59829053,P-GPS,153.9,46.9,,,18.9,8.4,18.9,8.5,316.9,96.6,-23.76208751,-46.59735531,10,4,97,16.265,0.03,4.064,4.049,4.079,4.073,-1.5,-8.3,0.1,-7.2,-4.4,-94.2,265.8,679,1684,1024,1024,1024,,,,,
250,25.4,0m 25.4s,-23.76223647,-46.59829873,P-GPS,153.5,46.8,,,19.1,8.5,18.9,8.4,319.6,97.4,-23.76208751,-46.59735531,10,4,97,16.265,0.03,4.064,4.049,4.079,4.073,-1.5,-8.4,0,-7.1,-5,-94.3,265.7,681,1684,1024,1024,1024,,,,,
251,25.5,0m 25.5s,-23.76223769,-46.59830691,P-GPS,153.5,46.8,,,19.1,8.5,18.9,8.5,322.4,98.3,-23.76208751,-46.59735531,10,4,97,16.265,0.03,4.064,4.049,4.079,4.073,-1.5,-8.4,0,-7.2,-5.1,-94.2,265.8,691,1684,1024,1024,1024,,,,,
252,25.6,0m 25.6s,-23.76223895,-46.59831513,P-GPS,153.5,46.8,,,19.1,8.5,18.9,8.5,325.2,99.1,-23.76208751,-46.59735531,10,4,97,16.265,0.03,4.064,4.049,4.079,4.073,-1.5,-8.4,0,-6.8,-5,-94.3,265.7,696,1684,1024,1024,1024,,,,,
253,25.7,0m 25.7s,-23.76224019,-46.59832331,P-GPS,153.5,46.8,,,19.1,8.5,18.9,8.5,328.0,100.0,-23.76208751,-46.59735531,10,4,97,16.265,0.03,4.064,4.049,4.079,4.073,-1.5,-8.4,0,-7,-4.1,-94.2,265.8,699,1684,1024,1024,1024,,,,,
254,25.8,0m 25.8s,-23.76224145,-46.59833152,P-GPS,153.5,46.8,,,19.1,8.5,18.9,8.5,330.7,100.8,-23.76208751,-46.59735531,10,4,97,16.265,0.03,4.064,4.049,4.079,4.073,-1.5,-8.4,0,-7.1,-3.9,-94.1,265.9,703,1684,1024,1024,1024,,,,,
255,25.9,0m 25.9s,-23.76224266,-46.5983397,P-GPS,153.5,46.8,,,19.1,8.5,18.9,8.5,333.5,101.6,-23.76208751,-46.59735531,10,4,97,16.265,0.03,4.064,4.049,4.079,4.073,-1.4,-8.4,-0.1,-7,-3.7,-94.1,265.9,714,1684,1024,1024,1024,,,,,
256,26,0m 26s,-23.76224388,-46.59834791,P-GPS,153.5,46.8,,,19.1,8.5,18.9,8.5,336.3,102.5,-23.76208751,-46.59735531,10,4,97,16.265,0.03,4.064,4.049,4.079,4.073,-1.4,-8.4,-0.2,-6.5,-3.4,-94.1,265.9,720,1684,1024,1024,1024,,,,,
257,26.1,0m 26.1s,-23.76224502,-46.59835606,P-GPS,153.9,46.9,,,19.1,8.5,18.8,8.4,339.0,103.3,-23.76208751,-46.59735531,10,4,97,16.246,0.029,4.06,4.043,4.072,4.071,-1.4,-8.4,-0.2,-7.4,-4,-94.1,265.9,979,1684,1024,1024,1024,,,,,
258,26.2,0m 26.2s,-23.76224617,-46.59836426,P-GPS,153.5,46.8,,,19.1,8.5,18.8,8.4,341.8,104.2,-23.76208751,-46.59735531,10,4,97,16.246,0.029,4.06,4.043,4.072,4.071,-1.4,-8.4,0,-7,-4.2,-94.1,265.9,1024,1660,1024,1024,1024,,,,,
259,26.3,0m 26.3s,-23.76224728,-46.59837239,P-GPS,153.5,46.8,,,19.1,8.5,18.8,8.4,344.5,105.0,-23.76208751,-46.59735531,10,4,97,16.246,0.029,4.06,4.043,4.072,4.071,-1.4,-8.4,0,-6.1,-4,-94.3,265.7,1024,1684,1024,1024,1024,,,,,
260,26.4,0m 26.4s,-23.76224843,-46.59838054,P-GPS,153.5,46.8,,,19.1,8.5,18.8,8.4,347.3,105.9,-23.76208751,-46.59735531,10,4,97,16.246,0.029,4.06,4.043,4.072,4.071,-1.4,-8.4,0,-4.4,-3.2,-94.3,265.7,996,1684,1024,1024,1024,,,,,
261,26.5,0m 26.5s,-23.76224955,-46.5983887,P-GPS,153.5,46.8,,,19.1,8.5,18.8,8.4,350.0,106.7,-23.76208751,-46.59735531,10,4,97,16.246,0.029,4.06,4.043,4.072,4.071,-1.4,-8.4,0.1,-5,-2.2,-94.2,265.8,1022,1684,1024,1024,1024,,,,,
262,26.6,0m 26.6s,-23.76225072,-46.59839697,P-GPS,153.2,46.7,,,19.0,8.5,18.9,8.5,352.8,107.5,-23.76208751,-46.59735531,10,4,97,16.246,0.029,4.06,4.043,4.072,4.071,-1.3,-8.4,0.1,-6,-1,-94.3,265.7,1024,1684,1024,1024,1024,,,,,
263,26.7,0m 26.7s,-23.76225183,-46.59840524,P-GPS,153.2,46.7,,,19.0,8.5,19.0,8.5,355.6,108.4,-23.76208751,-46.59735531,10,4,97,16.246,0.029,4.06,4.043,4.072,4.071,-1.3,-8.4,0,-5.9,-0.6,-94.3,265.7,1024,1684,1024,1024,1024,,,,,
264,26.8,0m 26.8s,-23.76225291,-46.59841352,P-GPS,152.9,46.6,,,19.0,8.5,19.1,8.5,358.4,109.2,-23.76208751,-46.59735531,10,4,97,16.246,0.029,4.06,4.043,4.072,4.071,-1.2,-8.4,0,-6,-0.8,-94.2,265.8,1024,1658,1024,1024,1024,,,,,
265,26.9,0m 26.9s,-23.76225386,-46.59842166,P-GPS,152.9,46.6,,,19.2,8.6,18.9,8.4,361.2,110.1,-23.76208751,-46.59735531,10,4,97,16.246,0.029,4.06,4.043,4.072,4.071,-1.2,-8.5,0,-5.7,-0.9,-94.3,265.7,1024,1485,1024,1024,1024,,,,,
266,27,0m 27s,-23.76225476,-46.59842972,P-GPS,152.9,46.6,,,19.2,8.6,18.6,8.3,363.9,110.9,-23.76208751,-46.59735531,10,4,97,16.246,0.029,4.06,4.043,4.072,4.071,-1.1,-8.5,0,-3.5,-1.3,-94.4,265.6,1024,1397,1024,1024,1024,,,,,
267,27.1,0m 27.1s,-23.76225556,-46.59843782,P-GPS,152.9,46.6,,,18.9,8.5,18.5,8.3,366.6,111.7,-23.76208751,-46.59735531,10,4,97,16.331,0.027,4.081,4.066,4.093,4.091,-1.1,-8.4,0,3.9,-0.5,-94.4,265.6,1019,1465,1024,1024,1024,,,,,
268,27.2,0m 27.2s,-23.76225638,-46.59844596,P-GPS,152.9,46.6,,,18.5,8.3,18.6,8.3,369.3,112.6,-23.76208751,-46.59735531,10,4,97,16.331,0.027,4.081,4.066,4.093,4.091,-1,-8.2,0,8.8,-0.8,-94.4,265.6,1024,1606,1024,1024,1024,,,,,
269,27.3,0m 27.3s,-23.76225709,-46.59845385,P-GPS,152.6,46.5,,,18.0,8.1,18.4,8.2,371.9,113.4,-23.76208751,-46.59735531,10,4,97,16.331,0.027,4.081,4.066,4.093,4.091,-0.9,-8,0,11.4,-1.1,-94.4,265.6,1024,1684,1024,1024,1030,,,,,
270,27.4,0m 27.4s,-23.7622578,-46.59846146,P-GPS,152.6,46.5,,,17.3,7.8,17.7,7.9,374.5,114.1,-23.76208751,-46.59735531,10,4,97,16.331,0.027,4.081,4.066,4.093,4.091,-0.9,-7.7,0,11.2,-0.8,-94.4,265.6,1024,1684,1024,1191,1202,,,,,
271,27.5,0m 27.5s,-23.76225839,-46.59846873,P-GPS,152.2,46.4,,,16.6,7.4,17.0,7.6,376.9,114.9,-23.76208751,-46.59735531,10,4,97,16.331,0.027,4.081,4.066,4.093,4.091,-0.8,-7.4,0.1,7,-0.9,-94.3,265.7,1024,1679,1024,1368,1255,,,,,
272,27.6,0m 27.6s,-23.76225898,-46.5984758,P-GPS,152.2,46.4,,,16.2,7.2,16.3,7.3,379.3,115.6,-23.76208751,-46.59735531,10,4,97,16.331,0.027,4.081,4.066,4.093,4.091,-0.8,-7.2,0,3.1,-1.9,-93.9,266.1,1024,1680,1024,1424,1337,,,,,
273,27.7,0m 27.7s,-23.76225947,-46.59848269,P-GPS,152.2,46.4,,,15.9,7.1,15.9,7.1,381.6,116.3,-23.76208751,-46.59735531,10,4,97,16.331,0.027,4.081,4.066,4.093,4.091,-0.7,-7.1,0,1.4,-1.3,-92.7,267.3,1024,1684,1024,1380,1323,,,,,
274,27.8,0m 27.8s,-23.76225995,-46.5984895,P-GPS,152.2,46.4,,,15.7,7.0,15.6,7.0,383.9,117.0,-23.76208751,-46.59735531,10,4,97,16.331,0.027,4.081,4.066,4.093,4.091,-0.7,-7,0,0.5,-0.9,-90.3,269.7,1024,1684,1024,1217,1130,,,,,
275,27.9,0m 27.9s,-23.7622603,-46.5984962,P-GPS,152.6,46.5,,,15.5,6.9,15.4,6.9,386.1,117.7,-23.76208751,-46.59735531,10,4,97,16.331,0.027,4.081,4.066,4.093,4.091,-0.6,-6.9,-0.2,-0.8,-0.5,-88,272,1024,1684,1024,1166,1024,,,,,
276,28,0m 28s,-23.76226063,-46.59850288,P-GPS,152.6,46.5,,,15.5,6.9,15.2,6.8,388.3,118.4,-23.76208751,-46.59735531,10,4,97,16.331,0.027,4.081,4.066,4.093,4.091,-0.5,-6.9,-0.1,-5.1,-1.2,-87.6,272.4,1024,1684,1024,1090,1024,,,,,
277,28.1,0m 28.1s,-23.76226083,-46.59850951,P-GPS,152.6,46.5,,,15.5,6.9,15.2,6.8,390.5,119.0,-23.76208751,-46.59735531,10,4,97,16.331,0.027,4.081,4.066,4.093,4.091,-0.5,-6.9,-0.2,-6.3,-0.4,-87.4,272.6,1024,1684,1024,1024,1024,,,,,
278,28.2,0m 28.2s,-23.76226099,-46.59851616,P-GPS,152.9,46.6,,,15.5,6.9,15.2,6.8,392.7,119.7,-23.76208751,-46.59735531,10,4,97,16.331,0.027,4.081,4.066,4.093,4.091,-0.4,-6.9,-0.3,-7,0.2,-87.4,272.6,1024,1684,1024,1024,1024,,,,,
279,28.3,0m 28.3s,-23.76226098,-46.59852295,P-GPS,153.2,46.7,,,15.7,7.0,15.3,6.8,394.9,120.4,-23.76208751,-46.59735531,10,4,97,16.331,0.027,4.081,4.066,4.093,4.091,-0.2,-7,-0.2,-7.9,-0.3,-87.5,272.5,1024,1684,1024,1024,1074,,,,,
